[
  {
    "vehicleNum": "070109",
    "vehicleCd": "407",
    "vehicleCorpCd": "1",
    "running": true,
    "lat": 34.476,
    "lon": 135.542889,
    "route": "金剛駅前→狭山ニュータウンセンター→泉ヶ丘駅",
    "stop": "大野台四丁目",
    "passTime": "20:50",
    "vehicleType": "泉北コミュニティバス(車椅子・ベビーカー・ノンステップ)",
    "updateTime": "2026/07/18 20:51"
  },
  {
    "vehicleNum": "071602",
    "vehicleCd": "109",
    "vehicleCorpCd": "1",
    "running": true,
    "lat": 34.574583,
    "lon": 135.481,
    "route": "堺東駅前→大小路→堺駅前",
    "stop": "堺市役所前",
    "passTime": "20:49",
    "vehicleType": "堺シャトル(車椅子・ベビーカー・ノンステップ)",
    "updateTime": "2026/07/18 20:51"
  },
  {
    "vehicleNum": "071607",
    "vehicleCd": "414",
    "vehicleCorpCd": "1",
    "running": true,
    "lat": 34.581694,
    "lon": 135.469583,
    "route": "堺駅前→大小路→堺東駅前",
    "stop": "堺駅前",
    "passTime": "20:50",
    "vehicleType": "堺シャトル(車椅子・ベビーカー・ノンステップ)",
    "updateTime": "2026/07/18 20:51"
  },
  {
    "vehicleNum": "080178",
    "vehicleCd": "56",
    "vehicleCorpCd": "2",
    "running": true,
    "lat": 34.455083,
    "lon": 135.384778,
    "route": "岸和田駅前→天神山・一の宮循環　左回り→岸和田駅前",
    "stop": "岸和田警察署前",
    "passTime": "20:50",
    "vehicleType": "南海ウイングバス(車椅子・ベビーカー・ワンステップ)",
    "updateTime": "2026/07/18 20:51"
  },
  {
    "vehicleNum": "080179",
    "vehicleCd": "66",
    "vehicleCorpCd": "2",
    "running": true,
    "lat": 34.429889,
    "lon": 135.429083,
    "route": "道の駅愛彩ランド→岸和田警察署前→岸和田駅前",
    "stop": "職業能力開発大学",
    "passTime": "20:49",
    "vehicleType": "南海ウイングバス(車椅子・ワンステップ)",
    "updateTime": "2026/07/18 20:51"
  },
  {
    "vehicleNum": "080321",
    "vehicleCd": "14",
    "vehicleCorpCd": "2",
    "running": true,
    "lat": 34.332389,
    "lon": 135.220889,
    "route": "箱作駅前→桃の木台回り→箱作駅前",
    "stop": "桃の木台１丁目",
    "passTime": "20:50",
    "vehicleType": "南海ウイングバス(車椅子・ワンステップ)",
    "updateTime": "2026/07/18 20:51"
  },
  {
    "vehicleNum": "080388",
    "vehicleCd": "52",
    "vehicleCorpCd": "2",
    "running": true,
    "lat": 34.4075,
    "lon": 135.295389,
    "route": "イオンモール→ワシントンホテル→イオンモールりんくう泉南",
    "stop": "警察学校前",
    "passTime": "20:46",
    "vehicleType": "南海ウイングバス(車椅子・ベビーカー・ワンステップ)",
    "updateTime": "2026/07/18 20:51"
  },
  {
    "vehicleNum": "080463",
    "vehicleCd": "36",
    "vehicleCorpCd": "2",
    "running": true,
    "lat": 34.3815,
    "lon": 135.354583,
    "route": "泉佐野駅前→ダンバラ公園前→熊取駅前→大阪体育大学前",
    "stop": "大阪体育大学口",
    "passTime": "20:50",
    "vehicleType": "南海ウイングバス(車椅子・ベビーカー・ノンステップ)",
    "updateTime": "2026/07/18 20:51"
  },
  {
    "vehicleNum": "080628",
    "vehicleCd": "445",
    "vehicleCorpCd": "1",
    "running": true,
    "lat": 34.558389,
    "lon": 135.541389,
    "route": "美原区役所→野遠→地下鉄新金岡駅前",
    "stop": "野遠",
    "passTime": "20:50",
    "vehicleType": "南海バス(車椅子・ベビーカー・ノンステップ)",
    "updateTime": "2026/07/18 20:51"
  },
  {
    "vehicleNum": "080651",
    "vehicleCd": "455",
    "vehicleCorpCd": "1",
    "running": true,
    "lat": 34.544278,
    "lon": 135.544083,
    "route": "地下鉄新金岡駅前→野遠→美原区役所",
    "stop": "大饗",
    "passTime": "20:50",
    "vehicleType": "南海バス",
    "updateTime": "2026/07/18 20:51"
  },
  {
    "vehicleNum": "080652",
    "vehicleCd": "456",
    "vehicleCorpCd": "1",
    "running": true,
    "lat": 34.539194,
    "lon": 135.559778,
    "route": "美原区役所→初芝駅前→美原区役所",
    "stop": "美原区役所前",
    "passTime": "20:47",
    "vehicleType": "南海バス",
    "updateTime": "2026/07/18 20:51"
  },
  {
    "vehicleNum": "080708",
    "vehicleCd": "537",
    "vehicleCorpCd": "1",
    "running": true,
    "lat": 34.500083,
    "lon": 135.569083,
    "route": "金剛駅前→高辺台小学校前→金剛駅前",
    "stop": "高辺台小学校前",
    "passTime": "20:50",
    "vehicleType": "南海バス(車椅子・ベビーカー・ノンステップ)",
    "updateTime": "2026/07/18 20:51"
  },
  {
    "vehicleNum": "080744",
    "vehicleCd": "550",
    "vehicleCorpCd": "1",
    "running": true,
    "lat": 34.483694,
    "lon": 135.516889,
    "route": "泉ヶ丘駅→槙塚台左回り→泉ヶ丘駅",
    "stop": "槙塚台２丁北",
    "passTime": "20:50",
    "vehicleType": "南海バス(車椅子・ベビーカー・ノンステップ)",
    "updateTime": "2026/07/18 20:51"
  },
  {
    "vehicleNum": "080747",
    "vehicleCd": "161",
    "vehicleCorpCd": "1",
    "running": true,
    "lat": 34.5525,
    "lon": 135.514889,
    "route": "美原区役所前→船戸下→初芝駅前→中もず駅前",
    "stop": "中もず団地前",
    "passTime": "20:50",
    "vehicleType": "南海バス(車椅子・ベビーカー・ノンステップ)",
    "updateTime": "2026/07/18 20:51"
  },
  {
    "vehicleNum": "080750",
    "vehicleCd": "103",
    "vehicleCorpCd": "1",
    "running": true,
    "lat": 34.582389,
    "lon": 135.486278,
    "route": "堺駅西口→錦綾町→堺東駅前",
    "stop": "錦綾町",
    "passTime": "20:50",
    "vehicleType": "南海バス(車椅子・ベビーカー・ノンステップ)",
    "updateTime": "2026/07/18 20:51"
  },
  {
    "vehicleNum": "080758",
    "vehicleCd": "511",
    "vehicleCorpCd": "1",
    "running": true,
    "lat": 34.520583,
    "lon": 135.489194,
    "route": "津久野駅前→堺市立総合医療センター前→八田荘団地→泉ヶ丘駅",
    "stop": "小阪",
    "passTime": "20:50",
    "vehicleType": "南海バス(車椅子・ベビーカー・ノンステップ)",
    "updateTime": "2026/07/18 20:51"
  },
  {
    "vehicleNum": "080760",
    "vehicleCd": "559",
    "vehicleCorpCd": "1",
    "running": true,
    "lat": 34.539694,
    "lon": 135.538389,
    "route": "美原区役所前→船戸下→初芝駅前→中もず駅前",
    "stop": "原寺",
    "passTime": "20:51",
    "vehicleType": "南海バス(車椅子・ベビーカー・ノンステップ)",
    "updateTime": "2026/07/18 20:51"
  },
  {
    "vehicleNum": "080756",
    "vehicleCd": "315",
    "vehicleCorpCd": "1",
    "running": true,
    "lat": 34.490472,
    "lon": 135.499083,
    "route": "泉ヶ丘駅→鉢ヶ峯→泉ヶ丘駅",
    "stop": "泉北高校前",
    "passTime": "20:48",
    "vehicleType": "南海バス(車椅子・ベビーカー・ノンステップ)",
    "updateTime": "2026/07/18 20:51"
  },
  {
    "vehicleNum": "080766",
    "vehicleCd": "565",
    "vehicleCorpCd": "1",
    "running": true,
    "lat": 34.554583,
    "lon": 135.500389,
    "route": "北野田駅前→西口園→堺駅南口",
    "stop": "中もず町",
    "passTime": "20:50",
    "vehicleType": "南海バス(車椅子・ベビーカー・ノンステップ)",
    "updateTime": "2026/07/18 20:51"
  },
  {
    "vehicleNum": "080788",
    "vehicleCd": "299",
    "vehicleCorpCd": "1",
    "running": true,
    "lat": 34.5875,
    "lon": 135.469583,
    "route": "海浜匠町→匠町→堺駅西口→堺東駅前→阪和堺市駅前",
    "stop": "三宝公園前",
    "passTime": "20:50",
    "vehicleType": "南海バス(車椅子・ベビーカー・ノンステップ)",
    "updateTime": "2026/07/18 20:51"
  },
  {
    "vehicleNum": "080767",
    "vehicleCd": "566",
    "vehicleCorpCd": "1",
    "running": true,
    "lat": 34.514194,
    "lon": 135.511194,
    "route": "深井駅→田園→泉ヶ丘駅",
    "stop": "田園北口",
    "passTime": "20:51",
    "vehicleType": "南海バス(車椅子・ベビーカー・ノンステップ)",
    "updateTime": "2026/07/18 20:51"
  },
  {
    "vehicleNum": "080787",
    "vehicleCd": "301",
    "vehicleCorpCd": "1",
    "running": true,
    "lat": 34.567389,
    "lon": 135.5055,
    "route": "地下鉄新金岡駅前→堺駅南口",
    "stop": "金岡公園前",
    "passTime": "20:50",
    "vehicleType": "南海バス(車椅子・ベビーカー・ノンステップ)",
    "updateTime": "2026/07/18 20:51"
  },
  {
    "vehicleNum": "080806",
    "vehicleCd": "307",
    "vehicleCorpCd": "1",
    "running": true,
    "lat": 34.574889,
    "lon": 135.514389,
    "route": "堺駅前→堺東駅前→河内松原駅前",
    "stop": "蔵前西",
    "passTime": "20:49",
    "vehicleType": "南海バス(車椅子・ベビーカー・ノンステップ)",
    "updateTime": "2026/07/18 20:51"
  },
  {
    "vehicleNum": "080808",
    "vehicleCd": "216",
    "vehicleCorpCd": "1",
    "running": true,
    "lat": 34.555194,
    "lon": 135.519083,
    "route": "堺東駅前→白鷺駅前→堺東駅前（循環）",
    "stop": "金岡町",
    "passTime": "20:50",
    "vehicleType": "南海バス(車椅子・ベビーカー・ノンステップ)",
    "updateTime": "2026/07/18 20:51"
  },
  {
    "vehicleNum": "080800",
    "vehicleCd": "304",
    "vehicleCorpCd": "1",
    "running": true,
    "lat": 34.574583,
    "lon": 135.473583,
    "route": "河内松原駅前→阪和堺市駅前→堺駅前",
    "stop": "大寺南門山之口前",
    "passTime": "20:50",
    "vehicleType": "南海バス(車椅子・ベビーカー・ノンステップ)",
    "updateTime": "2026/07/18 20:51"
  },
  {
    "vehicleNum": "080827",
    "vehicleCd": "317",
    "vehicleCorpCd": "1",
    "running": true,
    "lat": 34.594889,
    "lon": 135.458583,
    "route": "堺東駅前→材木町→堺駅西口",
    "stop": "堺浜シーサイドステージ",
    "passTime": "20:46",
    "vehicleType": "南海バス(車椅子・ベビーカー・ノンステップ)",
    "updateTime": "2026/07/18 20:51"
  },
  {
    "vehicleNum": "080835",
    "vehicleCd": "310",
    "vehicleCorpCd": "1",
    "running": true,
    "lat": 34.489278,
    "lon": 135.5705,
    "route": "金剛駅前→寺池台小学校前→金剛駅前",
    "stop": "寺池台小学校前",
    "passTime": "20:49",
    "vehicleType": "南海バス(車椅子・ベビーカー・ノンステップ)",
    "updateTime": "2026/07/18 20:51"
  },
  {
    "vehicleNum": "080838",
    "vehicleCd": "129",
    "vehicleCorpCd": "1",
    "running": true,
    "lat": 34.594583,
    "lon": 135.444694,
    "route": "匠町→住之江公園駅前→匠町",
    "stop": "匠町",
    "passTime": "20:50",
    "vehicleType": "南海バス(車椅子・ベビーカー・ノンステップ)",
    "updateTime": "2026/07/18 20:51"
  },
  {
    "vehicleNum": "080857",
    "vehicleCd": "226",
    "vehicleCorpCd": "1",
    "running": true,
    "lat": 34.574778,
    "lon": 135.537389,
    "route": "河内松原駅前→阪和堺市駅前→堺東駅前",
    "stop": "布忍駅筋",
    "passTime": "20:50",
    "vehicleType": "南海バス(車椅子・ベビーカー・ノンステップ)",
    "updateTime": "2026/07/18 20:51"
  },
  {
    "vehicleNum": "080870",
    "vehicleCd": "153",
    "vehicleCorpCd": "1",
    "running": true,
    "lat": 34.588,
    "lon": 135.527083,
    "route": "河内天美駅前→天美我堂→堺東駅前",
    "stop": "天美西",
    "passTime": "20:49",
    "vehicleType": "南海バス(車椅子・ベビーカー・ノンステップ)",
    "updateTime": "2026/07/18 20:51"
  },
  {
    "vehicleNum": "080874",
    "vehicleCd": "352",
    "vehicleCorpCd": "1",
    "running": true,
    "lat": 34.4975,
    "lon": 135.543694,
    "route": "泉ヶ丘駅→狭山ニュータウンセンター→金剛駅前",
    "stop": "狭山西小学校前",
    "passTime": "20:50",
    "vehicleType": "南海バス(車椅子・ベビーカー・ノンステップ)",
    "updateTime": "2026/07/18 20:51"
  },
  {
    "vehicleNum": "080894",
    "vehicleCd": "350",
    "vehicleCorpCd": "1",
    "running": true,
    "lat": 34.529889,
    "lon": 135.536389,
    "route": "北野田駅前→多治井北（循環）→北野田駅前",
    "stop": "高松",
    "passTime": "20:51",
    "vehicleType": "南海バス(車椅子・ベビーカー・ノンステップ)",
    "updateTime": "2026/07/18 20:51"
  },
  {
    "vehicleNum": "080912",
    "vehicleCd": "372",
    "vehicleCorpCd": "1",
    "running": true,
    "lat": 34.565889,
    "lon": 135.501278,
    "route": "堺駅南口→阪和堺市駅",
    "stop": "向陵中町",
    "passTime": "20:50",
    "vehicleType": "南海バス(車椅子・ベビーカー・ノンステップ)",
    "updateTime": "2026/07/18 20:51"
  },
  {
    "vehicleNum": "080913",
    "vehicleCd": "128",
    "vehicleCorpCd": "1",
    "running": true,
    "lat": 34.583083,
    "lon": 135.515278,
    "route": "堺東駅前→錦綾町→河内天美駅前",
    "stop": "奥本町",
    "passTime": "20:49",
    "vehicleType": "南海バス(車椅子・ベビーカー・ノンステップ)",
    "updateTime": "2026/07/18 20:51"
  },
  {
    "vehicleNum": "080920",
    "vehicleCd": "327",
    "vehicleCorpCd": "1",
    "running": true,
    "lat": 34.477194,
    "lon": 135.496694,
    "route": "栂・美木多駅→原山台回り→栂・美木多駅",
    "stop": "原山台４丁",
    "passTime": "20:51",
    "vehicleType": "南海バス(車椅子・ベビーカー・ノンステップ)",
    "updateTime": "2026/07/18 20:51"
  },
  {
    "vehicleNum": "080937",
    "vehicleCd": "595",
    "vehicleCorpCd": "1",
    "running": true,
    "lat": 34.549,
    "lon": 135.483583,
    "route": "堺東駅前→上野芝→泉ヶ丘駅",
    "stop": "上野芝",
    "passTime": "20:50",
    "vehicleType": "南海バス(車椅子・ベビーカー・ノンステップ)",
    "updateTime": "2026/07/18 20:51"
  },
  {
    "vehicleNum": "080951",
    "vehicleCd": "597",
    "vehicleCorpCd": "1",
    "running": true,
    "lat": 34.497583,
    "lon": 135.519694,
    "route": "泉ヶ丘駅→スマ・エコタウン晴美台→高倉台左回り→泉ヶ丘駅",
    "stop": "三原台１丁",
    "passTime": "20:50",
    "vehicleType": "南海バス(車椅子・ベビーカー・ノンステップ)",
    "updateTime": "2026/07/18 20:51"
  },
  {
    "vehicleNum": "080967",
    "vehicleCd": "605",
    "vehicleCorpCd": "1",
    "running": true,
    "lat": 34.536,
    "lon": 135.550389,
    "route": "初芝駅前→平尾→初芝駅前",
    "stop": "農芸高校前",
    "passTime": "20:50",
    "vehicleType": "南海バス(車椅子・ベビーカー・ノンステップ)",
    "updateTime": "2026/07/18 20:51"
  },
  {
    "vehicleNum": "080977",
    "vehicleCd": "388",
    "vehicleCorpCd": "1",
    "running": true,
    "lat": 34.5315,
    "lon": 135.497194,
    "route": "深井駅→八田荘団地→津久野駅前",
    "stop": "深井駅（西側）",
    "passTime": "20:49",
    "vehicleType": "南海バス(車椅子・ベビーカー・ノンステップ)",
    "updateTime": "2026/07/18 20:51"
  },
  {
    "vehicleNum": "080995",
    "vehicleCd": "118",
    "vehicleCorpCd": "1",
    "running": true,
    "lat": 34.480389,
    "lon": 135.491194,
    "route": "栂・美木多駅→御池台回り→栂・美木多駅",
    "stop": "原山公園前",
    "passTime": "20:50",
    "vehicleType": "南海バス(車椅子・ベビーカー・ノンステップ)",
    "updateTime": "2026/07/18 20:51"
  },
  {
    "vehicleNum": "080999",
    "vehicleCd": "493",
    "vehicleCorpCd": "1",
    "running": true,
    "lat": 34.528694,
    "lon": 135.523583,
    "route": "北野田駅前→福町→堺駅南口",
    "stop": "中茶屋",
    "passTime": "20:50",
    "vehicleType": "南海バス(車椅子・ベビーカー・ノンステップ)",
    "updateTime": "2026/07/18 20:51"
  },
  {
    "vehicleNum": "081004",
    "vehicleCd": "271",
    "vehicleCorpCd": "1",
    "running": true,
    "lat": 34.567694,
    "lon": 135.487889,
    "route": "堺駅南口→福町→北野田駅前",
    "stop": "永山園",
    "passTime": "20:49",
    "vehicleType": "南海バス(車椅子・ベビーカー・ノンステップ)",
    "updateTime": "2026/07/18 20:51"
  },
  {
    "vehicleNum": "081001",
    "vehicleCd": "238",
    "vehicleCorpCd": "1",
    "running": true,
    "lat": 34.541778,
    "lon": 135.468083,
    "route": "堺東駅前→津久野駅前→堀上緑町一丁→津久野駅前",
    "stop": "堺市立総合医療センター北",
    "passTime": "20:47",
    "vehicleType": "南海バス(車椅子・ベビーカー・ノンステップ)",
    "updateTime": "2026/07/18 20:51"
  },
  {
    "vehicleNum": "081017",
    "vehicleCd": "135",
    "vehicleCorpCd": "1",
    "running": true,
    "lat": 34.511278,
    "lon": 135.494694,
    "route": "泉ヶ丘駅→深阪→津久野駅前",
    "stop": "伏尾",
    "passTime": "20:50",
    "vehicleType": "南海バス(車椅子・ベビーカー・ノンステップ)",
    "updateTime": "2026/07/18 20:51"
  },
  {
    "vehicleNum": "081021",
    "vehicleCd": "243",
    "vehicleCorpCd": "1",
    "running": true,
    "lat": 34.537194,
    "lon": 135.515972,
    "route": "堺駅南口→三国ヶ丘駅前→北野田駅前",
    "stop": "大野芝",
    "passTime": "20:51",
    "vehicleType": "南海バス(車椅子・ベビーカー・ノンステップ)",
    "updateTime": "2026/07/18 20:51"
  },
  {
    "vehicleNum": "081020",
    "vehicleCd": "163",
    "vehicleCorpCd": "1",
    "running": true,
    "lat": 34.546389,
    "lon": 135.4735,
    "route": "津久野駅前→堀上緑町一丁→津久野駅前→堺東駅前",
    "stop": "津久野町",
    "passTime": "20:50",
    "vehicleType": "南海バス(車椅子・ベビーカー・ノンステップ)",
    "updateTime": "2026/07/18 20:51"
  },
  {
    "vehicleNum": "081037",
    "vehicleCd": "236",
    "vehicleCorpCd": "1",
    "running": true,
    "lat": 34.473278,
    "lon": 135.501278,
    "route": "栂・美木多駅→庭代台右回り→栂・美木多駅",
    "stop": "庭代台３丁",
    "passTime": "20:51",
    "vehicleType": "南海バス(車椅子・ベビーカー・ノンステップ)",
    "updateTime": "2026/07/18 20:51"
  },
  {
    "vehicleNum": "090104",
    "vehicleCd": "53",
    "vehicleCorpCd": "2",
    "running": true,
    "lat": 34.448389,
    "lon": 135.384194,
    "route": "岸和田駅前→岸和田警察署前→河合→白原車庫",
    "stop": "岸和田警察署前",
    "passTime": "20:47",
    "vehicleType": "南海ウイングバス(車椅子・ベビーカー・ワンステップ)",
    "updateTime": "2026/07/18 20:51"
  },
  {
    "vehicleNum": "090144",
    "vehicleCd": "82",
    "vehicleCorpCd": "2",
    "running": true,
    "lat": 34.460694,
    "lon": 135.4345,
    "route": "和泉中央駅→荒木町→岸和田駅前",
    "stop": "東ヶ丘西",
    "passTime": "20:51",
    "vehicleType": "南海ウイングバス(車椅子・ベビーカー・ワンステップ)",
    "updateTime": "2026/07/18 20:51"
  },
  {
    "vehicleNum": "090160",
    "vehicleCd": "72",
    "vehicleCorpCd": "2",
    "running": true,
    "lat": 34.451278,
    "lon": 135.430694,
    "route": "岸和田駅前→内畑→白原車庫",
    "stop": "山直市民センター前",
    "passTime": "20:50",
    "vehicleType": "南海ウイングバス(車椅子・ワンステップ)",
    "updateTime": "2026/07/18 20:51"
  },
  {
    "vehicleNum": "091444",
    "vehicleCd": "107",
    "vehicleCorpCd": "2",
    "running": true,
    "lat": 34.388083,
    "lon": 135.342583,
    "route": "熊取ニュータウン→熊取駅前→上瓦屋町→泉佐野駅前（フリー乗降）",
    "stop": "青年会場前",
    "passTime": "07:19",
    "vehicleType": "南海ウイングバス(車椅子・ベビーカー・ノンステップ)",
    "updateTime": "2026/07/18 20:51"
  },
  {
    "vehicleNum": "091601",
    "vehicleCd": "202",
    "vehicleCorpCd": "1",
    "running": true,
    "lat": 34.422778,
    "lon": 135.225278,
    "route": "給油地区→空港駅",
    "stop": "ANA車輌整備工場前",
    "passTime": "20:50",
    "vehicleType": "南海バス(車椅子・ノンステップ)",
    "updateTime": "2026/07/18 20:51"
  },
  {
    "vehicleNum": "091837",
    "vehicleCd": "209",
    "vehicleCorpCd": "1",
    "running": true,
    "lat": 34.656778,
    "lon": 135.433,
    "route": "堺東駅前→フェリー→ＡＴＣ→海遊館→堺東駅前",
    "stop": "海遊館",
    "passTime": "20:50",
    "vehicleType": "南海バス",
    "updateTime": "2026/07/18 20:51"
  },
  {
    "vehicleNum": "091792",
    "vehicleCd": "59",
    "vehicleCorpCd": "1",
    "running": true,
    "lat": 34.434083,
    "lon": 135.239778,
    "route": "第１ターミナル→ポートターミナル",
    "stop": "旅客ターミナル",
    "passTime": "20:50",
    "vehicleType": "南海バス(車椅子・ノンステップ)",
    "updateTime": "2026/07/18 20:51"
  },
  {
    "vehicleNum": "092153",
    "vehicleCd": "529",
    "vehicleCorpCd": "1",
    "running": true,
    "lat": 34.437583,
    "lon": 135.231278,
    "route": "エアロプラザ→第２ターミナル(国内線・国際線)→エアロプラザ",
    "stop": "エアロプラザ",
    "passTime": "20:46",
    "vehicleType": "南海バス",
    "updateTime": "2026/07/18 20:51"
  },
  {
    "vehicleNum": "092345",
    "vehicleCd": "160",
    "vehicleCorpCd": "1",
    "running": true,
    "lat": 34.435,
    "lon": 135.239694,
    "route": "空港駅→給油地区",
    "stop": "空港駅",
    "passTime": "20:50",
    "vehicleType": "南海バス",
    "updateTime": "2026/07/18 20:51"
  },
  {
    "vehicleNum": "092372",
    "vehicleCd": "159",
    "vehicleCorpCd": "1",
    "running": true,
    "lat": 34.497,
    "lon": 135.480583,
    "route": "栂・美木多駅→鳳駅前→堺東駅前",
    "stop": "福泉南中学校前",
    "passTime": "20:49",
    "vehicleType": "南海バス(車椅子・ベビーカー・ノンステップ)",
    "updateTime": "2026/07/18 20:51"
  },
  {
    "vehicleNum": "092398",
    "vehicleCd": "41",
    "vehicleCorpCd": "1",
    "running": true,
    "lat": 34.4335,
    "lon": 135.231778,
    "route": "エアロプラザ→第２ターミナル(国内線・国際線)→エアロプラザ",
    "stop": "第2ターミナル国際線",
    "passTime": "20:48",
    "vehicleType": "南海バス(車椅子・ノンステップ)",
    "updateTime": "2026/07/18 20:51"
  },
  {
    "vehicleNum": "092383",
    "vehicleCd": "44",
    "vehicleCorpCd": "1",
    "running": true,
    "lat": 34.436694,
    "lon": 135.464778,
    "route": "和泉中央駅→和泉青葉台→はつが野→和泉中央駅（右回り）",
    "stop": "南松尾はつが野学園前",
    "passTime": "20:51",
    "vehicleType": "南海バス(車椅子・ベビーカー・ワンステップ)",
    "updateTime": "2026/07/18 20:51"
  },
  {
    "vehicleNum": "092483",
    "vehicleCd": "110",
    "vehicleCorpCd": "1",
    "running": true,
    "lat": 34.433778,
    "lon": 135.562,
    "route": "三日市町駅前→南花台１丁目北→大矢船西町",
    "stop": "南花台１丁目北",
    "passTime": "20:50",
    "vehicleType": "南海バス(車椅子・ベビーカー・ノンステップ)",
    "updateTime": "2026/07/18 20:51"
  },
  {
    "vehicleNum": "092482",
    "vehicleCd": "528",
    "vehicleCorpCd": "1",
    "running": true,
    "lat": 34.459,
    "lon": 135.554,
    "route": "千代田駅前→赤峯→荘園町",
    "stop": "荘園橋東",
    "passTime": "20:51",
    "vehicleType": "南海バス(車椅子・ベビーカー・ノンステップ)",
    "updateTime": "2026/07/18 20:51"
  },
  {
    "vehicleNum": "092569",
    "vehicleCd": "266",
    "vehicleCorpCd": "1",
    "running": true,
    "lat": 34.4955,
    "lon": 135.466889,
    "route": "堺東駅前→鳳駅前→光明池駅",
    "stop": "日本工機前",
    "passTime": "20:51",
    "vehicleType": "南海バス(車椅子・ベビーカー・ノンステップ)",
    "updateTime": "2026/07/18 20:51"
  },
  {
    "vehicleNum": "092578",
    "vehicleCd": "147",
    "vehicleCorpCd": "1",
    "running": true,
    "lat": 34.438889,
    "lon": 135.585,
    "route": "小吹台→河内長野駅前",
    "stop": "清見台東口",
    "passTime": "20:50",
    "vehicleType": "南海バス(車椅子・ベビーカー・ノンステップ)",
    "updateTime": "2026/07/18 20:51"
  },
  {
    "vehicleNum": "092653",
    "vehicleCd": "357",
    "vehicleCorpCd": "1",
    "running": true,
    "lat": 34.423,
    "lon": 135.582278,
    "route": "美加の台駅前→美加の台口→美加の台駅前",
    "stop": "美加の台口",
    "passTime": "20:49",
    "vehicleType": "南海バス(車椅子・ベビーカー・ノンステップ)",
    "updateTime": "2026/07/18 20:51"
  },
  {
    "vehicleNum": "092829",
    "vehicleCd": "488",
    "vehicleCorpCd": "1",
    "running": true,
    "lat": 34.487694,
    "lon": 135.424,
    "route": "泉大津駅前→和泉中央駅→和泉青葉台",
    "stop": "和泉府中駅前",
    "passTime": "20:50",
    "vehicleType": "南海バス(車椅子・ベビーカー・ノンステップ)",
    "updateTime": "2026/07/18 20:51"
  },
  {
    "vehicleNum": "092913",
    "vehicleCd": "154",
    "vehicleCorpCd": "1",
    "running": true,
    "lat": 34.559778,
    "lon": 135.472583,
    "route": "堺東駅前→鳳駅前→栂・美木多駅",
    "stop": "塩穴通",
    "passTime": "20:50",
    "vehicleType": "南海バス(車椅子・ベビーカー・ノンステップ)",
    "updateTime": "2026/07/18 20:51"
  },
  {
    "vehicleNum": "092918",
    "vehicleCd": "114",
    "vehicleCorpCd": "1",
    "running": true,
    "lat": 34.491778,
    "lon": 135.415389,
    "route": "光明池駅→光明池車庫→和泉中央駅→泉大津駅前",
    "stop": "我孫子",
    "passTime": "20:51",
    "vehicleType": "南海バス(車椅子・ベビーカー・ノンステップ)",
    "updateTime": "2026/07/18 20:51"
  },
  {
    "vehicleNum": "092937",
    "vehicleCd": "73",
    "vehicleCorpCd": "1",
    "running": true,
    "lat": 34.534889,
    "lon": 135.463389,
    "route": "光明池駅→山田→堺東駅前",
    "stop": "西区役所前",
    "passTime": "20:51",
    "vehicleType": "南海バス(車椅子・ベビーカー・ノンステップ)",
    "updateTime": "2026/07/18 20:51"
  },
  {
    "vehicleNum": "092950",
    "vehicleCd": "257",
    "vehicleCorpCd": "1",
    "running": true,
    "lat": 34.466194,
    "lon": 135.485,
    "route": "光明池駅→城山台５丁→みずき台２丁目西",
    "stop": "城山台五丁",
    "passTime": "20:51",
    "vehicleType": "南海バス(車椅子・ベビーカー・ノンステップ)",
    "updateTime": "2026/07/18 20:51"
  },
  {
    "vehicleNum": "092951",
    "vehicleCd": "340",
    "vehicleCorpCd": "1",
    "running": true,
    "lat": 34.532889,
    "lon": 135.461278,
    "route": "堺東駅前→鳳駅前→光明池駅",
    "stop": "鳳駅前",
    "passTime": "20:49",
    "vehicleType": "南海バス(車椅子・ベビーカー・ノンステップ)",
    "updateTime": "2026/07/18 20:51"
  },
  {
    "vehicleNum": "092975",
    "vehicleCd": "115",
    "vehicleCorpCd": "1",
    "running": true,
    "lat": 34.458389,
    "lon": 135.460278,
    "route": "和泉中央駅→はつが野六丁目",
    "stop": "万町弘法寺前",
    "passTime": "20:51",
    "vehicleType": "南海バス(車椅子・ベビーカー・ノンステップ)",
    "updateTime": "2026/07/18 20:51"
  },
  {
    "vehicleNum": "092976",
    "vehicleCd": "138",
    "vehicleCorpCd": "1",
    "running": true,
    "lat": 34.461,
    "lon": 135.487583,
    "route": "泉大津駅前→和泉府中駅前→和泉中央駅→光明池駅",
    "stop": "光明台一丁目",
    "passTime": "20:49",
    "vehicleType": "南海バス(車椅子・ベビーカー・ノンステップ)",
    "updateTime": "2026/07/18 20:51"
  },
  {
    "vehicleNum": "092974",
    "vehicleCd": "260",
    "vehicleCorpCd": "1",
    "running": true,
    "lat": 34.4865,
    "lon": 135.424583,
    "route": "和泉中央駅→寺田→泉大津駅前",
    "stop": "和泉市役所前",
    "passTime": "20:49",
    "vehicleType": "南海バス(車椅子・ベビーカー・ノンステップ)",
    "updateTime": "2026/07/18 20:51"
  },
  {
    "vehicleNum": "092977",
    "vehicleCd": "608",
    "vehicleCorpCd": "1",
    "running": true,
    "lat": 34.46,
    "lon": 135.455,
    "route": "和泉中央駅→阪本→泉大津駅前",
    "stop": "和泉中央駅",
    "passTime": "20:48",
    "vehicleType": "南海バス(車椅子・ベビーカー・ノンステップ)",
    "updateTime": "2026/07/18 20:51"
  },
  {
    "vehicleNum": "092978",
    "vehicleCd": "325",
    "vehicleCorpCd": "1",
    "running": true,
    "lat": 34.473,
    "lon": 135.4675,
    "route": "光明池駅→山田→堺東駅前",
    "stop": "変電所前",
    "passTime": "20:50",
    "vehicleType": "南海バス(車椅子・ベビーカー・ノンステップ)",
    "updateTime": "2026/07/18 20:51"
  },
  {
    "vehicleNum": "093032",
    "vehicleCd": "231",
    "vehicleCorpCd": "1",
    "running": true,
    "lat": 34.436083,
    "lon": 135.241778,
    "route": "エアロプラザ→第２ターミナル(国内線・国際線)→エアロプラザ",
    "stop": "第2ターミナル国際線",
    "passTime": "20:42",
    "vehicleType": "南海バス",
    "updateTime": "2026/07/18 20:51"
  },
  {
    "vehicleNum": "093054",
    "vehicleCd": "396",
    "vehicleCorpCd": "1",
    "running": true,
    "lat": 34.500278,
    "lon": 135.409389,
    "route": "泉大津駅前→和泉府中駅前→和泉中央駅",
    "stop": "旭町",
    "passTime": "20:51",
    "vehicleType": "南海バス(車椅子・ベビーカー・ノンステップ)",
    "updateTime": "2026/07/18 20:51"
  }
]