[
  {
    "vehicleNum": "070106",
    "vehicleCd": "404",
    "vehicleCorpCd": "1",
    "running": true,
    "lat": 34.495389,
    "lon": 135.558889,
    "route": "泉ヶ丘駅→狭山ニュータウンセンター→金剛駅前",
    "stop": "半田",
    "passTime": "07:31",
    "vehicleType": "泉北コミュニティバス(車椅子・ベビーカー・ノンステップ)",
    "updateTime": "2026/07/23 07:32"
  },
  {
    "vehicleNum": "070103",
    "vehicleCd": "425",
    "vehicleCorpCd": "1",
    "running": true,
    "lat": 34.479194,
    "lon": 135.548194,
    "route": "泉ヶ丘駅→狭山ニュータウンセンター→金剛駅前",
    "stop": "南中学校前",
    "passTime": "07:32",
    "vehicleType": "泉北コミュニティバス(車椅子・ベビーカー・ノンステップ)",
    "updateTime": "2026/07/23 07:32"
  },
  {
    "vehicleNum": "070105",
    "vehicleCd": "403",
    "vehicleCorpCd": "1",
    "running": true,
    "lat": 34.488083,
    "lon": 135.522194,
    "route": "金剛駅前→狭山ニュータウンセンター→泉ヶ丘駅",
    "stop": "茶山台南口",
    "passTime": "07:31",
    "vehicleType": "泉北コミュニティバス(車椅子・ベビーカー・ノンステップ)",
    "updateTime": "2026/07/23 07:32"
  },
  {
    "vehicleNum": "070107",
    "vehicleCd": "405",
    "vehicleCorpCd": "1",
    "running": true,
    "lat": 34.498194,
    "lon": 135.547694,
    "route": "金剛駅前→狭山ニュータウンセンター→泉ヶ丘駅",
    "stop": "亀の甲",
    "passTime": "07:31",
    "vehicleType": "泉北コミュニティバス(車椅子・ベビーカー・ノンステップ)",
    "updateTime": "2026/07/23 07:32"
  },
  {
    "vehicleNum": "070108",
    "vehicleCd": "406",
    "vehicleCorpCd": "1",
    "running": true,
    "lat": 34.477583,
    "lon": 135.54,
    "route": "金剛駅前→狭山ニュータウンセンター→泉ヶ丘駅",
    "stop": "南第二小学校前",
    "passTime": "07:32",
    "vehicleType": "泉北コミュニティバス(車椅子・ベビーカー・ノンステップ)",
    "updateTime": "2026/07/23 07:32"
  },
  {
    "vehicleNum": "070109",
    "vehicleCd": "407",
    "vehicleCorpCd": "1",
    "running": true,
    "lat": 34.498278,
    "lon": 135.546778,
    "route": "金剛駅前→泉ヶ丘駅→近大キャンパス前→金剛駅前",
    "stop": "金剛駅前（西側）",
    "passTime": "07:26",
    "vehicleType": "泉北コミュニティバス(車椅子・ベビーカー・ノンステップ)",
    "updateTime": "2026/07/23 07:32"
  },
  {
    "vehicleNum": "072501",
    "vehicleCd": "598",
    "vehicleCorpCd": "1",
    "running": true,
    "lat": 34.582583,
    "lon": 135.518278,
    "route": "河内天美駅前→天美我堂→堺東駅前",
    "stop": "北花田２丁",
    "passTime": "07:31",
    "vehicleType": "南海バス(車椅子・ベビーカー・ノンステップ)",
    "updateTime": "2026/07/23 07:32"
  },
  {
    "vehicleNum": "071603",
    "vehicleCd": "410",
    "vehicleCorpCd": "1",
    "running": true,
    "lat": 34.574278,
    "lon": 135.482694,
    "route": "堺東駅前→大小路→堺駅前",
    "stop": "堺市役所前",
    "passTime": "07:32",
    "vehicleType": "堺シャトル(車椅子・ベビーカー・ノンステップ)",
    "updateTime": "2026/07/23 07:32"
  },
  {
    "vehicleNum": "071602",
    "vehicleCd": "109",
    "vehicleCorpCd": "1",
    "running": true,
    "lat": 34.581694,
    "lon": 135.469694,
    "route": "堺駅前→大小路→堺東駅前",
    "stop": "堺駅前",
    "passTime": "07:32",
    "vehicleType": "堺シャトル(車椅子・ベビーカー・ノンステップ)",
    "updateTime": "2026/07/23 07:32"
  },
  {
    "vehicleNum": "071605",
    "vehicleCd": "412",
    "vehicleCorpCd": "1",
    "running": true,
    "lat": 34.575194,
    "lon": 135.480083,
    "route": "堺駅前→大小路→堺東駅前",
    "stop": "熊野小学校前",
    "passTime": "07:31",
    "vehicleType": "堺シャトル(車椅子・ベビーカー・ノンステップ)",
    "updateTime": "2026/07/23 07:32"
  },
  {
    "vehicleNum": "080134",
    "vehicleCd": "118",
    "vehicleCorpCd": "2",
    "running": true,
    "lat": 34.391778,
    "lon": 135.348278,
    "route": "熊取駅前→大阪体育大学前",
    "stop": "山原",
    "passTime": "07:31",
    "vehicleType": "南海ウイングバス(車椅子・ベビーカー・ワンステップ)",
    "updateTime": "2026/07/23 07:32"
  },
  {
    "vehicleNum": "080146",
    "vehicleCd": "6",
    "vehicleCorpCd": "2",
    "running": true,
    "lat": 34.413083,
    "lon": 135.336278,
    "route": "熊取ニュータウン→熊取駅前→上瓦屋町→泉佐野駅前",
    "stop": "上瓦屋町",
    "passTime": "07:32",
    "vehicleType": "南海ウイングバス(車椅子・ワンステップ)",
    "updateTime": "2026/07/23 07:32"
  },
  {
    "vehicleNum": "080177",
    "vehicleCd": "126",
    "vehicleCorpCd": "2",
    "running": true,
    "lat": 34.411,
    "lon": 135.318083,
    "route": "山の手台→小谷→熊取駅前→泉陽ヶ丘→泉佐野駅前",
    "stop": "上町１丁目",
    "passTime": "07:29",
    "vehicleType": "南海ウイングバス(車椅子・ベビーカー・ワンステップ)",
    "updateTime": "2026/07/23 07:32"
  },
  {
    "vehicleNum": "080178",
    "vehicleCd": "56",
    "vehicleCorpCd": "2",
    "running": true,
    "lat": 34.406889,
    "lon": 135.412278,
    "route": "白原車庫→河合→岸和田警察署前→岸和田駅前",
    "stop": "船渡",
    "passTime": "07:32",
    "vehicleType": "南海ウイングバス(車椅子・ベビーカー・ワンステップ)",
    "updateTime": "2026/07/23 07:32"
  },
  {
    "vehicleNum": "080171",
    "vehicleCd": "40",
    "vehicleCorpCd": "2",
    "running": true,
    "lat": 34.398889,
    "lon": 135.352583,
    "route": "泉佐野駅前→泉陽ヶ丘→熊取駅前→山の手台→小谷→熊取駅前→泉陽ヶ丘→泉佐野駅前",
    "stop": "朝和口",
    "passTime": "07:32",
    "vehicleType": "南海ウイングバス(車椅子・ベビーカー・ワンステップ)",
    "updateTime": "2026/07/23 07:32"
  },
  {
    "vehicleNum": "080180",
    "vehicleCd": "68",
    "vehicleCorpCd": "2",
    "running": true,
    "lat": 34.447,
    "lon": 135.435389,
    "route": "道の駅愛彩ランド→包近→和泉中央駅",
    "stop": "包近",
    "passTime": "07:29",
    "vehicleType": "南海ウイングバス(車椅子・ベビーカー・ワンステップ)",
    "updateTime": "2026/07/23 07:32"
  },
  {
    "vehicleNum": "080184",
    "vehicleCd": "34",
    "vehicleCorpCd": "2",
    "running": true,
    "lat": 34.408,
    "lon": 135.364694,
    "route": "熊取ニュータウン→熊取駅前",
    "stop": "若葉",
    "passTime": "07:31",
    "vehicleType": "南海ウイングバス(車椅子・ベビーカー・ノンステップ)",
    "updateTime": "2026/07/23 07:32"
  },
  {
    "vehicleNum": "080191",
    "vehicleCd": "68",
    "vehicleCorpCd": "1",
    "running": true,
    "lat": 34.575194,
    "lon": 135.473194,
    "route": "堺駅前→堺東駅前→河内松原駅前",
    "stop": "大寺南門山之口前",
    "passTime": "07:32",
    "vehicleType": "南海バス(車椅子・ベビーカー・ワンステップ)",
    "updateTime": "2026/07/23 07:32"
  },
  {
    "vehicleNum": "080270",
    "vehicleCd": "86",
    "vehicleCorpCd": "2",
    "running": true,
    "lat": 34.3405,
    "lon": 135.213278,
    "route": "箱作駅前→桃の木台回り→箱作駅前",
    "stop": "桃の木台１丁目",
    "passTime": "07:30",
    "vehicleType": "南海バス(車椅子・ワンステップ)",
    "updateTime": "2026/07/23 07:32"
  },
  {
    "vehicleNum": "080318",
    "vehicleCd": "83",
    "vehicleCorpCd": "1",
    "running": true,
    "lat": 34.600583,
    "lon": 135.471583,
    "route": "住之江公園駅前→匠町",
    "stop": "住之江公園駅前",
    "passTime": "07:25",
    "vehicleType": "南海バス(車椅子・ベビーカー・ワンステップ)",
    "updateTime": "2026/07/23 07:32"
  },
  {
    "vehicleNum": "080322",
    "vehicleCd": "116",
    "vehicleCorpCd": "2",
    "running": true,
    "lat": 34.347694,
    "lon": 135.375778,
    "route": "犬鳴山→日根野駅前→野々地蔵北→泉佐野駅前",
    "stop": "一土庄橋",
    "passTime": "07:30",
    "vehicleType": "南海ウイングバス(車椅子・ワンステップ)",
    "updateTime": "2026/07/23 07:32"
  },
  {
    "vehicleNum": "080323",
    "vehicleCd": "59",
    "vehicleCorpCd": "2",
    "running": true,
    "lat": 34.461083,
    "lon": 135.3945,
    "route": "牛滝温泉→内畑→岸和田駅前",
    "stop": "市民病院前",
    "passTime": "07:30",
    "vehicleType": "南海ウイングバス(車椅子・ワンステップ)",
    "updateTime": "2026/07/23 07:32"
  },
  {
    "vehicleNum": "080388",
    "vehicleCd": "52",
    "vehicleCorpCd": "2",
    "running": true,
    "lat": 34.402778,
    "lon": 135.324194,
    "route": "犬鳴山→日根野駅前→野々地蔵北→泉佐野駅前",
    "stop": "上市場",
    "passTime": "07:32",
    "vehicleType": "南海ウイングバス(車椅子・ベビーカー・ワンステップ)",
    "updateTime": "2026/07/23 07:32"
  },
  {
    "vehicleNum": "080482",
    "vehicleCd": "156",
    "vehicleCorpCd": "1",
    "running": true,
    "lat": 34.579583,
    "lon": 135.466778,
    "route": "北野田駅前→福町→堺駅南口",
    "stop": "川尻",
    "passTime": "07:29",
    "vehicleType": "南海バス(車椅子・ベビーカー・ノンステップ)",
    "updateTime": "2026/07/23 07:32"
  },
  {
    "vehicleNum": "080594",
    "vehicleCd": "437",
    "vehicleCorpCd": "1",
    "running": true,
    "lat": 34.560694,
    "lon": 135.5235,
    "route": "地下鉄新金岡駅前→野遠→美原区役所",
    "stop": "金岡口",
    "passTime": "07:28",
    "vehicleType": "南海バス(車椅子・ベビーカー・ノンステップ)",
    "updateTime": "2026/07/23 07:32"
  },
  {
    "vehicleNum": "080627",
    "vehicleCd": "446",
    "vehicleCorpCd": "1",
    "running": true,
    "lat": 34.557889,
    "lon": 135.535778,
    "route": "美原区役所→野遠→地下鉄新金岡駅前",
    "stop": "野遠",
    "passTime": "07:31",
    "vehicleType": "南海バス(車椅子・ベビーカー・ノンステップ)",
    "updateTime": "2026/07/23 07:32"
  },
  {
    "vehicleNum": "080643",
    "vehicleCd": "94",
    "vehicleCorpCd": "1",
    "running": true,
    "lat": 34.436583,
    "lon": 135.464389,
    "route": "和泉中央駅→はつが野六丁目→和泉中央駅",
    "stop": "南松尾はつが野学園前",
    "passTime": "07:31",
    "vehicleType": "南海バス(車椅子・ベビーカー・ノンステップ)",
    "updateTime": "2026/07/23 07:32"
  },
  {
    "vehicleNum": "080644",
    "vehicleCd": "452",
    "vehicleCorpCd": "1",
    "running": true,
    "lat": 34.588889,
    "lon": 135.481083,
    "route": "【急行】阪和堺市駅前→海浜匠町",
    "stop": "阪和堺市駅前",
    "passTime": "07:20",
    "vehicleType": "南海バス(車椅子・ベビーカー・ノンステップ)",
    "updateTime": "2026/07/23 07:32"
  },
  {
    "vehicleNum": "080651",
    "vehicleCd": "455",
    "vehicleCorpCd": "1",
    "running": true,
    "lat": 34.5505,
    "lon": 135.5685,
    "route": "北野田駅前→多治井北（循環）→北野田駅前",
    "stop": "西多治井",
    "passTime": "07:30",
    "vehicleType": "南海バス",
    "updateTime": "2026/07/23 07:32"
  },
  {
    "vehicleNum": "080671",
    "vehicleCd": "465",
    "vehicleCorpCd": "1",
    "running": true,
    "lat": 34.575278,
    "lon": 135.522083,
    "route": "堺駅前→堺東駅前→河内松原駅前",
    "stop": "南花田町",
    "passTime": "07:32",
    "vehicleType": "南海バス(車椅子・ベビーカー・ノンステップ)",
    "updateTime": "2026/07/23 07:32"
  },
  {
    "vehicleNum": "080670",
    "vehicleCd": "507",
    "vehicleCorpCd": "1",
    "running": true,
    "lat": 34.605194,
    "lon": 135.473,
    "route": "匠町→住之江公園駅前→匠町",
    "stop": "住之江公園駅前",
    "passTime": "07:31",
    "vehicleType": "南海バス(車椅子・ベビーカー・ノンステップ)",
    "updateTime": "2026/07/23 07:32"
  },
  {
    "vehicleNum": "080698",
    "vehicleCd": "531",
    "vehicleCorpCd": "1",
    "running": true,
    "lat": 34.593,
    "lon": 135.449694,
    "route": "【急行】瓦町公園前→海浜匠町",
    "stop": "瓦町公園前",
    "passTime": "07:08",
    "vehicleType": "南海バス",
    "updateTime": "2026/07/23 07:32"
  },
  {
    "vehicleNum": "080676",
    "vehicleCd": "158",
    "vehicleCorpCd": "1",
    "running": true,
    "lat": 34.543889,
    "lon": 135.539694,
    "route": "美原区役所→初芝駅前→美原区役所",
    "stop": "日置荘北町２丁",
    "passTime": "07:32",
    "vehicleType": "南海バス",
    "updateTime": "2026/07/23 07:32"
  },
  {
    "vehicleNum": "080706",
    "vehicleCd": "543",
    "vehicleCorpCd": "1",
    "running": true,
    "lat": 34.565083,
    "lon": 135.514278,
    "route": "地下鉄新金岡駅前→堺駅南口",
    "stop": "しもつ池",
    "passTime": "07:31",
    "vehicleType": "南海バス(車椅子・ベビーカー・ノンステップ)",
    "updateTime": "2026/07/23 07:32"
  },
  {
    "vehicleNum": "080703",
    "vehicleCd": "219",
    "vehicleCorpCd": "1",
    "running": true,
    "lat": 34.569889,
    "lon": 135.482,
    "route": "阪和堺市駅前→堺駅南口",
    "stop": "一条通",
    "passTime": "07:29",
    "vehicleType": "南海バス(車椅子・ベビーカー・ノンステップ)",
    "updateTime": "2026/07/23 07:32"
  },
  {
    "vehicleNum": "080707",
    "vehicleCd": "544",
    "vehicleCorpCd": "1",
    "running": true,
    "lat": 34.594694,
    "lon": 135.464,
    "route": "【急行】阪和堺市駅前→海浜匠町",
    "stop": "阪和堺市駅前",
    "passTime": "07:12",
    "vehicleType": "南海バス(車椅子・ベビーカー・ノンステップ)",
    "updateTime": "2026/07/23 07:32"
  },
  {
    "vehicleNum": "080709",
    "vehicleCd": "5",
    "vehicleCorpCd": "2",
    "running": true,
    "lat": 34.448694,
    "lon": 135.385694,
    "route": "岸和田駅前→天神山・一の宮循環　右回り→岸和田駅前",
    "stop": "東岸和田駅前",
    "passTime": "07:31",
    "vehicleType": "南海ウイングバス(車椅子・ベビーカー・ノンステップ)",
    "updateTime": "2026/07/23 07:32"
  },
  {
    "vehicleNum": "080710",
    "vehicleCd": "18",
    "vehicleCorpCd": "2",
    "running": true,
    "lat": 34.399389,
    "lon": 135.345,
    "route": "つばさが丘北口→熊取駅前",
    "stop": "熊取西小学校前",
    "passTime": "07:30",
    "vehicleType": "南海ウイングバス(車椅子・ベビーカー・ノンステップ)",
    "updateTime": "2026/07/23 07:32"
  },
  {
    "vehicleNum": "080745",
    "vehicleCd": "57",
    "vehicleCorpCd": "1",
    "running": true,
    "lat": 34.500889,
    "lon": 135.541694,
    "route": "金剛駅前→泉ヶ丘駅→近大キャンパス前→金剛駅前",
    "stop": "近大おおさかメディカルキャンパス前",
    "passTime": "07:24",
    "vehicleType": "南海バス(車椅子・ベビーカー・ノンステップ)",
    "updateTime": "2026/07/23 07:32"
  },
  {
    "vehicleNum": "080746",
    "vehicleCd": "395",
    "vehicleCorpCd": "1",
    "running": true,
    "lat": 34.505083,
    "lon": 135.569278,
    "route": "中央センター前→向陽・藤沢回り→金剛駅前",
    "stop": "藤沢台２丁目",
    "passTime": "07:32",
    "vehicleType": "南海バス(車椅子・ベビーカー・ノンステップ)",
    "updateTime": "2026/07/23 07:32"
  },
  {
    "vehicleNum": "080744",
    "vehicleCd": "550",
    "vehicleCorpCd": "1",
    "running": true,
    "lat": 34.458389,
    "lon": 135.504583,
    "route": "御池台２丁→庭代台１丁→栂・美木多駅",
    "stop": "御池台５丁",
    "passTime": "07:32",
    "vehicleType": "南海バス(車椅子・ベビーカー・ノンステップ)",
    "updateTime": "2026/07/23 07:32"
  },
  {
    "vehicleNum": "080751",
    "vehicleCd": "551",
    "vehicleCorpCd": "1",
    "running": true,
    "lat": 34.572278,
    "lon": 135.477194,
    "route": "河内松原駅前→阪和堺市駅前→堺駅前",
    "stop": "安井町",
    "passTime": "07:32",
    "vehicleType": "南海バス(車椅子・ベビーカー・ノンステップ)",
    "updateTime": "2026/07/23 07:32"
  },
  {
    "vehicleNum": "080754",
    "vehicleCd": "428",
    "vehicleCorpCd": "1",
    "running": true,
    "lat": 34.528194,
    "lon": 135.470472,
    "route": "泉ヶ丘駅→泉北２号線→津久野駅前",
    "stop": "毛穴南",
    "passTime": "07:32",
    "vehicleType": "南海バス(車椅子・ベビーカー・ノンステップ)",
    "updateTime": "2026/07/23 07:32"
  },
  {
    "vehicleNum": "080765",
    "vehicleCd": "564",
    "vehicleCorpCd": "1",
    "running": true,
    "lat": 34.552,
    "lon": 135.504083,
    "route": "北野田駅前→西口園→堺駅南口",
    "stop": "府立大学前",
    "passTime": "07:30",
    "vehicleType": "南海バス(車椅子・ベビーカー・ノンステップ)",
    "updateTime": "2026/07/23 07:32"
  },
  {
    "vehicleNum": "080762",
    "vehicleCd": "561",
    "vehicleCorpCd": "1",
    "running": true,
    "lat": 34.575,
    "lon": 135.498083,
    "route": "河内松原駅前→阪和堺市駅前→堺駅前",
    "stop": "阪和堺市駅筋",
    "passTime": "07:31",
    "vehicleType": "南海バス(車椅子・ベビーカー・ノンステップ)",
    "updateTime": "2026/07/23 07:32"
  },
  {
    "vehicleNum": "080764",
    "vehicleCd": "563",
    "vehicleCorpCd": "1",
    "running": true,
    "lat": 34.527889,
    "lon": 135.474194,
    "route": "深井駅→八田荘団地→津久野駅前",
    "stop": "毛穴なかよし橋",
    "passTime": "07:32",
    "vehicleType": "南海バス(車椅子・ベビーカー・ノンステップ)",
    "updateTime": "2026/07/23 07:32"
  },
  {
    "vehicleNum": "080763",
    "vehicleCd": "562",
    "vehicleCorpCd": "1",
    "running": true,
    "lat": 34.549389,
    "lon": 135.478694,
    "route": "東山車庫前→小阪→堺東駅前",
    "stop": "上野芝駅前",
    "passTime": "07:32",
    "vehicleType": "南海バス(車椅子・ベビーカー・ノンステップ)",
    "updateTime": "2026/07/23 07:32"
  },
  {
    "vehicleNum": "080767",
    "vehicleCd": "566",
    "vehicleCorpCd": "1",
    "running": true,
    "lat": 34.572889,
    "lon": 135.476889,
    "route": "堺駅南口→三国ヶ丘駅前→北野田駅前",
    "stop": "安井町",
    "passTime": "07:32",
    "vehicleType": "南海バス(車椅子・ベビーカー・ノンステップ)",
    "updateTime": "2026/07/23 07:32"
  },
  {
    "vehicleNum": "080788",
    "vehicleCd": "299",
    "vehicleCorpCd": "1",
    "running": true,
    "lat": 34.565694,
    "lon": 135.493,
    "route": "三国ヶ丘駅前→白鷺駅前→堺東駅前（循環）",
    "stop": "三国ヶ丘駅前",
    "passTime": "07:32",
    "vehicleType": "南海バス(車椅子・ベビーカー・ノンステップ)",
    "updateTime": "2026/07/23 07:32"
  },
  {
    "vehicleNum": "080789",
    "vehicleCd": "300",
    "vehicleCorpCd": "1",
    "running": true,
    "lat": 34.603278,
    "lon": 135.452083,
    "route": "堺駅西口→錦綾町→堺東駅前",
    "stop": "堺浜北",
    "passTime": "07:32",
    "vehicleType": "南海バス(車椅子・ベビーカー・ノンステップ)",
    "updateTime": "2026/07/23 07:32"
  },
  {
    "vehicleNum": "080790",
    "vehicleCd": "106",
    "vehicleCorpCd": "1",
    "running": true,
    "lat": 34.560694,
    "lon": 135.469694,
    "route": "堺駅南口→堺駅前",
    "stop": "協和町",
    "passTime": "07:31",
    "vehicleType": "南海バス(車椅子・ベビーカー・ノンステップ)",
    "updateTime": "2026/07/23 07:32"
  },
  {
    "vehicleNum": "080791",
    "vehicleCd": "61",
    "vehicleCorpCd": "1",
    "running": true,
    "lat": 34.593083,
    "lon": 135.469,
    "route": "堺東駅前→綾の町電停前→匠町",
    "stop": "海山通４丁",
    "passTime": "07:31",
    "vehicleType": "南海バス(車椅子・ベビーカー・ノンステップ)",
    "updateTime": "2026/07/23 07:32"
  },
  {
    "vehicleNum": "080792",
    "vehicleCd": "302",
    "vehicleCorpCd": "1",
    "running": true,
    "lat": 34.594583,
    "lon": 135.464472,
    "route": "【急行】堺駅西口→海浜匠町",
    "stop": "堺駅西口",
    "passTime": "07:20",
    "vehicleType": "南海バス(車椅子・ベビーカー・ノンステップ)",
    "updateTime": "2026/07/23 07:32"
  },
  {
    "vehicleNum": "080796",
    "vehicleCd": "108",
    "vehicleCorpCd": "1",
    "running": true,
    "lat": 34.594778,
    "lon": 135.463778,
    "route": "【急行】瓦町公園前→海浜匠町",
    "stop": "瓦町公園前",
    "passTime": "07:12",
    "vehicleType": "南海バス(車椅子・ベビーカー・ノンステップ)",
    "updateTime": "2026/07/23 07:32"
  },
  {
    "vehicleNum": "080794",
    "vehicleCd": "344",
    "vehicleCorpCd": "1",
    "running": true,
    "lat": 34.574778,
    "lon": 135.550778,
    "route": "河内松原駅前→阪和堺市駅前→堺東駅前",
    "stop": "河内松原駅前",
    "passTime": "07:30",
    "vehicleType": "南海バス(車椅子・ベビーカー・ノンステップ)",
    "updateTime": "2026/07/23 07:32"
  },
  {
    "vehicleNum": "080795",
    "vehicleCd": "43",
    "vehicleCorpCd": "1",
    "running": true,
    "lat": 34.577389,
    "lon": 135.498083,
    "route": "【急行】阪和堺市駅前→海浜匠町",
    "stop": "阪和堺市駅前",
    "passTime": "07:32",
    "vehicleType": "南海バス(車椅子・ベビーカー・ノンステップ)",
    "updateTime": "2026/07/23 07:32"
  },
  {
    "vehicleNum": "080798",
    "vehicleCd": "107",
    "vehicleCorpCd": "1",
    "running": true,
    "lat": 34.591,
    "lon": 135.475583,
    "route": "【急行】瓦町公園前→海浜匠町",
    "stop": "瓦町公園前",
    "passTime": "07:22",
    "vehicleType": "南海バス(車椅子・ベビーカー・ノンステップ)",
    "updateTime": "2026/07/23 07:32"
  },
  {
    "vehicleNum": "080807",
    "vehicleCd": "223",
    "vehicleCorpCd": "1",
    "running": true,
    "lat": 34.599194,
    "lon": 135.449,
    "route": "住之江公園駅前→匠町",
    "stop": "堺浜北",
    "passTime": "07:31",
    "vehicleType": "南海バス(車椅子・ベビーカー・ノンステップ)",
    "updateTime": "2026/07/23 07:32"
  },
  {
    "vehicleNum": "080806",
    "vehicleCd": "307",
    "vehicleCorpCd": "1",
    "running": true,
    "lat": 34.563472,
    "lon": 135.464694,
    "route": "堺駅前→堺駅南口",
    "stop": "東湊電停前",
    "passTime": "07:29",
    "vehicleType": "南海バス(車椅子・ベビーカー・ノンステップ)",
    "updateTime": "2026/07/23 07:32"
  },
  {
    "vehicleNum": "080800",
    "vehicleCd": "304",
    "vehicleCorpCd": "1",
    "running": true,
    "lat": 34.597694,
    "lon": 135.474278,
    "route": "堺東駅前→材木町→堺駅西口",
    "stop": "南島町",
    "passTime": "07:31",
    "vehicleType": "南海バス(車椅子・ベビーカー・ノンステップ)",
    "updateTime": "2026/07/23 07:32"
  },
  {
    "vehicleNum": "080814",
    "vehicleCd": "193",
    "vehicleCorpCd": "1",
    "running": true,
    "lat": 34.484583,
    "lon": 135.537278,
    "route": "金剛駅前→狭山ニュータウンセンター→泉ヶ丘駅",
    "stop": "大野台六丁目",
    "passTime": "07:32",
    "vehicleType": "南海バス(車椅子・ベビーカー・ノンステップ)",
    "updateTime": "2026/07/23 07:32"
  },
  {
    "vehicleNum": "080822",
    "vehicleCd": "576",
    "vehicleCorpCd": "1",
    "running": true,
    "lat": 34.561278,
    "lon": 135.473778,
    "route": "堺東駅前→上野芝駅前→東山車庫前",
    "stop": "旭ヶ丘北町",
    "passTime": "07:32",
    "vehicleType": "南海バス(車椅子・ベビーカー・ノンステップ)",
    "updateTime": "2026/07/23 07:32"
  },
  {
    "vehicleNum": "080815",
    "vehicleCd": "575",
    "vehicleCorpCd": "1",
    "running": true,
    "lat": 34.523583,
    "lon": 135.472694,
    "route": "津久野駅前→堺市立総合医療センター前→泉北２号線→泉ヶ丘駅",
    "stop": "毛穴南",
    "passTime": "07:31",
    "vehicleType": "南海バス(車椅子・ベビーカー・ノンステップ)",
    "updateTime": "2026/07/23 07:32"
  },
  {
    "vehicleNum": "080835",
    "vehicleCd": "310",
    "vehicleCorpCd": "1",
    "running": true,
    "lat": 34.496,
    "lon": 135.576278,
    "route": "金剛駅前→高辺台三丁目→金剛駅前",
    "stop": "津々山台２丁目北",
    "passTime": "07:32",
    "vehicleType": "南海バス(車椅子・ベビーカー・ノンステップ)",
    "updateTime": "2026/07/23 07:32"
  },
  {
    "vehicleNum": "080836",
    "vehicleCd": "268",
    "vehicleCorpCd": "1",
    "running": true,
    "lat": 34.574694,
    "lon": 135.480778,
    "route": "堺東駅前→堺駅西口→堺東駅前",
    "stop": "堺東駅前",
    "passTime": "07:30",
    "vehicleType": "南海バス(車椅子・ベビーカー・ノンステップ)",
    "updateTime": "2026/07/23 07:32"
  },
  {
    "vehicleNum": "080827",
    "vehicleCd": "317",
    "vehicleCorpCd": "1",
    "running": true,
    "lat": 34.559278,
    "lon": 135.519389,
    "route": "堺東駅前→白鷺駅前→堺東駅前（循環）",
    "stop": "金岡神社前",
    "passTime": "07:32",
    "vehicleType": "南海バス(車椅子・ベビーカー・ノンステップ)",
    "updateTime": "2026/07/23 07:32"
  },
  {
    "vehicleNum": "080837",
    "vehicleCd": "351",
    "vehicleCorpCd": "1",
    "running": true,
    "lat": 34.521278,
    "lon": 135.506889,
    "route": "あみだ池→深井駅→もず駅前→堺東駅前",
    "stop": "東中学校前（堺市）",
    "passTime": "07:30",
    "vehicleType": "南海バス(車椅子・ベビーカー・ノンステップ)",
    "updateTime": "2026/07/23 07:33"
  },
  {
    "vehicleNum": "080838",
    "vehicleCd": "129",
    "vehicleCorpCd": "1",
    "running": true,
    "lat": 34.5655,
    "lon": 135.512278,
    "route": "堺駅南口→阪和堺市駅",
    "stop": "北堺警察署前",
    "passTime": "07:32",
    "vehicleType": "南海バス(車椅子・ベビーカー・ノンステップ)",
    "updateTime": "2026/07/23 07:33"
  },
  {
    "vehicleNum": "080844",
    "vehicleCd": "581",
    "vehicleCorpCd": "1",
    "running": true,
    "lat": 34.500889,
    "lon": 135.58,
    "route": "金剛駅前→向陽・藤沢回り→金剛駅前",
    "stop": "中央センター前",
    "passTime": "07:32",
    "vehicleType": "南海バス(車椅子・ベビーカー・ノンステップ)",
    "updateTime": "2026/07/23 07:33"
  },
  {
    "vehicleNum": "080852",
    "vehicleCd": "584",
    "vehicleCorpCd": "1",
    "running": true,
    "lat": 34.496389,
    "lon": 135.566778,
    "route": "金剛駅前→高辺台三丁目→金剛駅前",
    "stop": "高辺台三丁目",
    "passTime": "07:31",
    "vehicleType": "南海バス(車椅子・ベビーカー・ノンステップ)",
    "updateTime": "2026/07/23 07:33"
  },
  {
    "vehicleNum": "080850",
    "vehicleCd": "24",
    "vehicleCorpCd": "1",
    "running": true,
    "lat": 34.480889,
    "lon": 135.491,
    "route": "栂・美木多駅→庭代台右回り→栂・美木多駅",
    "stop": "原山公園前",
    "passTime": "07:32",
    "vehicleType": "南海バス(車椅子・ベビーカー・ノンステップ)",
    "updateTime": "2026/07/23 07:33"
  },
  {
    "vehicleNum": "080855",
    "vehicleCd": "16",
    "vehicleCorpCd": "1",
    "running": true,
    "lat": 34.491083,
    "lon": 135.527778,
    "route": "泉ヶ丘駅→晴美台右回り→泉ヶ丘駅",
    "stop": "高倉台４丁",
    "passTime": "07:32",
    "vehicleType": "南海バス(車椅子・ベビーカー・ノンステップ)",
    "updateTime": "2026/07/23 07:33"
  },
  {
    "vehicleNum": "080856",
    "vehicleCd": "358",
    "vehicleCorpCd": "1",
    "running": true,
    "lat": 34.500389,
    "lon": 135.572,
    "route": "金剛駅前→向陽・藤沢回り→金剛駅前",
    "stop": "金剛高校前",
    "passTime": "07:29",
    "vehicleType": "南海バス(車椅子・ベビーカー・ワンステップ)",
    "updateTime": "2026/07/23 07:33"
  },
  {
    "vehicleNum": "080857",
    "vehicleCd": "226",
    "vehicleCorpCd": "1",
    "running": true,
    "lat": 34.593278,
    "lon": 135.4685,
    "route": "堺東駅前→堺駅西口→海山通四丁→堺東駅前",
    "stop": "三宝",
    "passTime": "07:29",
    "vehicleType": "南海バス(車椅子・ベビーカー・ノンステップ)",
    "updateTime": "2026/07/23 07:33"
  },
  {
    "vehicleNum": "080863",
    "vehicleCd": "249",
    "vehicleCorpCd": "1",
    "running": true,
    "lat": 34.599278,
    "lon": 135.469,
    "route": "匠町→住之江公園駅前→匠町",
    "stop": "松屋大和川通３丁",
    "passTime": "07:32",
    "vehicleType": "南海バス(車椅子・ベビーカー・ノンステップ)",
    "updateTime": "2026/07/23 07:33"
  },
  {
    "vehicleNum": "080858",
    "vehicleCd": "225",
    "vehicleCorpCd": "1",
    "running": true,
    "lat": 34.594472,
    "lon": 135.464583,
    "route": "【急行】堺駅西口→海浜匠町",
    "stop": "堺駅西口",
    "passTime": "07:18",
    "vehicleType": "南海バス(車椅子・ベビーカー・ノンステップ)",
    "updateTime": "2026/07/23 07:33"
  },
  {
    "vehicleNum": "080864",
    "vehicleCd": "146",
    "vehicleCorpCd": "1",
    "running": true,
    "lat": 34.594194,
    "lon": 135.465472,
    "route": "【急行】瓦町公園前→海浜匠町",
    "stop": "瓦町公園前",
    "passTime": "07:17",
    "vehicleType": "南海バス(車椅子・ベビーカー・ノンステップ)",
    "updateTime": "2026/07/23 07:33"
  },
  {
    "vehicleNum": "080875",
    "vehicleCd": "485",
    "vehicleCorpCd": "1",
    "running": true,
    "lat": 34.498889,
    "lon": 135.530889,
    "route": "泉ヶ丘駅→スマ・エコタウン晴美台→高倉台右回り→泉ヶ丘駅",
    "stop": "堺東高校前",
    "passTime": "07:32",
    "vehicleType": "南海バス(車椅子・ベビーカー・ノンステップ)",
    "updateTime": "2026/07/23 07:33"
  },
  {
    "vehicleNum": "080874",
    "vehicleCd": "352",
    "vehicleCorpCd": "1",
    "running": true,
    "lat": 34.467278,
    "lon": 135.496583,
    "route": "栂・美木多駅→御池台回り→栂・美木多駅",
    "stop": "庭代台１丁南",
    "passTime": "07:32",
    "vehicleType": "南海バス(車椅子・ベビーカー・ノンステップ)",
    "updateTime": "2026/07/23 07:33"
  },
  {
    "vehicleNum": "080878",
    "vehicleCd": "368",
    "vehicleCorpCd": "1",
    "running": true,
    "lat": 34.522083,
    "lon": 135.528778,
    "route": "東山車庫前→北野田駅前",
    "stop": "福町",
    "passTime": "07:32",
    "vehicleType": "南海バス(車椅子・ベビーカー・ノンステップ)",
    "updateTime": "2026/07/23 07:33"
  },
  {
    "vehicleNum": "080877",
    "vehicleCd": "588",
    "vehicleCorpCd": "1",
    "running": true,
    "lat": 34.554889,
    "lon": 135.500778,
    "route": "北野田駅前→福町→堺駅南口",
    "stop": "中もず駅前（南側）",
    "passTime": "07:30",
    "vehicleType": "南海バス(車椅子・ベビーカー・ノンステップ)",
    "updateTime": "2026/07/23 07:33"
  },
  {
    "vehicleNum": "080879",
    "vehicleCd": "359",
    "vehicleCorpCd": "1",
    "running": true,
    "lat": 34.526278,
    "lon": 135.478,
    "route": "津久野駅前→鈴の宮団地センター→深井駅",
    "stop": "鈴の宮団地センター",
    "passTime": "07:32",
    "vehicleType": "南海バス(車椅子・ベビーカー・ノンステップ)",
    "updateTime": "2026/07/23 07:33"
  },
  {
    "vehicleNum": "080880",
    "vehicleCd": "360",
    "vehicleCorpCd": "1",
    "running": true,
    "lat": 34.567278,
    "lon": 135.436694,
    "route": "石津川駅前→臨港７区→臨港６区→石津川駅前",
    "stop": "築港新町１丁",
    "passTime": "07:32",
    "vehicleType": "南海バス(車椅子・ベビーカー・ノンステップ)",
    "updateTime": "2026/07/23 07:33"
  },
  {
    "vehicleNum": "080894",
    "vehicleCd": "350",
    "vehicleCorpCd": "1",
    "running": true,
    "lat": 34.544194,
    "lon": 135.533583,
    "route": "美原区役所→初芝駅前→美原区役所",
    "stop": "初芝東",
    "passTime": "07:32",
    "vehicleType": "南海バス(車椅子・ベビーカー・ノンステップ)",
    "updateTime": "2026/07/23 07:33"
  },
  {
    "vehicleNum": "080898",
    "vehicleCd": "501",
    "vehicleCorpCd": "1",
    "running": true,
    "lat": 34.584278,
    "lon": 135.468583,
    "route": "【急行】堺駅西口→海浜匠町",
    "stop": "堺駅西口",
    "passTime": "07:28",
    "vehicleType": "南海バス(車椅子・ベビーカー・ワンステップ)",
    "updateTime": "2026/07/23 07:33"
  },
  {
    "vehicleNum": "080882",
    "vehicleCd": "343",
    "vehicleCorpCd": "1",
    "running": true,
    "lat": 34.530389,
    "lon": 135.487889,
    "route": "泉ヶ丘駅→深阪→津久野駅前",
    "stop": "堀上",
    "passTime": "07:33",
    "vehicleType": "南海バス(車椅子・ベビーカー・ノンステップ)",
    "updateTime": "2026/07/23 07:33"
  },
  {
    "vehicleNum": "080901",
    "vehicleCd": "347",
    "vehicleCorpCd": "1",
    "running": true,
    "lat": 34.592389,
    "lon": 135.4565,
    "route": "【急行】堺駅西口→海浜匠町",
    "stop": "堺駅西口",
    "passTime": "07:16",
    "vehicleType": "南海バス(車椅子・ベビーカー・ワンステップ)",
    "updateTime": "2026/07/23 07:33"
  },
  {
    "vehicleNum": "080902",
    "vehicleCd": "76",
    "vehicleCorpCd": "1",
    "running": true,
    "lat": 34.591389,
    "lon": 135.468194,
    "route": "【急行】堺駅西口→海浜匠町",
    "stop": "堺駅西口",
    "passTime": "07:25",
    "vehicleType": "南海バス(車椅子・ベビーカー・ワンステップ)",
    "updateTime": "2026/07/23 07:33"
  },
  {
    "vehicleNum": "080903",
    "vehicleCd": "354",
    "vehicleCorpCd": "1",
    "running": true,
    "lat": 34.583278,
    "lon": 135.467972,
    "route": "【急行】堺駅西口→海浜匠町",
    "stop": "堺駅西口",
    "passTime": "07:30",
    "vehicleType": "南海バス(車椅子・ベビーカー・ワンステップ)",
    "updateTime": "2026/07/23 07:33"
  },
  {
    "vehicleNum": "080918",
    "vehicleCd": "419",
    "vehicleCorpCd": "1",
    "running": true,
    "lat": 34.579778,
    "lon": 135.485389,
    "route": "堺東駅前→錦綾町→河内天美駅前",
    "stop": "中向陽町",
    "passTime": "07:33",
    "vehicleType": "南海バス(車椅子・ベビーカー・ノンステップ)",
    "updateTime": "2026/07/23 07:33"
  },
  {
    "vehicleNum": "080913",
    "vehicleCd": "128",
    "vehicleCorpCd": "1",
    "running": true,
    "lat": 34.576083,
    "lon": 135.4715,
    "route": "堺駅南口→堺駅前",
    "stop": "川尻",
    "passTime": "07:31",
    "vehicleType": "南海バス(車椅子・ベビーカー・ノンステップ)",
    "updateTime": "2026/07/23 07:33"
  },
  {
    "vehicleNum": "080921",
    "vehicleCd": "143",
    "vehicleCorpCd": "1",
    "running": true,
    "lat": 34.475389,
    "lon": 135.508278,
    "route": "泉ヶ丘駅→鉢ヶ峯→泉ヶ丘駅",
    "stop": "泉田中",
    "passTime": "07:32",
    "vehicleType": "南海バス(車椅子・ベビーカー・ノンステップ)",
    "updateTime": "2026/07/23 07:33"
  },
  {
    "vehicleNum": "080934",
    "vehicleCd": "594",
    "vehicleCorpCd": "1",
    "running": true,
    "lat": 34.594778,
    "lon": 135.443583,
    "route": "【急行】堺駅西口→海浜匠町",
    "stop": "堺駅西口",
    "passTime": "07:14",
    "vehicleType": "南海バス(車椅子・ベビーカー・ノンステップ)",
    "updateTime": "2026/07/23 07:33"
  },
  {
    "vehicleNum": "080937",
    "vehicleCd": "595",
    "vehicleCorpCd": "1",
    "running": true,
    "lat": 34.536194,
    "lon": 135.519,
    "route": "堺駅南口→三国ヶ丘駅前→北野田駅前",
    "stop": "大野芝",
    "passTime": "07:30",
    "vehicleType": "南海バス(車椅子・ベビーカー・ノンステップ)",
    "updateTime": "2026/07/23 07:33"
  },
  {
    "vehicleNum": "080950",
    "vehicleCd": "513",
    "vehicleCorpCd": "1",
    "running": true,
    "lat": 34.544083,
    "lon": 135.526278,
    "route": "中もず駅前→初芝駅前→船戸下→美原区役所前",
    "stop": "引野",
    "passTime": "07:31",
    "vehicleType": "南海バス(車椅子・ベビーカー・ノンステップ)",
    "updateTime": "2026/07/23 07:33"
  },
  {
    "vehicleNum": "080956",
    "vehicleCd": "71",
    "vehicleCorpCd": "1",
    "running": true,
    "lat": 34.580583,
    "lon": 135.469583,
    "route": "堺東駅前→ＡＴＣ／フェリー→堺東駅前",
    "stop": "南港フェリーターミナル",
    "passTime": "07:16",
    "vehicleType": "南海バス",
    "updateTime": "2026/07/23 07:33"
  },
  {
    "vehicleNum": "080951",
    "vehicleCd": "597",
    "vehicleCorpCd": "1",
    "running": true,
    "lat": 34.495889,
    "lon": 135.499778,
    "route": "津久野駅前→堺市立総合医療センター前→泉北２号線→泉ヶ丘駅",
    "stop": "竹城台４丁",
    "passTime": "07:32",
    "vehicleType": "南海バス(車椅子・ベビーカー・ノンステップ)",
    "updateTime": "2026/07/23 07:33"
  },
  {
    "vehicleNum": "080958",
    "vehicleCd": "603",
    "vehicleCorpCd": "1",
    "running": true,
    "lat": 34.581083,
    "lon": 135.469389,
    "route": "堺東駅前→ＡＴＣ→堺東駅前",
    "stop": "堺駅前",
    "passTime": "07:33",
    "vehicleType": "南海バス",
    "updateTime": "2026/07/23 07:33"
  },
  {
    "vehicleNum": "080967",
    "vehicleCd": "605",
    "vehicleCorpCd": "1",
    "running": true,
    "lat": 34.542889,
    "lon": 135.5265,
    "route": "初芝駅前→平尾→中もず駅前",
    "stop": "初芝駅前",
    "passTime": "07:31",
    "vehicleType": "南海バス(車椅子・ベビーカー・ノンステップ)",
    "updateTime": "2026/07/23 07:33"
  },
  {
    "vehicleNum": "080968",
    "vehicleCd": "424",
    "vehicleCorpCd": "1",
    "running": true,
    "lat": 34.556278,
    "lon": 135.503972,
    "route": "堺駅南口→福町→北野田駅前",
    "stop": "中もず駅前（南側）",
    "passTime": "07:32",
    "vehicleType": "南海バス(車椅子・ベビーカー・ノンステップ)",
    "updateTime": "2026/07/23 07:33"
  },
  {
    "vehicleNum": "080989",
    "vehicleCd": "259",
    "vehicleCorpCd": "1",
    "running": true,
    "lat": 34.541194,
    "lon": 135.475583,
    "route": "堺東駅前→堀上緑町１丁→堺東駅前",
    "stop": "津久野中学校前",
    "passTime": "07:32",
    "vehicleType": "南海バス(車椅子・ベビーカー・ノンステップ)",
    "updateTime": "2026/07/23 07:33"
  },
  {
    "vehicleNum": "080977",
    "vehicleCd": "388",
    "vehicleCorpCd": "1",
    "running": true,
    "lat": 34.514583,
    "lon": 135.511083,
    "route": "あみだ池→田園→深井駅",
    "stop": "田園北口",
    "passTime": "07:33",
    "vehicleType": "南海バス(車椅子・ベビーカー・ノンステップ)",
    "updateTime": "2026/07/23 07:33"
  },
  {
    "vehicleNum": "080994",
    "vehicleCd": "130",
    "vehicleCorpCd": "1",
    "running": true,
    "lat": 34.4955,
    "lon": 135.4995,
    "route": "泉ヶ丘駅→泉北２号線→津久野駅前",
    "stop": "竹城台４丁",
    "passTime": "07:32",
    "vehicleType": "南海バス(車椅子・ベビーカー・ノンステップ)",
    "updateTime": "2026/07/23 07:33"
  },
  {
    "vehicleNum": "080996",
    "vehicleCd": "191",
    "vehicleCorpCd": "1",
    "running": true,
    "lat": 34.536,
    "lon": 135.551278,
    "route": "初芝駅前→美原区役所前",
    "stop": "農芸高校前",
    "passTime": "07:32",
    "vehicleType": "南海バス(車椅子・ベビーカー・ノンステップ)",
    "updateTime": "2026/07/23 07:33"
  },
  {
    "vehicleNum": "080995",
    "vehicleCd": "118",
    "vehicleCorpCd": "1",
    "running": true,
    "lat": 34.493778,
    "lon": 135.531194,
    "route": "泉ヶ丘駅→スマ・エコタウン晴美台→高倉台右回り→泉ヶ丘駅",
    "stop": "晴美台センター",
    "passTime": "07:32",
    "vehicleType": "南海バス(車椅子・ベビーカー・ノンステップ)",
    "updateTime": "2026/07/23 07:33"
  },
  {
    "vehicleNum": "080999",
    "vehicleCd": "493",
    "vehicleCorpCd": "1",
    "running": true,
    "lat": 34.569083,
    "lon": 135.483389,
    "route": "北野田駅前→西口園→堺駅南口",
    "stop": "一条通",
    "passTime": "07:32",
    "vehicleType": "南海バス(車椅子・ベビーカー・ノンステップ)",
    "updateTime": "2026/07/23 07:33"
  },
  {
    "vehicleNum": "081001",
    "vehicleCd": "238",
    "vehicleCorpCd": "1",
    "running": true,
    "lat": 34.523389,
    "lon": 135.538972,
    "route": "中もず駅前→福町→北野田駅前",
    "stop": "大美野噴水前",
    "passTime": "07:31",
    "vehicleType": "南海バス(車椅子・ベビーカー・ノンステップ)",
    "updateTime": "2026/07/23 07:33"
  },
  {
    "vehicleNum": "081003",
    "vehicleCd": "610",
    "vehicleCorpCd": "1",
    "running": true,
    "lat": 34.552583,
    "lon": 135.481583,
    "route": "堺東駅前→上野芝→泉ヶ丘駅",
    "stop": "旭ヶ丘（堺市）",
    "passTime": "07:27",
    "vehicleType": "南海バス(車椅子・ベビーカー・ノンステップ)",
    "updateTime": "2026/07/23 07:33"
  },
  {
    "vehicleNum": "081004",
    "vehicleCd": "271",
    "vehicleCorpCd": "1",
    "running": true,
    "lat": 34.499889,
    "lon": 135.512583,
    "route": "深井駅→田園→泉ヶ丘駅",
    "stop": "三原台北",
    "passTime": "07:31",
    "vehicleType": "南海バス(車椅子・ベビーカー・ノンステップ)",
    "updateTime": "2026/07/23 07:33"
  },
  {
    "vehicleNum": "081005",
    "vehicleCd": "272",
    "vehicleCorpCd": "1",
    "running": true,
    "lat": 34.552,
    "lon": 135.481889,
    "route": "泉ヶ丘駅→宮山台中学校前→堺東駅前",
    "stop": "上野芝",
    "passTime": "07:27",
    "vehicleType": "南海バス(車椅子・ベビーカー・ノンステップ)",
    "updateTime": "2026/07/23 07:33"
  },
  {
    "vehicleNum": "081008",
    "vehicleCd": "47",
    "vehicleCorpCd": "1",
    "running": true,
    "lat": 34.533083,
    "lon": 135.5195,
    "route": "北野田駅前→福町→堺駅南口",
    "stop": "下草尾",
    "passTime": "07:32",
    "vehicleType": "南海バス(車椅子・ベビーカー・ノンステップ)",
    "updateTime": "2026/07/23 07:33"
  },
  {
    "vehicleNum": "081006",
    "vehicleCd": "54",
    "vehicleCorpCd": "1",
    "running": true,
    "lat": 34.574194,
    "lon": 135.484194,
    "route": "堺東駅前→もず駅前→深井駅→あみだ池",
    "stop": "堺東駅前",
    "passTime": "07:30",
    "vehicleType": "南海バス(車椅子・ベビーカー・ノンステップ)",
    "updateTime": "2026/07/23 07:33"
  },
  {
    "vehicleNum": "081013",
    "vehicleCd": "554",
    "vehicleCorpCd": "1",
    "running": true,
    "lat": 34.541583,
    "lon": 135.476694,
    "route": "堺東駅前→堀上緑町１丁→堺東駅前",
    "stop": "神野",
    "passTime": "07:32",
    "vehicleType": "南海バス(車椅子・ベビーカー・ノンステップ)",
    "updateTime": "2026/07/23 07:33"
  },
  {
    "vehicleNum": "081018",
    "vehicleCd": "263",
    "vehicleCorpCd": "1",
    "running": true,
    "lat": 34.530278,
    "lon": 135.566694,
    "route": "中もず駅前→平尾→初芝駅前",
    "stop": "菅生口",
    "passTime": "07:32",
    "vehicleType": "南海バス(車椅子・ベビーカー・ノンステップ)",
    "updateTime": "2026/07/23 07:33"
  },
  {
    "vehicleNum": "081016",
    "vehicleCd": "239",
    "vehicleCorpCd": "1",
    "running": true,
    "lat": 34.484472,
    "lon": 135.516083,
    "route": "泉ヶ丘駅→槙塚台右回り→泉ヶ丘駅",
    "stop": "槙塚台２丁北",
    "passTime": "07:31",
    "vehicleType": "南海バス(車椅子・ベビーカー・ノンステップ)",
    "updateTime": "2026/07/23 07:33"
  },
  {
    "vehicleNum": "081017",
    "vehicleCd": "135",
    "vehicleCorpCd": "1",
    "running": true,
    "lat": 34.475389,
    "lon": 135.501389,
    "route": "栂・美木多駅→庭代台右回り→栂・美木多駅",
    "stop": "庭代台東口",
    "passTime": "07:32",
    "vehicleType": "南海バス(車椅子・ベビーカー・ノンステップ)",
    "updateTime": "2026/07/23 07:33"
  },
  {
    "vehicleNum": "081019",
    "vehicleCd": "267",
    "vehicleCorpCd": "1",
    "running": true,
    "lat": 34.5,
    "lon": 135.500278,
    "route": "堺東駅前→上野芝→泉ヶ丘駅",
    "stop": "竹城台口",
    "passTime": "07:32",
    "vehicleType": "南海バス(車椅子・ベビーカー・ノンステップ)",
    "updateTime": "2026/07/23 07:33"
  },
  {
    "vehicleNum": "081020",
    "vehicleCd": "163",
    "vehicleCorpCd": "1",
    "running": true,
    "lat": 34.518,
    "lon": 135.490889,
    "route": "泉ヶ丘駅→宮山台中学校前→堺東駅前",
    "stop": "天の橋",
    "passTime": "07:30",
    "vehicleType": "南海バス(車椅子・ベビーカー・ノンステップ)",
    "updateTime": "2026/07/23 07:33"
  },
  {
    "vehicleNum": "081023",
    "vehicleCd": "264",
    "vehicleCorpCd": "1",
    "running": true,
    "lat": 34.523778,
    "lon": 135.541083,
    "route": "北野田駅前→福町→深井駅",
    "stop": "北野田駅前",
    "passTime": "07:31",
    "vehicleType": "南海バス(車椅子・ベビーカー・ノンステップ)",
    "updateTime": "2026/07/23 07:33"
  },
  {
    "vehicleNum": "081034",
    "vehicleCd": "120",
    "vehicleCorpCd": "1",
    "running": true,
    "lat": 34.4865,
    "lon": 135.519694,
    "route": "泉ヶ丘駅→槙塚台右回り→泉ヶ丘駅",
    "stop": "茶山台３丁",
    "passTime": "07:32",
    "vehicleType": "南海バス(車椅子・ベビーカー・ノンステップ)",
    "updateTime": "2026/07/23 07:33"
  },
  {
    "vehicleNum": "081021",
    "vehicleCd": "243",
    "vehicleCorpCd": "1",
    "running": true,
    "lat": 34.539083,
    "lon": 135.486583,
    "route": "伏尾→北条→中もず駅前",
    "stop": "深井新町",
    "passTime": "07:31",
    "vehicleType": "南海バス(車椅子・ベビーカー・ノンステップ)",
    "updateTime": "2026/07/23 07:33"
  },
  {
    "vehicleNum": "081024",
    "vehicleCd": "270",
    "vehicleCorpCd": "1",
    "running": true,
    "lat": 34.561278,
    "lon": 135.473889,
    "route": "堺東駅前→緑ヶ丘",
    "stop": "旭ヶ丘北町",
    "passTime": "07:32",
    "vehicleType": "南海バス(車椅子・ベビーカー・ノンステップ)",
    "updateTime": "2026/07/23 07:33"
  },
  {
    "vehicleNum": "081035",
    "vehicleCd": "491",
    "vehicleCorpCd": "1",
    "running": true,
    "lat": 34.491778,
    "lon": 135.519694,
    "route": "晴美台センター→晴美台右回り→泉ヶ丘駅",
    "stop": "茶山台南口",
    "passTime": "07:31",
    "vehicleType": "南海バス(車椅子・ベビーカー・ノンステップ)",
    "updateTime": "2026/07/23 07:33"
  },
  {
    "vehicleNum": "081040",
    "vehicleCd": "248",
    "vehicleCorpCd": "1",
    "running": true,
    "lat": 34.487278,
    "lon": 135.522889,
    "route": "泉ヶ丘駅→狭山ニュータウンセンター→金剛駅前",
    "stop": "茶山台南口",
    "passTime": "07:32",
    "vehicleType": "南海バス(車椅子・ベビーカー・ノンステップ)",
    "updateTime": "2026/07/23 07:33"
  },
  {
    "vehicleNum": "081043",
    "vehicleCd": "612",
    "vehicleCorpCd": "1",
    "running": true,
    "lat": 34.524,
    "lon": 135.487889,
    "route": "津久野駅前→堺市立総合医療センター前→八田荘団地→泉ヶ丘駅",
    "stop": "八田荘",
    "passTime": "07:32",
    "vehicleType": "南海バス(車椅子・ベビーカー・ノンステップ)",
    "updateTime": "2026/07/23 07:33"
  },
  {
    "vehicleNum": "090104",
    "vehicleCd": "53",
    "vehicleCorpCd": "2",
    "running": true,
    "lat": 34.437278,
    "lon": 135.4135,
    "route": "岸和田駅前→岸和田警察署前→道の駅愛彩ランド",
    "stop": "福田",
    "passTime": "07:32",
    "vehicleType": "南海ウイングバス(車椅子・ベビーカー・ワンステップ)",
    "updateTime": "2026/07/23 07:33"
  },
  {
    "vehicleNum": "090035",
    "vehicleCd": "242",
    "vehicleCorpCd": "1",
    "running": true,
    "lat": 34.507889,
    "lon": 135.442194,
    "route": "北信太駅筋→鶴山台団地→北信太駅筋",
    "stop": "北信太駅筋",
    "passTime": "07:33",
    "vehicleType": "南海バス(車椅子・ベビーカー・ワンステップ)",
    "updateTime": "2026/07/23 07:33"
  },
  {
    "vehicleNum": "090170",
    "vehicleCd": "117",
    "vehicleCorpCd": "2",
    "running": true,
    "lat": 34.455194,
    "lon": 135.384694,
    "route": "岸和田駅前→内畑→白原車庫",
    "stop": "岸和田警察署前",
    "passTime": "07:32",
    "vehicleType": "南海ウイングバス",
    "updateTime": "2026/07/23 07:33"
  },
  {
    "vehicleNum": "090160",
    "vehicleCd": "72",
    "vehicleCorpCd": "2",
    "running": true,
    "lat": 34.4025,
    "lon": 135.331778,
    "route": "大阪体育大学前→熊取駅前→ダンバラ公園前→泉佐野駅前",
    "stop": "ダンバラ公園前",
    "passTime": "07:32",
    "vehicleType": "南海ウイングバス(車椅子・ワンステップ)",
    "updateTime": "2026/07/23 07:33"
  },
  {
    "vehicleNum": "090176",
    "vehicleCd": "101",
    "vehicleCorpCd": "2",
    "running": true,
    "lat": 34.400694,
    "lon": 135.290194,
    "route": "りんくうタウン駅→りんくうポート北",
    "stop": "住宅前",
    "passTime": "07:33",
    "vehicleType": "南海ウイングバス",
    "updateTime": "2026/07/23 07:33"
  },
  {
    "vehicleNum": "090491",
    "vehicleCd": "50",
    "vehicleCorpCd": "2",
    "running": true,
    "lat": 34.454889,
    "lon": 135.400278,
    "route": "道の駅愛彩ランド→下松駅前→岸和田駅前",
    "stop": "桜ヶ丘",
    "passTime": "07:32",
    "vehicleType": "南海ウイングバス(車椅子・ワンステップ)",
    "updateTime": "2026/07/23 07:33"
  },
  {
    "vehicleNum": "091107",
    "vehicleCd": "23",
    "vehicleCorpCd": "2",
    "running": true,
    "lat": 34.448583,
    "lon": 135.385583,
    "route": "岸和田駅前→天神山・一の宮循環　右回り→岸和田駅前",
    "stop": "東岸和田駅前",
    "passTime": "07:32",
    "vehicleType": "南海ウイングバス(車椅子・ワンステップ)",
    "updateTime": "2026/07/23 07:33"
  },
  {
    "vehicleNum": "091580",
    "vehicleCd": "85",
    "vehicleCorpCd": "2",
    "running": true,
    "lat": 34.364278,
    "lon": 135.3015,
    "route": "泉南市コミュニティバス 朝 新家回り",
    "stop": "新家上村",
    "passTime": "07:32",
    "vehicleType": "南海ウイングバス(車椅子・ベビーカー・ノンステップ)",
    "updateTime": "2026/07/23 07:33"
  },
  {
    "vehicleNum": "091595",
    "vehicleCd": "199",
    "vehicleCorpCd": "1",
    "running": true,
    "lat": 34.432389,
    "lon": 135.234778,
    "route": "給油地区→直行→空港駅",
    "stop": "機内食前",
    "passTime": "07:32",
    "vehicleType": "南海バス(車椅子・ノンステップ)",
    "updateTime": "2026/07/23 07:33"
  },
  {
    "vehicleNum": "091596",
    "vehicleCd": "200",
    "vehicleCorpCd": "1",
    "running": true,
    "lat": 34.432389,
    "lon": 135.235083,
    "route": "空港駅→給油地区",
    "stop": "空港駅",
    "passTime": "07:31",
    "vehicleType": "南海バス(車椅子・ノンステップ)",
    "updateTime": "2026/07/23 07:33"
  },
  {
    "vehicleNum": "091600",
    "vehicleCd": "201",
    "vehicleCorpCd": "1",
    "running": true,
    "lat": 34.426778,
    "lon": 135.227278,
    "route": "空港駅→給油地区",
    "stop": "貨物合同庁舎前",
    "passTime": "07:32",
    "vehicleType": "南海バス(車椅子・ノンステップ)",
    "updateTime": "2026/07/23 07:33"
  },
  {
    "vehicleNum": "091739",
    "vehicleCd": "147",
    "vehicleCorpCd": "2",
    "running": true,
    "lat": 34.455083,
    "lon": 135.426778,
    "route": "白原車庫→内畑→岸和田駅前",
    "stop": "岡山東",
    "passTime": "07:36",
    "vehicleType": "南海ウイングバス(車椅子・ベビーカー・ワンステップ)",
    "updateTime": "2026/07/23 07:33"
  },
  {
    "vehicleNum": "091737",
    "vehicleCd": "48",
    "vehicleCorpCd": "2",
    "running": true,
    "lat": 34.444278,
    "lon": 135.437778,
    "route": "和泉中央駅→道の駅愛彩ランド",
    "stop": "山直東",
    "passTime": "07:29",
    "vehicleType": "南海ウイングバス(車椅子・ベビーカー・ワンステップ)",
    "updateTime": "2026/07/23 07:33"
  },
  {
    "vehicleNum": "091745",
    "vehicleCd": "103",
    "vehicleCorpCd": "2",
    "running": true,
    "lat": 34.412972,
    "lon": 135.438778,
    "route": "岸和田駅前→内畑→牛滝温泉",
    "stop": "内畑",
    "passTime": "07:32",
    "vehicleType": "南海ウイングバス",
    "updateTime": "2026/07/23 07:33"
  },
  {
    "vehicleNum": "091910",
    "vehicleCd": "441",
    "vehicleCorpCd": "1",
    "running": true,
    "lat": 34.431278,
    "lon": 135.233083,
    "route": "エアロプラザ→第２ターミナル(国内線・国際線)→エアロプラザ",
    "stop": "エアロプラザ",
    "passTime": "07:30",
    "vehicleType": "南海バス(車椅子・ノンステップ)",
    "updateTime": "2026/07/23 07:33"
  },
  {
    "vehicleNum": "092140",
    "vehicleCd": "526",
    "vehicleCorpCd": "1",
    "running": true,
    "lat": 34.621389,
    "lon": 135.4345,
    "route": "堺東駅前→ＡＴＣ→堺東駅前",
    "stop": "ポートタウン東",
    "passTime": "07:29",
    "vehicleType": "南海バス",
    "updateTime": "2026/07/23 07:33"
  },
  {
    "vehicleNum": "092233",
    "vehicleCd": "533",
    "vehicleCorpCd": "1",
    "running": true,
    "lat": 34.5915,
    "lon": 135.474083,
    "route": "【急行】瓦町公園前→海浜匠町",
    "stop": "瓦町公園前",
    "passTime": "07:26",
    "vehicleType": "南海バス(車椅子・ベビーカー・ノンステップ)",
    "updateTime": "2026/07/23 07:33"
  },
  {
    "vehicleNum": "092205",
    "vehicleCd": "25",
    "vehicleCorpCd": "1",
    "running": true,
    "lat": 34.457278,
    "lon": 135.558278,
    "route": "千代田駅前→赤峯→荘園町",
    "stop": "赤峰",
    "passTime": "07:32",
    "vehicleType": "南海バス(車椅子・ベビーカー・ノンステップ)",
    "updateTime": "2026/07/23 07:33"
  },
  {
    "vehicleNum": "092234",
    "vehicleCd": "534",
    "vehicleCorpCd": "1",
    "running": true,
    "lat": 34.421778,
    "lon": 135.453472,
    "route": "和泉中央駅→府立産技研前→テクノステージセンター前",
    "stop": "和泉商工会議所前",
    "passTime": "07:31",
    "vehicleType": "南海バス(車椅子・ベビーカー・ノンステップ)",
    "updateTime": "2026/07/23 07:33"
  },
  {
    "vehicleNum": "092372",
    "vehicleCd": "159",
    "vehicleCorpCd": "1",
    "running": true,
    "lat": 34.478583,
    "lon": 135.472583,
    "route": "光明池駅→新檜尾台センター→光明池駅",
    "stop": "新檜尾台三丁",
    "passTime": "07:33",
    "vehicleType": "南海バス(車椅子・ベビーカー・ノンステップ)",
    "updateTime": "2026/07/23 07:33"
  },
  {
    "vehicleNum": "092398",
    "vehicleCd": "41",
    "vehicleCorpCd": "1",
    "running": true,
    "lat": 34.436083,
    "lon": 135.241583,
    "route": "エアロプラザ→第２ターミナル(国内線・国際線)→エアロプラザ",
    "stop": "第2ターミナル国際線",
    "passTime": "07:27",
    "vehicleType": "南海バス(車椅子・ノンステップ)",
    "updateTime": "2026/07/23 07:33"
  },
  {
    "vehicleNum": "092384",
    "vehicleCd": "558",
    "vehicleCorpCd": "1",
    "running": true,
    "lat": 34.471083,
    "lon": 135.476472,
    "route": "光明池駅→新檜尾台センター→光明池駅",
    "stop": "伏屋東",
    "passTime": "07:30",
    "vehicleType": "南海バス(車椅子・ベビーカー・ノンステップ)",
    "updateTime": "2026/07/23 07:33"
  },
  {
    "vehicleNum": "092454",
    "vehicleCd": "125",
    "vehicleCorpCd": "2",
    "running": true,
    "lat": 34.362583,
    "lon": 135.2715,
    "route": "泉南市コミュニティバス 山回り",
    "stop": "図書館・文化ホール前",
    "passTime": "07:32",
    "vehicleType": "泉南市コミュニティバス(橙)",
    "updateTime": "2026/07/23 07:33"
  },
  {
    "vehicleNum": "092468",
    "vehicleCd": "51",
    "vehicleCorpCd": "1",
    "running": true,
    "lat": 34.425083,
    "lon": 135.554389,
    "route": "三日市町駅前→南花台１丁目北→南ヶ丘",
    "stop": "南花台４丁目",
    "passTime": "07:33",
    "vehicleType": "南海バス(車椅子・ベビーカー・ノンステップ)",
    "updateTime": "2026/07/23 07:33"
  },
  {
    "vehicleNum": "092469",
    "vehicleCd": "220",
    "vehicleCorpCd": "1",
    "running": true,
    "lat": 34.455389,
    "lon": 135.557583,
    "route": "緑ヶ丘北町→千代田駅前",
    "stop": "配水池前",
    "passTime": "07:32",
    "vehicleType": "南海バス(車椅子・ベビーカー・ノンステップ)",
    "updateTime": "2026/07/23 07:33"
  },
  {
    "vehicleNum": "092533",
    "vehicleCd": "288",
    "vehicleCorpCd": "1",
    "running": true,
    "lat": 34.532389,
    "lon": 135.459472,
    "route": "堺東駅前→鳳駅前→光明池駅",
    "stop": "鳳駅前",
    "passTime": "07:34",
    "vehicleType": "南海バス(車椅子・ベビーカー・ノンステップ)",
    "updateTime": "2026/07/23 07:33"
  },
  {
    "vehicleNum": "092570",
    "vehicleCd": "577",
    "vehicleCorpCd": "1",
    "running": true,
    "lat": 34.4825,
    "lon": 135.427194,
    "route": "和泉中央駅→いぶき野→和泉府中駅前",
    "stop": "府中町南",
    "passTime": "07:33",
    "vehicleType": "南海バス(車椅子・ベビーカー・ノンステップ)",
    "updateTime": "2026/07/23 07:33"
  },
  {
    "vehicleNum": "092571",
    "vehicleCd": "314",
    "vehicleCorpCd": "1",
    "running": true,
    "lat": 34.459,
    "lon": 135.559778,
    "route": "千代田駅前→赤峯→荘園町",
    "stop": "千代田台",
    "passTime": "07:32",
    "vehicleType": "南海バス(車椅子・ベビーカー・ノンステップ)",
    "updateTime": "2026/07/23 07:33"
  },
  {
    "vehicleNum": "092572",
    "vehicleCd": "313",
    "vehicleCorpCd": "1",
    "running": true,
    "lat": 34.569583,
    "lon": 135.480778,
    "route": "堺東駅前→鳳駅前→光明池駅",
    "stop": "一条通",
    "passTime": "07:33",
    "vehicleType": "南海バス(車椅子・ベビーカー・ノンステップ)",
    "updateTime": "2026/07/23 07:33"
  },
  {
    "vehicleNum": "092577",
    "vehicleCd": "578",
    "vehicleCorpCd": "1",
    "running": true,
    "lat": 34.430194,
    "lon": 135.556694,
    "route": "大矢船西町→三日市町駅前（前乗り）",
    "stop": "南花台３丁目北",
    "passTime": "07:32",
    "vehicleType": "南海バス(車椅子・ベビーカー・ノンステップ)",
    "updateTime": "2026/07/23 07:33"
  },
  {
    "vehicleNum": "092578",
    "vehicleCd": "147",
    "vehicleCorpCd": "1",
    "running": true,
    "lat": 34.451083,
    "lon": 135.574583,
    "route": "河内長野駅前→観心寺→金剛山ロープウェイ前",
    "stop": "河内長野駅前",
    "passTime": "07:30",
    "vehicleType": "南海バス(車椅子・ベビーカー・ノンステップ)",
    "updateTime": "2026/07/23 07:33"
  },
  {
    "vehicleNum": "092579",
    "vehicleCd": "579",
    "vehicleCorpCd": "1",
    "running": true,
    "lat": 34.424583,
    "lon": 135.578694,
    "route": "美加の台駅前→美加の台口→美加の台駅前（前乗り）",
    "stop": "美加の台駅前",
    "passTime": "07:31",
    "vehicleType": "南海バス(車椅子・ベビーカー・ノンステップ)",
    "updateTime": "2026/07/23 07:33"
  },
  {
    "vehicleNum": "092620",
    "vehicleCd": "311",
    "vehicleCorpCd": "1",
    "running": true,
    "lat": 34.420889,
    "lon": 135.592,
    "route": "美加の台駅前→美加の台西→美加の台駅前（前乗り）",
    "stop": "延命寺口",
    "passTime": "07:32",
    "vehicleType": "南海バス(車椅子・ベビーカー・ノンステップ)",
    "updateTime": "2026/07/23 07:33"
  },
  {
    "vehicleNum": "092623",
    "vehicleCd": "15",
    "vehicleCorpCd": "1",
    "running": true,
    "lat": 34.447778,
    "lon": 135.473778,
    "route": "和泉青葉台→和泉中央駅→泉大津駅前",
    "stop": "南池田小学校前",
    "passTime": "07:33",
    "vehicleType": "南海バス(車椅子・ベビーカー・ノンステップ)",
    "updateTime": "2026/07/23 07:33"
  },
  {
    "vehicleNum": "092653",
    "vehicleCd": "357",
    "vehicleCorpCd": "1",
    "running": true,
    "lat": 34.451,
    "lon": 135.545389,
    "route": "千代→小山田→緑→千代",
    "stop": "小山田南",
    "passTime": "07:33",
    "vehicleType": "南海バス(車椅子・ベビーカー・ノンステップ)",
    "updateTime": "2026/07/23 07:33"
  },
  {
    "vehicleNum": "092696",
    "vehicleCd": "589",
    "vehicleCorpCd": "1",
    "running": true,
    "lat": 34.462,
    "lon": 135.444194,
    "route": "和泉中央駅→寺田→泉大津駅前",
    "stop": "唐国",
    "passTime": "07:32",
    "vehicleType": "南海バス(車椅子・ベビーカー・ノンステップ)",
    "updateTime": "2026/07/23 07:33"
  },
  {
    "vehicleNum": "092734",
    "vehicleCd": "289",
    "vehicleCorpCd": "1",
    "running": true,
    "lat": 34.414194,
    "lon": 135.571583,
    "route": "南青葉台中央→三日市町駅東（前乗り）",
    "stop": "南青葉台中央",
    "passTime": "07:33",
    "vehicleType": "南海バス(車椅子・ベビーカー・ノンステップ)",
    "updateTime": "2026/07/23 07:33"
  },
  {
    "vehicleNum": "092762",
    "vehicleCd": "570",
    "vehicleCorpCd": "1",
    "running": true,
    "lat": 34.559889,
    "lon": 135.472583,
    "route": "栂・美木多駅→鳳駅前→堺東駅前",
    "stop": "塩穴通",
    "passTime": "07:32",
    "vehicleType": "南海バス(車椅子・ベビーカー・ノンステップ)",
    "updateTime": "2026/07/23 07:33"
  },
  {
    "vehicleNum": "092795",
    "vehicleCd": "592",
    "vehicleCorpCd": "1",
    "running": true,
    "lat": 34.549694,
    "lon": 135.464083,
    "route": "光明池駅→山田→堺東駅前",
    "stop": "下田",
    "passTime": "07:28",
    "vehicleType": "南海バス(車椅子・ベビーカー・ノンステップ)",
    "updateTime": "2026/07/23 07:33"
  },
  {
    "vehicleNum": "092829",
    "vehicleCd": "488",
    "vehicleCorpCd": "1",
    "running": true,
    "lat": 34.497778,
    "lon": 135.466694,
    "route": "光明池駅→山田→堺東駅前",
    "stop": "北高尾",
    "passTime": "07:32",
    "vehicleType": "南海バス(車椅子・ベビーカー・ノンステップ)",
    "updateTime": "2026/07/23 07:33"
  },
  {
    "vehicleNum": "092857",
    "vehicleCd": "516",
    "vehicleCorpCd": "1",
    "running": true,
    "lat": 34.5315,
    "lon": 135.463,
    "route": "光明池駅→山田→堺東駅前",
    "stop": "長承寺",
    "passTime": "07:32",
    "vehicleType": "南海バス(車椅子・ベビーカー・ノンステップ)",
    "updateTime": "2026/07/23 07:33"
  },
  {
    "vehicleNum": "092858",
    "vehicleCd": "320",
    "vehicleCorpCd": "1",
    "running": true,
    "lat": 34.4615,
    "lon": 135.457889,
    "route": "和泉青葉台→和泉中央駅",
    "stop": "室堂",
    "passTime": "07:30",
    "vehicleType": "南海バス(車椅子・ベビーカー・ノンステップ)",
    "updateTime": "2026/07/23 07:33"
  },
  {
    "vehicleNum": "092862",
    "vehicleCd": "602",
    "vehicleCorpCd": "1",
    "running": true,
    "lat": 34.544778,
    "lon": 135.463389,
    "route": "堺東駅前→鳳駅前→国分峠東",
    "stop": "下田",
    "passTime": "07:32",
    "vehicleType": "南海バス(車椅子・ベビーカー・ノンステップ)",
    "updateTime": "2026/07/23 07:33"
  },
  {
    "vehicleNum": "092900",
    "vehicleCd": "604",
    "vehicleCorpCd": "1",
    "running": true,
    "lat": 34.449778,
    "lon": 135.457694,
    "route": "美術館前→のぞみ野南→和泉中央駅",
    "stop": "緑ヶ丘団地",
    "passTime": "07:32",
    "vehicleType": "南海バス(車椅子・ベビーカー・ノンステップ)",
    "updateTime": "2026/07/23 07:33"
  },
  {
    "vehicleNum": "092863",
    "vehicleCd": "371",
    "vehicleCorpCd": "1",
    "running": true,
    "lat": 34.489889,
    "lon": 135.466278,
    "route": "堺東駅前→鳳駅前→光明池駅",
    "stop": "檜尾山北",
    "passTime": "07:32",
    "vehicleType": "南海バス(車椅子・ベビーカー・ノンステップ)",
    "updateTime": "2026/07/23 07:33"
  },
  {
    "vehicleNum": "092873",
    "vehicleCd": "234",
    "vehicleCorpCd": "1",
    "running": true,
    "lat": 34.482583,
    "lon": 135.427083,
    "route": "和泉府中駅前→いぶき野→和泉中央駅",
    "stop": "府中町南",
    "passTime": "07:33",
    "vehicleType": "南海バス(車椅子・ベビーカー・ノンステップ)",
    "updateTime": "2026/07/23 07:33"
  },
  {
    "vehicleNum": "092872",
    "vehicleCd": "500",
    "vehicleCorpCd": "1",
    "running": true,
    "lat": 34.4705,
    "lon": 135.456194,
    "route": "光明池駅→光明池車庫→泉大津駅前",
    "stop": "池田下",
    "passTime": "07:32",
    "vehicleType": "南海バス(車椅子・ベビーカー・ノンステップ)",
    "updateTime": "2026/07/23 07:33"
  },
  {
    "vehicleNum": "092913",
    "vehicleCd": "154",
    "vehicleCorpCd": "1",
    "running": true,
    "lat": 34.451083,
    "lon": 135.491889,
    "route": "みずき台２丁目西→光明池駅",
    "stop": "光明台三丁目",
    "passTime": "07:32",
    "vehicleType": "南海バス(車椅子・ベビーカー・ノンステップ)",
    "updateTime": "2026/07/23 07:33"
  },
  {
    "vehicleNum": "092901",
    "vehicleCd": "356",
    "vehicleCorpCd": "1",
    "running": true,
    "lat": 34.4605,
    "lon": 135.454278,
    "route": "和泉青葉台→和泉中央駅→泉大津駅前",
    "stop": "和泉中央駅",
    "passTime": "07:29",
    "vehicleType": "南海バス(車椅子・ベビーカー・ノンステップ)",
    "updateTime": "2026/07/23 07:33"
  },
  {
    "vehicleNum": "092915",
    "vehicleCd": "346",
    "vehicleCorpCd": "1",
    "running": true,
    "lat": 34.451694,
    "lon": 135.570194,
    "route": "河内長野駅前→河内長野市役所前",
    "stop": "河内長野駅前",
    "passTime": "07:30",
    "vehicleType": "南海バス(車椅子・ベビーカー・ノンステップ)",
    "updateTime": "2026/07/23 07:33"
  },
  {
    "vehicleNum": "092916",
    "vehicleCd": "235",
    "vehicleCorpCd": "1",
    "running": true,
    "lat": 34.488972,
    "lon": 135.419,
    "route": "泉大津駅前→和泉府中駅前→和泉中央駅",
    "stop": "我孫子",
    "passTime": "07:32",
    "vehicleType": "南海バス(車椅子・ベビーカー・ノンステップ)",
    "updateTime": "2026/07/23 07:33"
  },
  {
    "vehicleNum": "092917",
    "vehicleCd": "40",
    "vehicleCorpCd": "1",
    "running": true,
    "lat": 34.386194,
    "lon": 135.5255,
    "route": "滝畑ダム→河内長野駅前",
    "stop": "滝畑ふるさと文化財の森ｾﾝﾀｰ前",
    "passTime": "07:31",
    "vehicleType": "南海バス(車椅子・ベビーカー・ノンステップ)",
    "updateTime": "2026/07/23 07:33"
  },
  {
    "vehicleNum": "092919",
    "vehicleCd": "230",
    "vehicleCorpCd": "1",
    "running": true,
    "lat": 34.428583,
    "lon": 135.555278,
    "route": "【前】神納→南花台→三日",
    "stop": "南花台３丁目南",
    "passTime": "07:33",
    "vehicleType": "南海バス(車椅子・ベビーカー・ノンステップ)",
    "updateTime": "2026/07/23 07:33"
  },
  {
    "vehicleNum": "092936",
    "vehicleCd": "322",
    "vehicleCorpCd": "1",
    "running": true,
    "lat": 34.432194,
    "lon": 135.234389,
    "route": "空港駅→国際循環→空港駅",
    "stop": "機内食前",
    "passTime": "07:31",
    "vehicleType": "南海バス(車椅子・ベビーカー・ノンステップ)",
    "updateTime": "2026/07/23 07:33"
  },
  {
    "vehicleNum": "092937",
    "vehicleCd": "73",
    "vehicleCorpCd": "1",
    "running": true,
    "lat": 34.533,
    "lon": 135.463194,
    "route": "国分峠東→栂・美木多駅→堺東駅前",
    "stop": "西堺警察署前",
    "passTime": "07:32",
    "vehicleType": "南海バス(車椅子・ベビーカー・ノンステップ)",
    "updateTime": "2026/07/23 07:33"
  },
  {
    "vehicleNum": "092948",
    "vehicleCd": "606",
    "vehicleCorpCd": "1",
    "running": true,
    "lat": 34.462278,
    "lon": 135.443694,
    "route": "泉大津駅前→和泉府中駅前→和泉中央駅",
    "stop": "箕形",
    "passTime": "07:33",
    "vehicleType": "南海バス(車椅子・ベビーカー・ノンステップ)",
    "updateTime": "2026/07/23 07:33"
  },
  {
    "vehicleNum": "092951",
    "vehicleCd": "340",
    "vehicleCorpCd": "1",
    "running": true,
    "lat": 34.454194,
    "lon": 135.463278,
    "route": "はつが野六丁目→和泉中央駅",
    "stop": "のぞみ野東",
    "passTime": "07:32",
    "vehicleType": "南海バス(車椅子・ベビーカー・ノンステップ)",
    "updateTime": "2026/07/23 07:33"
  },
  {
    "vehicleNum": "092976",
    "vehicleCd": "138",
    "vehicleCorpCd": "1",
    "running": true,
    "lat": 34.4835,
    "lon": 135.424278,
    "route": "和泉中央駅→寺田→和泉府中駅前",
    "stop": "和泉市役所前",
    "passTime": "07:33",
    "vehicleType": "南海バス(車椅子・ベビーカー・ノンステップ)",
    "updateTime": "2026/07/23 07:33"
  },
  {
    "vehicleNum": "092977",
    "vehicleCd": "608",
    "vehicleCorpCd": "1",
    "running": true,
    "lat": 34.483083,
    "lon": 135.427389,
    "route": "泉大津駅前→和泉中央駅→和泉青葉台",
    "stop": "府中町南",
    "passTime": "07:32",
    "vehicleType": "南海バス(車椅子・ベビーカー・ノンステップ)",
    "updateTime": "2026/07/23 07:33"
  },
  {
    "vehicleNum": "092975",
    "vehicleCd": "115",
    "vehicleCorpCd": "1",
    "running": true,
    "lat": 34.464389,
    "lon": 135.485778,
    "route": "光明池駅→城山台５丁→光明池車庫→光明池駅",
    "stop": "城山台五丁",
    "passTime": "07:32",
    "vehicleType": "南海バス(車椅子・ベビーカー・ノンステップ)",
    "updateTime": "2026/07/23 07:33"
  },
  {
    "vehicleNum": "092978",
    "vehicleCd": "325",
    "vehicleCorpCd": "1",
    "running": true,
    "lat": 34.446083,
    "lon": 135.461972,
    "route": "はつが野六丁目→和泉中央駅",
    "stop": "はつが野二丁目",
    "passTime": "07:32",
    "vehicleType": "南海バス(車椅子・ベビーカー・ノンステップ)",
    "updateTime": "2026/07/23 07:33"
  },
  {
    "vehicleNum": "093003",
    "vehicleCd": "111",
    "vehicleCorpCd": "1",
    "running": true,
    "lat": 34.437778,
    "lon": 135.449694,
    "route": "和泉中央駅→府立産技研前→テクノステージセンター前",
    "stop": "ららぽーと和泉前",
    "passTime": "07:32",
    "vehicleType": "南海バス(車椅子・ベビーカー・ノンステップ)",
    "updateTime": "2026/07/23 07:33"
  },
  {
    "vehicleNum": "093035",
    "vehicleCd": "609",
    "vehicleCorpCd": "1",
    "running": true,
    "lat": 34.438,
    "lon": 135.232778,
    "route": "エアロプラザ→第２ターミナル(国内線・国際線)→エアロプラザ",
    "stop": "第2ターミナル国際線",
    "passTime": "07:33",
    "vehicleType": "南海バス",
    "updateTime": "2026/07/23 07:33"
  },
  {
    "vehicleNum": "093073",
    "vehicleCd": "370",
    "vehicleCorpCd": "1",
    "running": true,
    "lat": 34.487694,
    "lon": 135.424,
    "route": "和泉中央駅→寺田→泉大津駅前",
    "stop": "和泉府中駅前",
    "passTime": "07:32",
    "vehicleType": "南海バス(車椅子・ベビーカー・ノンステップ)",
    "updateTime": "2026/07/23 07:33"
  },
  {
    "vehicleNum": "093074",
    "vehicleCd": "247",
    "vehicleCorpCd": "1",
    "running": true,
    "lat": 34.482972,
    "lon": 135.428389,
    "route": "和泉青葉台→和泉中央駅→泉大津駅前",
    "stop": "府中町南",
    "passTime": "07:33",
    "vehicleType": "南海バス(車椅子・ベビーカー・ノンステップ)",
    "updateTime": "2026/07/23 07:33"
  },
  {
    "vehicleNum": "093114",
    "vehicleCd": "262",
    "vehicleCorpCd": "1",
    "running": true,
    "lat": 34.470889,
    "lon": 135.476083,
    "route": "光明池駅→山田→堺東駅前",
    "stop": "光明池駅",
    "passTime": "07:30",
    "vehicleType": "南海バス(車椅子・ベビーカー・ノンステップ)",
    "updateTime": "2026/07/23 07:33"
  }
]