[
  {
    "vehicleNum": "070101",
    "vehicleCd": "400",
    "vehicleCorpCd": "1",
    "running": true,
    "lat": 34.498694,
    "lon": 135.554194,
    "route": "泉ヶ丘駅→狭山ニュータウンセンター→金剛駅前",
    "stop": "北村",
    "passTime": "17:42",
    "vehicleType": "泉北コミュニティバス(車椅子・ベビーカー・ノンステップ)",
    "updateTime": "2026/07/20 17:42"
  },
  {
    "vehicleNum": "070104",
    "vehicleCd": "402",
    "vehicleCorpCd": "1",
    "running": true,
    "lat": 34.482083,
    "lon": 135.541194,
    "route": "金剛駅前→狭山ニュータウンセンター→泉ヶ丘駅",
    "stop": "西山台南",
    "passTime": "17:42",
    "vehicleType": "泉北コミュニティバス(車椅子・ベビーカー・ノンステップ)",
    "updateTime": "2026/07/20 17:42"
  },
  {
    "vehicleNum": "070850",
    "vehicleCd": "429",
    "vehicleCorpCd": "1",
    "running": true,
    "lat": 34.636694,
    "lon": 135.414389,
    "route": "堺東駅前→ＡＴＣ→海遊館→堺東駅前",
    "stop": "ATC",
    "passTime": "17:38",
    "vehicleType": "南海バス",
    "updateTime": "2026/07/20 17:42"
  },
  {
    "vehicleNum": "071602",
    "vehicleCd": "109",
    "vehicleCorpCd": "1",
    "running": true,
    "lat": 34.574694,
    "lon": 135.481778,
    "route": "堺駅前→大小路→堺東駅前",
    "stop": "熊野小学校前",
    "passTime": "17:40",
    "vehicleType": "堺シャトル(車椅子・ベビーカー・ノンステップ)",
    "updateTime": "2026/07/20 17:42"
  },
  {
    "vehicleNum": "080105",
    "vehicleCd": "127",
    "vehicleCorpCd": "2",
    "running": true,
    "lat": 34.457194,
    "lon": 135.424389,
    "route": "白原車庫→内畑→岸和田駅前",
    "stop": "岡山",
    "passTime": "17:42",
    "vehicleType": "南海ウイングバス(車椅子・ベビーカー・ワンステップ)",
    "updateTime": "2026/07/20 17:42"
  },
  {
    "vehicleNum": "080137",
    "vehicleCd": "459",
    "vehicleCorpCd": "1",
    "running": true,
    "lat": 34.575278,
    "lon": 135.473083,
    "route": "堺旧港・ポルトマーレ→利晶→古墳→堺旧港・ポルトマーレ",
    "stop": "さかい利晶の杜",
    "passTime": "17:36",
    "vehicleType": "南海バス",
    "updateTime": "2026/07/20 17:42"
  },
  {
    "vehicleNum": "080184",
    "vehicleCd": "34",
    "vehicleCorpCd": "2",
    "running": true,
    "lat": 34.408194,
    "lon": 135.324694,
    "route": "つばさが丘北口→大阪体育大学前→熊取駅前→ダンバラ公園前→泉佐野駅前",
    "stop": "泉佐野市役所前",
    "passTime": "17:40",
    "vehicleType": "南海ウイングバス(車椅子・ベビーカー・ノンステップ)",
    "updateTime": "2026/07/20 17:42"
  },
  {
    "vehicleNum": "080178",
    "vehicleCd": "56",
    "vehicleCorpCd": "2",
    "running": true,
    "lat": 34.458389,
    "lon": 135.452194,
    "route": "和泉中央駅→荒木町→岸和田駅前",
    "stop": "和泉中央駅",
    "passTime": "17:39",
    "vehicleType": "南海ウイングバス(車椅子・ベビーカー・ワンステップ)",
    "updateTime": "2026/07/20 17:42"
  },
  {
    "vehicleNum": "080291",
    "vehicleCd": "134",
    "vehicleCorpCd": "2",
    "running": true,
    "lat": 34.374583,
    "lon": 135.2635,
    "route": "泉南市コミュニティバス 山回り",
    "stop": "前畑団地西",
    "passTime": "17:41",
    "vehicleType": "南海ウイングバス(車椅子・ベビーカー・ノンステップ)",
    "updateTime": "2026/07/20 17:42"
  },
  {
    "vehicleNum": "080482",
    "vehicleCd": "156",
    "vehicleCorpCd": "1",
    "running": true,
    "lat": 34.538278,
    "lon": 135.470778,
    "route": "石津川駅前→浜寺公園駅前通→鳳駅前→堺市立総合医療センター前",
    "stop": "西区役所前",
    "passTime": "17:38",
    "vehicleType": "南海バス(車椅子・ベビーカー・ノンステップ)",
    "updateTime": "2026/07/20 17:42"
  },
  {
    "vehicleNum": "080627",
    "vehicleCd": "446",
    "vehicleCorpCd": "1",
    "running": true,
    "lat": 34.541389,
    "lon": 135.551083,
    "route": "北野田駅前→多治井北（循環）→北野田駅前",
    "stop": "太井南",
    "passTime": "17:40",
    "vehicleType": "南海バス(車椅子・ベビーカー・ノンステップ)",
    "updateTime": "2026/07/20 17:42"
  },
  {
    "vehicleNum": "080676",
    "vehicleCd": "158",
    "vehicleCorpCd": "1",
    "running": true,
    "lat": 34.558389,
    "lon": 135.533083,
    "route": "北野田駅前→菩提→地下鉄新金岡駅前",
    "stop": "八下中学校前",
    "passTime": "17:42",
    "vehicleType": "南海バス",
    "updateTime": "2026/07/20 17:42"
  },
  {
    "vehicleNum": "080703",
    "vehicleCd": "219",
    "vehicleCorpCd": "1",
    "running": true,
    "lat": 34.585389,
    "lon": 135.490889,
    "route": "河内天美駅前→天美我堂→堺東駅前",
    "stop": "香ヶ丘",
    "passTime": "17:41",
    "vehicleType": "南海バス(車椅子・ベビーカー・ノンステップ)",
    "updateTime": "2026/07/20 17:42"
  },
  {
    "vehicleNum": "080698",
    "vehicleCd": "531",
    "vehicleCorpCd": "1",
    "running": true,
    "lat": 34.601389,
    "lon": 135.451083,
    "route": "堺東駅前→材木町→堺駅西口",
    "stop": "堺浜北",
    "passTime": "17:42",
    "vehicleType": "南海バス",
    "updateTime": "2026/07/20 17:42"
  },
  {
    "vehicleNum": "080709",
    "vehicleCd": "5",
    "vehicleCorpCd": "2",
    "running": true,
    "lat": 34.381278,
    "lon": 135.266278,
    "route": "イオンモール→ワシントンホテル→イオンモールりんくう泉南",
    "stop": "イオンモールりんくう泉南",
    "passTime": "17:40",
    "vehicleType": "南海ウイングバス(車椅子・ベビーカー・ノンステップ)",
    "updateTime": "2026/07/20 17:42"
  },
  {
    "vehicleNum": "080711",
    "vehicleCd": "79",
    "vehicleCorpCd": "2",
    "running": true,
    "lat": 34.382083,
    "lon": 135.3355,
    "route": "泉佐野駅前→野々地蔵北→日根野駅前→犬鳴山",
    "stop": "西上",
    "passTime": "17:42",
    "vehicleType": "南海ウイングバス(車椅子・ベビーカー・ノンステップ)",
    "updateTime": "2026/07/20 17:42"
  },
  {
    "vehicleNum": "080734",
    "vehicleCd": "415",
    "vehicleCorpCd": "1",
    "running": true,
    "lat": 34.542778,
    "lon": 135.5265,
    "route": "美原区役所→初芝駅前→美原区役所",
    "stop": "初芝駅前",
    "passTime": "17:42",
    "vehicleType": "南海バス",
    "updateTime": "2026/07/20 17:42"
  },
  {
    "vehicleNum": "080740",
    "vehicleCd": "181",
    "vehicleCorpCd": "1",
    "running": true,
    "lat": 34.509278,
    "lon": 135.512778,
    "route": "あみだ池→深井駅→もず駅前→堺東駅前",
    "stop": "田園東",
    "passTime": "17:42",
    "vehicleType": "南海バス(車椅子・ベビーカー・ノンステップ)",
    "updateTime": "2026/07/20 17:42"
  },
  {
    "vehicleNum": "080748",
    "vehicleCd": "218",
    "vehicleCorpCd": "1",
    "running": true,
    "lat": 34.580278,
    "lon": 135.464778,
    "route": "堺駅南口→堺駅前",
    "stop": "大浜中町",
    "passTime": "17:40",
    "vehicleType": "南海バス(車椅子・ベビーカー・ノンステップ)",
    "updateTime": "2026/07/20 17:42"
  },
  {
    "vehicleNum": "080757",
    "vehicleCd": "182",
    "vehicleCorpCd": "1",
    "running": true,
    "lat": 34.503889,
    "lon": 135.582583,
    "route": "金剛駅前→向陽・藤沢回り→金剛駅前",
    "stop": "富田林病院前",
    "passTime": "17:42",
    "vehicleType": "南海バス(車椅子・ベビーカー・ノンステップ)",
    "updateTime": "2026/07/20 17:42"
  },
  {
    "vehicleNum": "080758",
    "vehicleCd": "511",
    "vehicleCorpCd": "1",
    "running": true,
    "lat": 34.528583,
    "lon": 135.488194,
    "route": "泉ヶ丘駅→深阪→津久野駅前",
    "stop": "八田荘団地",
    "passTime": "17:41",
    "vehicleType": "南海バス(車椅子・ベビーカー・ノンステップ)",
    "updateTime": "2026/07/20 17:42"
  },
  {
    "vehicleNum": "080760",
    "vehicleCd": "559",
    "vehicleCorpCd": "1",
    "running": true,
    "lat": 34.566278,
    "lon": 135.496278,
    "route": "地下鉄新金岡駅前→堺駅南口",
    "stop": "向陵中町",
    "passTime": "17:41",
    "vehicleType": "南海バス(車椅子・ベビーカー・ノンステップ)",
    "updateTime": "2026/07/20 17:42"
  },
  {
    "vehicleNum": "080763",
    "vehicleCd": "562",
    "vehicleCorpCd": "1",
    "running": true,
    "lat": 34.535694,
    "lon": 135.487583,
    "route": "堺東駅前→上野芝→泉ヶ丘駅",
    "stop": "中深井北",
    "passTime": "17:42",
    "vehicleType": "南海バス(車椅子・ベビーカー・ノンステップ)",
    "updateTime": "2026/07/20 17:42"
  },
  {
    "vehicleNum": "080764",
    "vehicleCd": "563",
    "vehicleCorpCd": "1",
    "running": true,
    "lat": 34.499194,
    "lon": 135.507889,
    "route": "泉ヶ丘駅→宮山台中学校前→堺東駅前",
    "stop": "竹城台２丁",
    "passTime": "17:42",
    "vehicleType": "南海バス(車椅子・ベビーカー・ノンステップ)",
    "updateTime": "2026/07/20 17:42"
  },
  {
    "vehicleNum": "080767",
    "vehicleCd": "566",
    "vehicleCorpCd": "1",
    "running": true,
    "lat": 34.556083,
    "lon": 135.507889,
    "route": "初芝駅前→平尾→中もず駅前",
    "stop": "蟻ヶ池",
    "passTime": "17:41",
    "vehicleType": "南海バス(車椅子・ベビーカー・ノンステップ)",
    "updateTime": "2026/07/20 17:42"
  },
  {
    "vehicleNum": "080790",
    "vehicleCd": "106",
    "vehicleCorpCd": "1",
    "running": true,
    "lat": 34.585083,
    "lon": 135.469278,
    "route": "海浜匠町→匠町→堺駅西口→堺東駅前→阪和堺市駅前",
    "stop": "戎島",
    "passTime": "17:41",
    "vehicleType": "南海バス(車椅子・ベビーカー・ノンステップ)",
    "updateTime": "2026/07/20 17:42"
  },
  {
    "vehicleNum": "080795",
    "vehicleCd": "43",
    "vehicleCorpCd": "1",
    "running": true,
    "lat": 34.586,
    "lon": 135.4875,
    "route": "堺東駅前→錦綾町→河内天美駅前",
    "stop": "錦綾町",
    "passTime": "17:40",
    "vehicleType": "南海バス(車椅子・ベビーカー・ノンステップ)",
    "updateTime": "2026/07/20 17:42"
  },
  {
    "vehicleNum": "080798",
    "vehicleCd": "107",
    "vehicleCorpCd": "1",
    "running": true,
    "lat": 34.575778,
    "lon": 135.496778,
    "route": "河内松原駅前→阪和堺市駅前→堺駅前",
    "stop": "阪和堺市駅筋",
    "passTime": "17:41",
    "vehicleType": "南海バス(車椅子・ベビーカー・ノンステップ)",
    "updateTime": "2026/07/20 17:42"
  },
  {
    "vehicleNum": "080806",
    "vehicleCd": "307",
    "vehicleCorpCd": "1",
    "running": true,
    "lat": 34.566083,
    "lon": 135.5015,
    "route": "堺駅南口→地下鉄新金岡駅前",
    "stop": "黒土口",
    "passTime": "17:42",
    "vehicleType": "南海バス(車椅子・ベビーカー・ノンステップ)",
    "updateTime": "2026/07/20 17:42"
  },
  {
    "vehicleNum": "080800",
    "vehicleCd": "304",
    "vehicleCorpCd": "1",
    "running": true,
    "lat": 34.602694,
    "lon": 135.458083,
    "route": "匠町→住之江公園駅前→匠町",
    "stop": "堺浜北",
    "passTime": "17:40",
    "vehicleType": "南海バス(車椅子・ベビーカー・ノンステップ)",
    "updateTime": "2026/07/20 17:42"
  },
  {
    "vehicleNum": "080809",
    "vehicleCd": "215",
    "vehicleCorpCd": "1",
    "running": true,
    "lat": 34.576889,
    "lon": 135.4975,
    "route": "堺駅前→堺東駅前→河内松原駅前",
    "stop": "田出井町",
    "passTime": "17:39",
    "vehicleType": "南海バス(車椅子・ベビーカー・ノンステップ)",
    "updateTime": "2026/07/20 17:42"
  },
  {
    "vehicleNum": "080814",
    "vehicleCd": "193",
    "vehicleCorpCd": "1",
    "running": true,
    "lat": 34.494583,
    "lon": 135.505889,
    "route": "泉ヶ丘駅→泉北２号線→津久野駅前",
    "stop": "竹城台３丁",
    "passTime": "17:42",
    "vehicleType": "南海バス(車椅子・ベビーカー・ノンステップ)",
    "updateTime": "2026/07/20 17:42"
  },
  {
    "vehicleNum": "080815",
    "vehicleCd": "575",
    "vehicleCorpCd": "1",
    "running": true,
    "lat": 34.485194,
    "lon": 135.530194,
    "route": "泉ヶ丘駅→帝塚山学院泉ヶ丘校前→金剛駅前",
    "stop": "槙塚台３丁",
    "passTime": "17:42",
    "vehicleType": "南海バス(車椅子・ベビーカー・ノンステップ)",
    "updateTime": "2026/07/20 17:42"
  },
  {
    "vehicleNum": "080822",
    "vehicleCd": "576",
    "vehicleCorpCd": "1",
    "running": true,
    "lat": 34.554583,
    "lon": 135.469583,
    "route": "堺東駅前→堀上緑町１丁→堺東駅前",
    "stop": "南陵通１丁",
    "passTime": "17:42",
    "vehicleType": "南海バス(車椅子・ベビーカー・ノンステップ)",
    "updateTime": "2026/07/20 17:42"
  },
  {
    "vehicleNum": "080826",
    "vehicleCd": "152",
    "vehicleCorpCd": "1",
    "running": true,
    "lat": 34.542778,
    "lon": 135.526278,
    "route": "初芝駅前→平尾→初芝駅前",
    "stop": "初芝駅前",
    "passTime": "17:42",
    "vehicleType": "南海バス(車椅子・ベビーカー・ノンステップ)",
    "updateTime": "2026/07/20 17:42"
  },
  {
    "vehicleNum": "080827",
    "vehicleCd": "317",
    "vehicleCorpCd": "1",
    "running": true,
    "lat": 34.5385,
    "lon": 135.542389,
    "route": "中もず駅前→初芝駅前→船戸下→美原区役所前",
    "stop": "余部西口",
    "passTime": "17:40",
    "vehicleType": "南海バス(車椅子・ベビーカー・ノンステップ)",
    "updateTime": "2026/07/20 17:42"
  },
  {
    "vehicleNum": "080836",
    "vehicleCd": "268",
    "vehicleCorpCd": "1",
    "running": true,
    "lat": 34.603889,
    "lon": 135.475389,
    "route": "Ｊグリーン堺クラブハウス前→住之江公園駅前",
    "stop": "松屋大和川通３丁",
    "passTime": "17:39",
    "vehicleType": "南海バス(車椅子・ベビーカー・ノンステップ)",
    "updateTime": "2026/07/20 17:42"
  },
  {
    "vehicleNum": "080838",
    "vehicleCd": "129",
    "vehicleCorpCd": "1",
    "running": true,
    "lat": 34.539694,
    "lon": 135.538278,
    "route": "美原区役所前→船戸下→初芝駅前→中もず駅前",
    "stop": "原寺",
    "passTime": "17:41",
    "vehicleType": "南海バス(車椅子・ベビーカー・ノンステップ)",
    "updateTime": "2026/07/20 17:42"
  },
  {
    "vehicleNum": "080846",
    "vehicleCd": "224",
    "vehicleCorpCd": "1",
    "running": true,
    "lat": 34.496083,
    "lon": 135.581389,
    "route": "金剛駅前→高辺台小学校前→金剛駅前",
    "stop": "小金台２丁目南",
    "passTime": "17:42",
    "vehicleType": "南海バス(車椅子・ベビーカー・ノンステップ)",
    "updateTime": "2026/07/20 17:42"
  },
  {
    "vehicleNum": "080865",
    "vehicleCd": "504",
    "vehicleCorpCd": "1",
    "running": true,
    "lat": 34.599278,
    "lon": 135.469,
    "route": "堺駅西口→錦綾町→堺東駅前",
    "stop": "松屋大和川通３丁",
    "passTime": "17:42",
    "vehicleType": "南海バス(車椅子・ベビーカー・ノンステップ)",
    "updateTime": "2026/07/20 17:42"
  },
  {
    "vehicleNum": "080867",
    "vehicleCd": "364",
    "vehicleCorpCd": "1",
    "running": true,
    "lat": 34.485083,
    "lon": 135.525083,
    "route": "金剛駅前→帝塚山学院泉ヶ丘校前→泉ヶ丘駅前",
    "stop": "槙塚台１丁",
    "passTime": "17:42",
    "vehicleType": "南海バス(車椅子・ベビーカー・ノンステップ)",
    "updateTime": "2026/07/20 17:42"
  },
  {
    "vehicleNum": "080869",
    "vehicleCd": "316",
    "vehicleCorpCd": "1",
    "running": true,
    "lat": 34.4975,
    "lon": 135.518694,
    "route": "泉ヶ丘駅→スマ・エコタウン晴美台→高倉台左回り→泉ヶ丘駅",
    "stop": "泉ヶ丘駅（南側）",
    "passTime": "17:40",
    "vehicleType": "南海バス(車椅子・ベビーカー・ノンステップ)",
    "updateTime": "2026/07/20 17:42"
  },
  {
    "vehicleNum": "080870",
    "vehicleCd": "153",
    "vehicleCorpCd": "1",
    "running": true,
    "lat": 34.5785,
    "lon": 135.474583,
    "route": "堺東駅前→大小路→堺駅前",
    "stop": "大小路",
    "passTime": "17:42",
    "vehicleType": "南海バス(車椅子・ベビーカー・ノンステップ)",
    "updateTime": "2026/07/20 17:42"
  },
  {
    "vehicleNum": "080878",
    "vehicleCd": "368",
    "vehicleCorpCd": "1",
    "running": true,
    "lat": 34.5495,
    "lon": 135.507,
    "route": "堺駅南口→福町→北野田駅前",
    "stop": "府立大学前",
    "passTime": "17:42",
    "vehicleType": "南海バス(車椅子・ベビーカー・ノンステップ)",
    "updateTime": "2026/07/20 17:42"
  },
  {
    "vehicleNum": "080883",
    "vehicleCd": "361",
    "vehicleCorpCd": "1",
    "running": true,
    "lat": 34.539083,
    "lon": 135.470583,
    "route": "津久野駅前→堺市立総合医療センター前→泉北２号線→泉ヶ丘駅",
    "stop": "堺市立総合医療センター前",
    "passTime": "17:42",
    "vehicleType": "南海バス(車椅子・ベビーカー・ノンステップ)",
    "updateTime": "2026/07/20 17:42"
  },
  {
    "vehicleNum": "080894",
    "vehicleCd": "350",
    "vehicleCorpCd": "1",
    "running": true,
    "lat": 34.559694,
    "lon": 135.526583,
    "route": "地下鉄新金岡駅前→野遠→美原区役所",
    "stop": "大泉緑地前",
    "passTime": "17:42",
    "vehicleType": "南海バス(車椅子・ベビーカー・ノンステップ)",
    "updateTime": "2026/07/20 17:42"
  },
  {
    "vehicleNum": "080895",
    "vehicleCd": "167",
    "vehicleCorpCd": "1",
    "running": true,
    "lat": 34.544389,
    "lon": 135.553694,
    "route": "美原区役所→野遠→地下鉄新金岡駅前",
    "stop": "下黒山西",
    "passTime": "17:39",
    "vehicleType": "南海バス(車椅子・ベビーカー・ノンステップ)",
    "updateTime": "2026/07/20 17:42"
  },
  {
    "vehicleNum": "080907",
    "vehicleCd": "499",
    "vehicleCorpCd": "1",
    "running": true,
    "lat": 34.477389,
    "lon": 135.5205,
    "route": "畑→片蔵→泉ヶ丘駅",
    "stop": "釜室南",
    "passTime": "17:42",
    "vehicleType": "南海バス(車椅子・ベビーカー・ノンステップ)",
    "updateTime": "2026/07/20 17:42"
  },
  {
    "vehicleNum": "080913",
    "vehicleCd": "128",
    "vehicleCorpCd": "1",
    "running": true,
    "lat": 34.554,
    "lon": 135.512472,
    "route": "堺東駅前→白鷺駅前→堺東駅前（循環）",
    "stop": "白鷺駅前",
    "passTime": "17:40",
    "vehicleType": "南海バス(車椅子・ベビーカー・ノンステップ)",
    "updateTime": "2026/07/20 17:42"
  },
  {
    "vehicleNum": "080912",
    "vehicleCd": "372",
    "vehicleCorpCd": "1",
    "running": true,
    "lat": 34.569472,
    "lon": 135.466083,
    "route": "堺駅前→堺駅南口",
    "stop": "山ノ口橋",
    "passTime": "17:40",
    "vehicleType": "南海バス(車椅子・ベビーカー・ノンステップ)",
    "updateTime": "2026/07/20 17:42"
  },
  {
    "vehicleNum": "080917",
    "vehicleCd": "70",
    "vehicleCorpCd": "1",
    "running": true,
    "lat": 34.537389,
    "lon": 135.4725,
    "route": "津久野駅前→堺市立総合医療センター前→八田荘団地→泉ヶ丘駅",
    "stop": "堺市立総合医療センター前",
    "passTime": "17:40",
    "vehicleType": "南海バス(車椅子・ベビーカー・ノンステップ)",
    "updateTime": "2026/07/20 17:42"
  },
  {
    "vehicleNum": "080978",
    "vehicleCd": "431",
    "vehicleCorpCd": "1",
    "running": true,
    "lat": 34.566583,
    "lon": 135.490694,
    "route": "堺駅南口→三国ヶ丘駅前→北野田駅前",
    "stop": "永山園",
    "passTime": "17:39",
    "vehicleType": "南海バス(車椅子・ベビーカー・ノンステップ)",
    "updateTime": "2026/07/20 17:42"
  },
  {
    "vehicleNum": "080995",
    "vehicleCd": "118",
    "vehicleCorpCd": "1",
    "running": true,
    "lat": 34.4685,
    "lon": 135.501583,
    "route": "泉ヶ丘駅→庭代台右回り→栂・美木多駅",
    "stop": "庭代台中学校前",
    "passTime": "17:42",
    "vehicleType": "南海バス(車椅子・ベビーカー・ノンステップ)",
    "updateTime": "2026/07/20 17:42"
  },
  {
    "vehicleNum": "080994",
    "vehicleCd": "130",
    "vehicleCorpCd": "1",
    "running": true,
    "lat": 34.462889,
    "lon": 135.506389,
    "route": "栂・美木多駅→御池台回り→栂・美木多駅",
    "stop": "御池台４丁",
    "passTime": "17:42",
    "vehicleType": "南海バス(車椅子・ベビーカー・ノンステップ)",
    "updateTime": "2026/07/20 17:42"
  },
  {
    "vehicleNum": "081001",
    "vehicleCd": "238",
    "vehicleCorpCd": "1",
    "running": true,
    "lat": 34.569583,
    "lon": 135.480778,
    "route": "堺東駅前→もず駅前→深井駅→あみだ池",
    "stop": "一条通",
    "passTime": "17:42",
    "vehicleType": "南海バス(車椅子・ベビーカー・ノンステップ)",
    "updateTime": "2026/07/20 17:42"
  },
  {
    "vehicleNum": "081003",
    "vehicleCd": "610",
    "vehicleCorpCd": "1",
    "running": true,
    "lat": 34.562194,
    "lon": 135.4745,
    "route": "東山車庫前→小阪→堺東駅前",
    "stop": "旭ヶ丘北町",
    "passTime": "17:41",
    "vehicleType": "南海バス(車椅子・ベビーカー・ノンステップ)",
    "updateTime": "2026/07/20 17:42"
  },
  {
    "vehicleNum": "081007",
    "vehicleCd": "127",
    "vehicleCorpCd": "1",
    "running": true,
    "lat": 34.571278,
    "lon": 135.482194,
    "route": "堺東駅前→上野芝→泉ヶ丘駅",
    "stop": "堺東駅前",
    "passTime": "17:40",
    "vehicleType": "南海バス(車椅子・ベビーカー・ノンステップ)",
    "updateTime": "2026/07/20 17:42"
  },
  {
    "vehicleNum": "081006",
    "vehicleCd": "54",
    "vehicleCorpCd": "1",
    "running": true,
    "lat": 34.523778,
    "lon": 135.541889,
    "route": "北野田駅前→西口園→堺駅南口",
    "stop": "北野田駅前",
    "passTime": "17:40",
    "vehicleType": "南海バス(車椅子・ベビーカー・ノンステップ)",
    "updateTime": "2026/07/20 17:42"
  },
  {
    "vehicleNum": "081013",
    "vehicleCd": "554",
    "vehicleCorpCd": "1",
    "running": true,
    "lat": 34.576194,
    "lon": 135.471,
    "route": "北野田駅前→西口園→堺駅南口",
    "stop": "宿院",
    "passTime": "17:42",
    "vehicleType": "南海バス(車椅子・ベビーカー・ノンステップ)",
    "updateTime": "2026/07/20 17:42"
  },
  {
    "vehicleNum": "081020",
    "vehicleCd": "163",
    "vehicleCorpCd": "1",
    "running": true,
    "lat": 34.552278,
    "lon": 135.503778,
    "route": "北野田駅前→福町→堺駅南口",
    "stop": "府立大学前",
    "passTime": "17:41",
    "vehicleType": "南海バス(車椅子・ベビーカー・ノンステップ)",
    "updateTime": "2026/07/20 17:42"
  },
  {
    "vehicleNum": "081034",
    "vehicleCd": "120",
    "vehicleCorpCd": "1",
    "running": true,
    "lat": 34.497583,
    "lon": 135.52,
    "route": "泉ヶ丘駅→スマ・エコタウン晴美台→高倉台左回り→泉ヶ丘駅",
    "stop": "三原台中学校前",
    "passTime": "17:41",
    "vehicleType": "南海バス(車椅子・ベビーカー・ノンステップ)",
    "updateTime": "2026/07/20 17:42"
  },
  {
    "vehicleNum": "081021",
    "vehicleCd": "243",
    "vehicleCorpCd": "1",
    "running": true,
    "lat": 34.536694,
    "lon": 135.547083,
    "route": "初芝駅前→平尾→初芝駅前",
    "stop": "北余部",
    "passTime": "17:41",
    "vehicleType": "南海バス(車椅子・ベビーカー・ノンステップ)",
    "updateTime": "2026/07/20 17:42"
  },
  {
    "vehicleNum": "081014",
    "vehicleCd": "229",
    "vehicleCorpCd": "1",
    "running": true,
    "lat": 34.530778,
    "lon": 135.525083,
    "route": "堺駅南口→三国ヶ丘駅前→北野田駅前",
    "stop": "西口園",
    "passTime": "17:42",
    "vehicleType": "南海バス(車椅子・ベビーカー・ノンステップ)",
    "updateTime": "2026/07/20 17:42"
  },
  {
    "vehicleNum": "081035",
    "vehicleCd": "491",
    "vehicleCorpCd": "1",
    "running": true,
    "lat": 34.477083,
    "lon": 135.548389,
    "route": "泉ヶ丘駅→狭山ニュータウンセンター→金剛駅前",
    "stop": "大野台４丁目東",
    "passTime": "17:42",
    "vehicleType": "南海バス(車椅子・ベビーカー・ノンステップ)",
    "updateTime": "2026/07/20 17:42"
  },
  {
    "vehicleNum": "081041",
    "vehicleCd": "611",
    "vehicleCorpCd": "1",
    "running": true,
    "lat": 34.454083,
    "lon": 135.505,
    "route": "ハーベストの丘→別所→泉ヶ丘駅",
    "stop": "御池台南",
    "passTime": "17:42",
    "vehicleType": "南海バス(車椅子・ベビーカー・ノンステップ)",
    "updateTime": "2026/07/20 17:42"
  },
  {
    "vehicleNum": "081044",
    "vehicleCd": "132",
    "vehicleCorpCd": "1",
    "running": true,
    "lat": 34.493389,
    "lon": 135.518778,
    "route": "泉ヶ丘駅→狭山ニュータウンセンター→金剛駅前",
    "stop": "茶山台２丁",
    "passTime": "17:42",
    "vehicleType": "南海バス(車椅子・ベビーカー・ノンステップ)",
    "updateTime": "2026/07/20 17:42"
  },
  {
    "vehicleNum": "081036",
    "vehicleCd": "293",
    "vehicleCorpCd": "1",
    "running": true,
    "lat": 34.490389,
    "lon": 135.512472,
    "route": "泉ヶ丘駅→鉢ヶ峯→泉ヶ丘駅",
    "stop": "茶山台",
    "passTime": "17:42",
    "vehicleType": "南海バス(車椅子・ベビーカー・ノンステップ)",
    "updateTime": "2026/07/20 17:42"
  },
  {
    "vehicleNum": "090103",
    "vehicleCd": "49",
    "vehicleCorpCd": "2",
    "running": true,
    "lat": 34.442194,
    "lon": 135.393472,
    "route": "岸和田駅前→天神山・一の宮循環　左回り→岸和田駅前",
    "stop": "東土生",
    "passTime": "17:42",
    "vehicleType": "南海ウイングバス(車椅子・ベビーカー・ワンステップ)",
    "updateTime": "2026/07/20 17:42"
  },
  {
    "vehicleNum": "090104",
    "vehicleCd": "53",
    "vehicleCorpCd": "2",
    "running": true,
    "lat": 34.412972,
    "lon": 135.438778,
    "route": "牛滝温泉→内畑→岸和田駅前",
    "stop": "内畑",
    "passTime": "17:42",
    "vehicleType": "南海ウイングバス(車椅子・ベビーカー・ワンステップ)",
    "updateTime": "2026/07/20 17:42"
  },
  {
    "vehicleNum": "091243",
    "vehicleCd": "13",
    "vehicleCorpCd": "2",
    "running": true,
    "lat": 34.394083,
    "lon": 135.347,
    "route": "泉佐野駅前→ダンバラ公園前→熊取駅前→つばさが丘北口",
    "stop": "中ノ池北",
    "passTime": "17:41",
    "vehicleType": "南海ウイングバス(車椅子・ワンステップ)",
    "updateTime": "2026/07/20 17:42"
  },
  {
    "vehicleNum": "091596",
    "vehicleCd": "200",
    "vehicleCorpCd": "1",
    "running": true,
    "lat": 34.436194,
    "lon": 135.245083,
    "route": "ポートターミナル→第２ターミナル",
    "stop": "ポートターミナル",
    "passTime": "17:36",
    "vehicleType": "南海バス(車椅子・ノンステップ)",
    "updateTime": "2026/07/20 17:42"
  },
  {
    "vehicleNum": "091600",
    "vehicleCd": "201",
    "vehicleCorpCd": "1",
    "running": true,
    "lat": 34.4255,
    "lon": 135.231083,
    "route": "空港駅→国際循環→空港駅",
    "stop": "第2代理店ビル前",
    "passTime": "17:41",
    "vehicleType": "南海バス(車椅子・ノンステップ)",
    "updateTime": "2026/07/20 17:42"
  },
  {
    "vehicleNum": "091736",
    "vehicleCd": "65",
    "vehicleCorpCd": "2",
    "running": true,
    "lat": 34.428889,
    "lon": 135.439194,
    "route": "岸和田駅前→内畑→白原車庫",
    "stop": "上稲葉",
    "passTime": "17:42",
    "vehicleType": "南海ウイングバス(車椅子・ワンステップ)",
    "updateTime": "2026/07/20 17:42"
  },
  {
    "vehicleNum": "091744",
    "vehicleCd": "148",
    "vehicleCorpCd": "2",
    "running": true,
    "lat": 34.4625,
    "lon": 135.379778,
    "route": "岸和田駅前→荒木町→和泉中央駅",
    "stop": "沼町",
    "passTime": "17:42",
    "vehicleType": "南海ウイングバス(車椅子・ベビーカー・ワンステップ)",
    "updateTime": "2026/07/20 17:42"
  },
  {
    "vehicleNum": "091750",
    "vehicleCd": "335",
    "vehicleCorpCd": "1",
    "running": true,
    "lat": 34.422194,
    "lon": 135.5585,
    "route": "大矢船西町→三日市町駅前",
    "stop": "大矢船北町（南花台系統）",
    "passTime": "17:41",
    "vehicleType": "南海バス(車椅子・ベビーカー・ワンステップ)",
    "updateTime": "2026/07/20 17:42"
  },
  {
    "vehicleNum": "091784",
    "vehicleCd": "119",
    "vehicleCorpCd": "2",
    "running": true,
    "lat": 34.392694,
    "lon": 135.333083,
    "route": "熊取町　青葉台方面循環コース",
    "stop": "青葉台南",
    "passTime": "17:38",
    "vehicleType": "熊取町コミュニティバス(ジャンプ君号)",
    "updateTime": "2026/07/20 17:42"
  },
  {
    "vehicleNum": "091785",
    "vehicleCd": "120",
    "vehicleCorpCd": "2",
    "running": true,
    "lat": 34.381389,
    "lon": 135.354583,
    "route": "熊取町　つばさが丘循環コース",
    "stop": "関空国際口",
    "passTime": "17:42",
    "vehicleType": "熊取町コミュニティバス(メジーナちゃん号)",
    "updateTime": "2026/07/20 17:42"
  },
  {
    "vehicleNum": "091894",
    "vehicleCd": "3",
    "vehicleCorpCd": "2",
    "running": true,
    "lat": 34.375194,
    "lon": 135.299778,
    "route": "泉南市コミュニティバス 一丘Ａ回り",
    "stop": "新家東和苑",
    "passTime": "17:39",
    "vehicleType": "泉南市コミュニティバス(紫)",
    "updateTime": "2026/07/20 17:42"
  },
  {
    "vehicleNum": "091910",
    "vehicleCd": "441",
    "vehicleCorpCd": "1",
    "running": true,
    "lat": 34.438083,
    "lon": 135.232778,
    "route": "エアロプラザ→第２ターミナル(国内線・国際線)→エアロプラザ",
    "stop": "第2ターミナル国内線",
    "passTime": "17:42",
    "vehicleType": "南海バス(車椅子・ノンステップ)",
    "updateTime": "2026/07/20 17:42"
  },
  {
    "vehicleNum": "092044",
    "vehicleCd": "462",
    "vehicleCorpCd": "1",
    "running": true,
    "lat": 34.454278,
    "lon": 135.563194,
    "route": "ﾓｯｸﾙ 美加～木戸東町～美加",
    "stop": "河内長野警察署前",
    "passTime": "17:41",
    "vehicleType": "南海バス(車椅子・ベビーカー・ノンステップ)",
    "updateTime": "2026/07/20 17:42"
  },
  {
    "vehicleNum": "092045",
    "vehicleCd": "463",
    "vehicleCorpCd": "1",
    "running": true,
    "lat": 34.450583,
    "lon": 135.572694,
    "route": "ﾓｯｸﾙ 美加～木戸東町～美加",
    "stop": "ラブリーホール前",
    "passTime": "17:39",
    "vehicleType": "南海バス(車椅子・ベビーカー・ノンステップ)",
    "updateTime": "2026/07/20 17:42"
  },
  {
    "vehicleNum": "092153",
    "vehicleCd": "529",
    "vehicleCorpCd": "1",
    "running": true,
    "lat": 34.432583,
    "lon": 135.2355,
    "route": "エアロプラザ→第２ターミナル(国内線・国際線)→エアロプラザ",
    "stop": "エアロプラザ",
    "passTime": "17:40",
    "vehicleType": "南海バス",
    "updateTime": "2026/07/20 17:42"
  },
  {
    "vehicleNum": "092204",
    "vehicleCd": "416",
    "vehicleCorpCd": "1",
    "running": true,
    "lat": 34.449889,
    "lon": 135.5585,
    "route": "長野→天野山→旭",
    "stop": "野作",
    "passTime": "17:41",
    "vehicleType": "南海バス",
    "updateTime": "2026/07/20 17:42"
  },
  {
    "vehicleNum": "092205",
    "vehicleCd": "25",
    "vehicleCorpCd": "1",
    "running": true,
    "lat": 34.442583,
    "lon": 135.5495,
    "route": "旭ヶ丘→水落→河内長野駅前",
    "stop": "水落",
    "passTime": "17:42",
    "vehicleType": "南海バス(車椅子・ベビーカー・ノンステップ)",
    "updateTime": "2026/07/20 17:42"
  },
  {
    "vehicleNum": "092383",
    "vehicleCd": "44",
    "vehicleCorpCd": "1",
    "running": true,
    "lat": 34.482194,
    "lon": 135.433389,
    "route": "光明池駅→光明池車庫→和泉中央駅→泉大津駅前",
    "stop": "桑原",
    "passTime": "17:42",
    "vehicleType": "南海バス(車椅子・ベビーカー・ワンステップ)",
    "updateTime": "2026/07/20 17:42"
  },
  {
    "vehicleNum": "092373",
    "vehicleCd": "553",
    "vehicleCorpCd": "1",
    "running": true,
    "lat": 34.497778,
    "lon": 135.452194,
    "route": "北信太駅筋→鶴山台団地→北信太駅筋",
    "stop": "鶴山台四丁目",
    "passTime": "17:42",
    "vehicleType": "南海バス(車椅子・ベビーカー・ノンステップ)",
    "updateTime": "2026/07/20 17:43"
  },
  {
    "vehicleNum": "092382",
    "vehicleCd": "556",
    "vehicleCorpCd": "1",
    "running": true,
    "lat": 34.478278,
    "lon": 135.4675,
    "route": "堺東駅前→鳳駅前→光明池駅",
    "stop": "下伏屋",
    "passTime": "17:40",
    "vehicleType": "南海バス(車椅子・ベビーカー・ノンステップ)",
    "updateTime": "2026/07/20 17:43"
  },
  {
    "vehicleNum": "092454",
    "vehicleCd": "125",
    "vehicleCorpCd": "2",
    "running": true,
    "lat": 34.381194,
    "lon": 135.266389,
    "route": "泉南市コミュニティバス 南Ａ回り",
    "stop": "イオンモールりんくう泉南",
    "passTime": "17:40",
    "vehicleType": "泉南市コミュニティバス(橙)",
    "updateTime": "2026/07/20 17:43"
  },
  {
    "vehicleNum": "092467",
    "vehicleCd": "50",
    "vehicleCorpCd": "1",
    "running": true,
    "lat": 34.446778,
    "lon": 135.578194,
    "route": "河内長野駅前→河合寺→小吹台",
    "stop": "河合寺",
    "passTime": "17:42",
    "vehicleType": "南海バス(車椅子・ベビーカー・ノンステップ)",
    "updateTime": "2026/07/20 17:43"
  },
  {
    "vehicleNum": "092498",
    "vehicleCd": "8",
    "vehicleCorpCd": "1",
    "running": true,
    "lat": 34.544889,
    "lon": 135.463389,
    "route": "堺東駅前→鳳駅前→栂・美木多駅",
    "stop": "下田",
    "passTime": "17:42",
    "vehicleType": "南海バス(車椅子・ベビーカー・ノンステップ)",
    "updateTime": "2026/07/20 17:43"
  },
  {
    "vehicleNum": "092577",
    "vehicleCd": "578",
    "vehicleCorpCd": "1",
    "running": true,
    "lat": 34.468194,
    "lon": 135.565472,
    "route": "千代田駅前→赤峯→荘園町",
    "stop": "千代田駅前",
    "passTime": "17:39",
    "vehicleType": "南海バス(車椅子・ベビーカー・ノンステップ)",
    "updateTime": "2026/07/20 17:43"
  },
  {
    "vehicleNum": "092580",
    "vehicleCd": "377",
    "vehicleCorpCd": "1",
    "running": true,
    "lat": 34.481278,
    "lon": 135.423583,
    "route": "和泉中央駅→寺田→和泉府中駅前",
    "stop": "柳田",
    "passTime": "17:40",
    "vehicleType": "南海バス(車椅子・ベビーカー・ノンステップ)",
    "updateTime": "2026/07/20 17:43"
  },
  {
    "vehicleNum": "092587",
    "vehicleCd": "124",
    "vehicleCorpCd": "1",
    "running": true,
    "lat": 34.428889,
    "lon": 135.546389,
    "route": "滝畑ダム→河内長野駅前",
    "stop": "汐滝橋",
    "passTime": "17:41",
    "vehicleType": "南海バス(車椅子・ベビーカー・ノンステップ)",
    "updateTime": "2026/07/20 17:43"
  },
  {
    "vehicleNum": "092595",
    "vehicleCd": "326",
    "vehicleCorpCd": "1",
    "running": true,
    "lat": 34.436778,
    "lon": 135.5685,
    "route": "三日市町駅前→南花台１丁目北→南ヶ丘",
    "stop": "三日市町駅前",
    "passTime": "17:39",
    "vehicleType": "南海バス(車椅子・ベビーカー・ノンステップ)",
    "updateTime": "2026/07/20 17:43"
  },
  {
    "vehicleNum": "092648",
    "vehicleCd": "486",
    "vehicleCorpCd": "1",
    "running": true,
    "lat": 34.436278,
    "lon": 135.580083,
    "route": "三日市町駅前→清見台回り→三日市町駅前",
    "stop": "清見台１丁目",
    "passTime": "17:42",
    "vehicleType": "南海バス(車椅子・ベビーカー・ノンステップ)",
    "updateTime": "2026/07/20 17:43"
  },
  {
    "vehicleNum": "092653",
    "vehicleCd": "357",
    "vehicleCorpCd": "1",
    "running": true,
    "lat": 34.424389,
    "lon": 135.578194,
    "route": "美加の台駅前→美加の台口→美加の台駅前",
    "stop": "美加の台駅前",
    "passTime": "17:41",
    "vehicleType": "南海バス(車椅子・ベビーカー・ノンステップ)",
    "updateTime": "2026/07/20 17:43"
  },
  {
    "vehicleNum": "092711",
    "vehicleCd": "355",
    "vehicleCorpCd": "1",
    "running": true,
    "lat": 34.459278,
    "lon": 135.473778,
    "route": "和泉中央駅→和泉青葉台",
    "stop": "和泉和田",
    "passTime": "17:41",
    "vehicleType": "南海バス(車椅子・ベビーカー・ノンステップ)",
    "updateTime": "2026/07/20 17:43"
  },
  {
    "vehicleNum": "092762",
    "vehicleCd": "570",
    "vehicleCorpCd": "1",
    "running": true,
    "lat": 34.532889,
    "lon": 135.461278,
    "route": "堺東駅前→鳳駅前→光明池駅",
    "stop": "鳳駅前",
    "passTime": "17:39",
    "vehicleType": "南海バス(車椅子・ベビーカー・ノンステップ)",
    "updateTime": "2026/07/20 17:43"
  },
  {
    "vehicleNum": "092856",
    "vehicleCd": "601",
    "vehicleCorpCd": "1",
    "running": true,
    "lat": 34.463389,
    "lon": 135.455778,
    "route": "和泉府中駅前→いぶき野→和泉中央駅",
    "stop": "いぶき野三丁目",
    "passTime": "17:41",
    "vehicleType": "南海バス(車椅子・ベビーカー・ノンステップ)",
    "updateTime": "2026/07/20 17:43"
  },
  {
    "vehicleNum": "092857",
    "vehicleCd": "516",
    "vehicleCorpCd": "1",
    "running": true,
    "lat": 34.461694,
    "lon": 135.456389,
    "route": "泉大津駅前→和泉府中駅前→和泉中央駅→光明池駅",
    "stop": "和泉中央駅",
    "passTime": "17:39",
    "vehicleType": "南海バス(車椅子・ベビーカー・ノンステップ)",
    "updateTime": "2026/07/20 17:43"
  },
  {
    "vehicleNum": "092830",
    "vehicleCd": "367",
    "vehicleCorpCd": "1",
    "running": true,
    "lat": 34.446694,
    "lon": 135.474083,
    "route": "和泉中央駅→はつが野→和泉青葉台→和泉中央駅（左回り）",
    "stop": "納花",
    "passTime": "17:41",
    "vehicleType": "南海バス(車椅子・ベビーカー・ノンステップ)",
    "updateTime": "2026/07/20 17:43"
  },
  {
    "vehicleNum": "092859",
    "vehicleCd": "32",
    "vehicleCorpCd": "1",
    "running": true,
    "lat": 34.4095,
    "lon": 135.528389,
    "route": "河内長野駅前→滝畑ダム",
    "stop": "サイクルセンター",
    "passTime": "17:41",
    "vehicleType": "南海バス(車椅子・ベビーカー・ノンステップ)",
    "updateTime": "2026/07/20 17:43"
  },
  {
    "vehicleNum": "092871",
    "vehicleCd": "33",
    "vehicleCorpCd": "1",
    "running": true,
    "lat": 34.458389,
    "lon": 135.455972,
    "route": "和泉中央駅→和泉青葉台→はつが野→和泉中央駅（右回り）",
    "stop": "万町弘法寺前",
    "passTime": "17:40",
    "vehicleType": "南海バス(車椅子・ベビーカー・ノンステップ)",
    "updateTime": "2026/07/20 17:43"
  },
  {
    "vehicleNum": "092860",
    "vehicleCd": "379",
    "vehicleCorpCd": "1",
    "running": true,
    "lat": 34.447083,
    "lon": 135.543694,
    "route": "千代→緑→小山田→千代",
    "stop": "緑ヶ丘中町",
    "passTime": "17:42",
    "vehicleType": "南海バス(車椅子・ベビーカー・ノンステップ)",
    "updateTime": "2026/07/20 17:43"
  },
  {
    "vehicleNum": "092873",
    "vehicleCd": "234",
    "vehicleCorpCd": "1",
    "running": true,
    "lat": 34.551889,
    "lon": 135.465083,
    "route": "光明池駅→山田→堺東駅前",
    "stop": "神石橋",
    "passTime": "17:42",
    "vehicleType": "南海バス(車椅子・ベビーカー・ノンステップ)",
    "updateTime": "2026/07/20 17:43"
  },
  {
    "vehicleNum": "092913",
    "vehicleCd": "154",
    "vehicleCorpCd": "1",
    "running": true,
    "lat": 34.532083,
    "lon": 135.459472,
    "route": "国分峠東→栂・美木多駅→堺東駅前",
    "stop": "鳳駅前",
    "passTime": "17:41",
    "vehicleType": "南海バス(車椅子・ベビーカー・ノンステップ)",
    "updateTime": "2026/07/20 17:43"
  },
  {
    "vehicleNum": "092914",
    "vehicleCd": "75",
    "vehicleCorpCd": "1",
    "running": true,
    "lat": 34.462694,
    "lon": 135.4435,
    "route": "泉大津駅前→和泉府中駅前→和泉中央駅",
    "stop": "下箕形",
    "passTime": "17:42",
    "vehicleType": "南海バス(車椅子・ベビーカー・ノンステップ)",
    "updateTime": "2026/07/20 17:43"
  },
  {
    "vehicleNum": "092919",
    "vehicleCd": "230",
    "vehicleCorpCd": "1",
    "running": true,
    "lat": 34.446194,
    "lon": 135.578694,
    "route": "金剛山ﾛｰﾌﾟｳｪｲ前→日東町東口→河内長野駅前",
    "stop": "河合寺",
    "passTime": "17:42",
    "vehicleType": "南海バス(車椅子・ベビーカー・ノンステップ)",
    "updateTime": "2026/07/20 17:43"
  },
  {
    "vehicleNum": "092918",
    "vehicleCd": "114",
    "vehicleCorpCd": "1",
    "running": true,
    "lat": 34.497583,
    "lon": 135.466778,
    "route": "光明池駅→山田→堺東駅前",
    "stop": "北高尾",
    "passTime": "17:42",
    "vehicleType": "南海バス(車椅子・ベビーカー・ノンステップ)",
    "updateTime": "2026/07/20 17:43"
  },
  {
    "vehicleNum": "092936",
    "vehicleCd": "322",
    "vehicleCorpCd": "1",
    "running": true,
    "lat": 34.442194,
    "lon": 135.252194,
    "route": "関空展望ホール→旅客ターミナル",
    "stop": "関空展望ホール",
    "passTime": "17:40",
    "vehicleType": "南海バス(車椅子・ベビーカー・ノンステップ)",
    "updateTime": "2026/07/20 17:43"
  },
  {
    "vehicleNum": "092937",
    "vehicleCd": "73",
    "vehicleCorpCd": "1",
    "running": true,
    "lat": 34.458583,
    "lon": 135.489389,
    "route": "光明池駅→城山台５丁→光明池車庫",
    "stop": "光明台一丁目",
    "passTime": "17:42",
    "vehicleType": "南海バス(車椅子・ベビーカー・ノンステップ)",
    "updateTime": "2026/07/20 17:43"
  },
  {
    "vehicleNum": "092951",
    "vehicleCd": "340",
    "vehicleCorpCd": "1",
    "running": true,
    "lat": 34.491972,
    "lon": 135.472889,
    "route": "光明池駅→新檜尾台センター→光明池駅",
    "stop": "赤坂台五丁",
    "passTime": "17:42",
    "vehicleType": "南海バス(車椅子・ベビーカー・ノンステップ)",
    "updateTime": "2026/07/20 17:43"
  },
  {
    "vehicleNum": "092977",
    "vehicleCd": "608",
    "vehicleCorpCd": "1",
    "running": true,
    "lat": 34.453083,
    "lon": 135.504278,
    "route": "堺東駅前→鳳駅前→国分峠東",
    "stop": "下別所",
    "passTime": "17:42",
    "vehicleType": "南海バス(車椅子・ベビーカー・ノンステップ)",
    "updateTime": "2026/07/20 17:43"
  },
  {
    "vehicleNum": "093032",
    "vehicleCd": "231",
    "vehicleCorpCd": "1",
    "running": true,
    "lat": 34.436194,
    "lon": 135.242694,
    "route": "エアロプラザ→第２ターミナル(国内線・国際線)→エアロプラザ",
    "stop": "第2ターミナル国際線",
    "passTime": "17:36",
    "vehicleType": "南海バス",
    "updateTime": "2026/07/20 17:43"
  },
  {
    "vehicleNum": "093035",
    "vehicleCd": "609",
    "vehicleCorpCd": "1",
    "running": true,
    "lat": 34.434194,
    "lon": 135.237694,
    "route": "エアロプラザ→第２ターミナル(国内線・国際線)→エアロプラザ",
    "stop": "第2ターミナル国際線",
    "passTime": "17:39",
    "vehicleType": "南海バス",
    "updateTime": "2026/07/20 17:43"
  },
  {
    "vehicleNum": "093071",
    "vehicleCd": "274",
    "vehicleCorpCd": "1",
    "running": true,
    "lat": 34.449194,
    "lon": 135.490194,
    "route": "みずき台２丁目西→光明池駅",
    "stop": "みずき台一丁目",
    "passTime": "17:41",
    "vehicleType": "南海バス(車椅子・ベビーカー・ノンステップ)",
    "updateTime": "2026/07/20 17:43"
  },
  {
    "vehicleNum": "093074",
    "vehicleCd": "247",
    "vehicleCorpCd": "1",
    "running": true,
    "lat": 34.474389,
    "lon": 135.438194,
    "route": "和泉中央駅→いぶき野→和泉府中駅前",
    "stop": "弥生自治会館前",
    "passTime": "17:41",
    "vehicleType": "南海バス(車椅子・ベビーカー・ノンステップ)",
    "updateTime": "2026/07/20 17:43"
  }
]