[
  {
    "vehicleNum": "070108",
    "vehicleCd": "406",
    "vehicleCorpCd": "1",
    "running": true,
    "lat": 34.480083,
    "lon": 135.540889,
    "route": "泉ヶ丘駅→狭山ニュータウンセンター→金剛駅前",
    "stop": "大野台五丁目",
    "passTime": "07:40",
    "vehicleType": "泉北コミュニティバス(車椅子・ベビーカー・ノンステップ)",
    "updateTime": "2026/07/20 07:41"
  },
  {
    "vehicleNum": "070101",
    "vehicleCd": "400",
    "vehicleCorpCd": "1",
    "running": true,
    "lat": 34.498583,
    "lon": 135.544389,
    "route": "泉ヶ丘駅→狭山ニュータウンセンター→金剛駅前",
    "stop": "狭山西小学校前",
    "passTime": "07:39",
    "vehicleType": "泉北コミュニティバス(車椅子・ベビーカー・ノンステップ)",
    "updateTime": "2026/07/20 07:41"
  },
  {
    "vehicleNum": "070104",
    "vehicleCd": "402",
    "vehicleCorpCd": "1",
    "running": true,
    "lat": 34.494,
    "lon": 135.518278,
    "route": "金剛駅前→狭山ニュータウンセンター→泉ヶ丘駅",
    "stop": "茶山台２丁",
    "passTime": "07:40",
    "vehicleType": "泉北コミュニティバス(車椅子・ベビーカー・ノンステップ)",
    "updateTime": "2026/07/20 07:41"
  },
  {
    "vehicleNum": "070105",
    "vehicleCd": "403",
    "vehicleCorpCd": "1",
    "running": true,
    "lat": 34.479083,
    "lon": 135.548194,
    "route": "金剛駅前→狭山ニュータウンセンター→泉ヶ丘駅",
    "stop": "南中学校前",
    "passTime": "07:40",
    "vehicleType": "泉北コミュニティバス(車椅子・ベビーカー・ノンステップ)",
    "updateTime": "2026/07/20 07:41"
  },
  {
    "vehicleNum": "070850",
    "vehicleCd": "429",
    "vehicleCorpCd": "1",
    "running": true,
    "lat": 34.581083,
    "lon": 135.469389,
    "route": "堺東駅前→ＡＴＣ→堺東駅前",
    "stop": "堺駅前",
    "passTime": "07:33",
    "vehicleType": "南海バス",
    "updateTime": "2026/07/20 07:41"
  },
  {
    "vehicleNum": "071601",
    "vehicleCd": "408",
    "vehicleCorpCd": "1",
    "running": true,
    "lat": 34.5785,
    "lon": 135.474583,
    "route": "堺東駅前→大小路→堺駅前",
    "stop": "大小路",
    "passTime": "07:40",
    "vehicleType": "堺シャトル(車椅子・ベビーカー・ノンステップ)",
    "updateTime": "2026/07/20 07:41"
  },
  {
    "vehicleNum": "071602",
    "vehicleCd": "109",
    "vehicleCorpCd": "1",
    "running": true,
    "lat": 34.5745,
    "lon": 135.482083,
    "route": "堺駅前→大小路→堺東駅前",
    "stop": "熊野小学校前",
    "passTime": "07:40",
    "vehicleType": "堺シャトル(車椅子・ベビーカー・ノンステップ)",
    "updateTime": "2026/07/20 07:41"
  },
  {
    "vehicleNum": "080105",
    "vehicleCd": "127",
    "vehicleCorpCd": "2",
    "running": true,
    "lat": 34.433194,
    "lon": 135.403389,
    "route": "岸和田駅前→天神山・一の宮循環　右回り→岸和田駅前",
    "stop": "一の宮",
    "passTime": "07:40",
    "vehicleType": "南海ウイングバス(車椅子・ベビーカー・ワンステップ)",
    "updateTime": "2026/07/20 07:41"
  },
  {
    "vehicleNum": "080179",
    "vehicleCd": "66",
    "vehicleCorpCd": "2",
    "running": true,
    "lat": 34.394,
    "lon": 135.347,
    "route": "泉佐野駅前→ダンバラ公園前→熊取駅前→大阪体育大学前",
    "stop": "中ノ池北",
    "passTime": "07:40",
    "vehicleType": "南海ウイングバス(車椅子・ワンステップ)",
    "updateTime": "2026/07/20 07:41"
  },
  {
    "vehicleNum": "080180",
    "vehicleCd": "68",
    "vehicleCorpCd": "2",
    "running": true,
    "lat": 34.46,
    "lon": 135.378889,
    "route": "岸和田駅前→徳洲会病院→和泉中央駅",
    "stop": "岸和田駅前",
    "passTime": "07:40",
    "vehicleType": "南海ウイングバス(車椅子・ベビーカー・ワンステップ)",
    "updateTime": "2026/07/20 07:41"
  },
  {
    "vehicleNum": "080186",
    "vehicleCd": "39",
    "vehicleCorpCd": "2",
    "running": true,
    "lat": 34.408472,
    "lon": 135.369389,
    "route": "熊取ニュータウン→熊取駅前",
    "stop": "熊取ニュータウン",
    "passTime": "07:40",
    "vehicleType": "南海ウイングバス(車椅子・ベビーカー・ノンステップ)",
    "updateTime": "2026/07/20 07:41"
  },
  {
    "vehicleNum": "080291",
    "vehicleCd": "134",
    "vehicleCorpCd": "2",
    "running": true,
    "lat": 34.368278,
    "lon": 135.276778,
    "route": "泉南市コミュニティバス 朝 一丘回り",
    "stop": "保健センター下",
    "passTime": "07:40",
    "vehicleType": "南海ウイングバス(車椅子・ベビーカー・ノンステップ)",
    "updateTime": "2026/07/20 07:41"
  },
  {
    "vehicleNum": "080323",
    "vehicleCd": "59",
    "vehicleCorpCd": "2",
    "running": true,
    "lat": 34.445583,
    "lon": 135.412,
    "route": "岸和田駅前→岸和田警察署前→道の駅愛彩ランド",
    "stop": "中尾生",
    "passTime": "07:40",
    "vehicleType": "南海ウイングバス(車椅子・ワンステップ)",
    "updateTime": "2026/07/20 07:41"
  },
  {
    "vehicleNum": "080388",
    "vehicleCd": "52",
    "vehicleCorpCd": "2",
    "running": true,
    "lat": 34.462083,
    "lon": 135.411583,
    "route": "白原車庫→内畑→岸和田駅前",
    "stop": "池尻",
    "passTime": "07:39",
    "vehicleType": "南海ウイングバス(車椅子・ベビーカー・ワンステップ)",
    "updateTime": "2026/07/20 07:41"
  },
  {
    "vehicleNum": "080345",
    "vehicleCd": "121",
    "vehicleCorpCd": "2",
    "running": true,
    "lat": 34.381278,
    "lon": 135.354583,
    "route": "つばさが丘北口→熊取駅前",
    "stop": "大阪体育大学口",
    "passTime": "07:41",
    "vehicleType": "南海ウイングバス",
    "updateTime": "2026/07/20 07:41"
  },
  {
    "vehicleNum": "080463",
    "vehicleCd": "36",
    "vehicleCorpCd": "2",
    "running": true,
    "lat": 34.326389,
    "lon": 135.222194,
    "route": "箱作駅前→桃の木台回り→箱作駅前",
    "stop": "桃の木台７丁目",
    "passTime": "07:40",
    "vehicleType": "南海ウイングバス(車椅子・ベビーカー・ノンステップ)",
    "updateTime": "2026/07/20 07:41"
  },
  {
    "vehicleNum": "080483",
    "vehicleCd": "157",
    "vehicleCorpCd": "1",
    "running": true,
    "lat": 34.545,
    "lon": 135.489694,
    "route": "中もず駅前→北条→堺市立総合医療センター前",
    "stop": "もず陵南町西",
    "passTime": "07:40",
    "vehicleType": "南海バス(車椅子・ベビーカー・ノンステップ)",
    "updateTime": "2026/07/20 07:41"
  },
  {
    "vehicleNum": "080627",
    "vehicleCd": "446",
    "vehicleCorpCd": "1",
    "running": true,
    "lat": 34.550694,
    "lon": 135.553583,
    "route": "美原区役所→初芝駅前→美原区役所",
    "stop": "広国神社前",
    "passTime": "07:40",
    "vehicleType": "南海バス(車椅子・ベビーカー・ノンステップ)",
    "updateTime": "2026/07/20 07:41"
  },
  {
    "vehicleNum": "080651",
    "vehicleCd": "455",
    "vehicleCorpCd": "1",
    "running": true,
    "lat": 34.544389,
    "lon": 135.553694,
    "route": "美原区役所→野遠→地下鉄新金岡駅前",
    "stop": "下黒山西",
    "passTime": "07:39",
    "vehicleType": "南海バス",
    "updateTime": "2026/07/20 07:41"
  },
  {
    "vehicleNum": "080652",
    "vehicleCd": "456",
    "vehicleCorpCd": "1",
    "running": true,
    "lat": 34.559778,
    "lon": 135.526194,
    "route": "地下鉄新金岡駅前→野遠→美原区役所",
    "stop": "大泉緑地前",
    "passTime": "07:41",
    "vehicleType": "南海バス",
    "updateTime": "2026/07/20 07:41"
  },
  {
    "vehicleNum": "080671",
    "vehicleCd": "465",
    "vehicleCorpCd": "1",
    "running": true,
    "lat": 34.595583,
    "lon": 135.458278,
    "route": "堺東駅前→錦綾町→堺駅西口",
    "stop": "八幡町",
    "passTime": "07:40",
    "vehicleType": "南海バス(車椅子・ベビーカー・ノンステップ)",
    "updateTime": "2026/07/20 07:41"
  },
  {
    "vehicleNum": "080676",
    "vehicleCd": "158",
    "vehicleCorpCd": "1",
    "running": true,
    "lat": 34.5465,
    "lon": 135.560278,
    "route": "北野田駅前→多治井北（循環）→北野田駅前",
    "stop": "黒姫山古墳前",
    "passTime": "07:40",
    "vehicleType": "南海バス",
    "updateTime": "2026/07/20 07:41"
  },
  {
    "vehicleNum": "080698",
    "vehicleCd": "531",
    "vehicleCorpCd": "1",
    "running": true,
    "lat": 34.584194,
    "lon": 135.468389,
    "route": "堺駅西口→南島町→堺東駅前",
    "stop": "戎島",
    "passTime": "07:41",
    "vehicleType": "南海バス",
    "updateTime": "2026/07/20 07:41"
  },
  {
    "vehicleNum": "080705",
    "vehicleCd": "542",
    "vehicleCorpCd": "1",
    "running": true,
    "lat": 34.569472,
    "lon": 135.5155,
    "route": "堺駅南口→阪和堺市駅",
    "stop": "郵便局前（堺市）",
    "passTime": "07:40",
    "vehicleType": "南海バス(車椅子・ベビーカー・ノンステップ)",
    "updateTime": "2026/07/20 07:41"
  },
  {
    "vehicleNum": "080710",
    "vehicleCd": "18",
    "vehicleCorpCd": "2",
    "running": true,
    "lat": 34.395278,
    "lon": 135.3735,
    "route": "泉佐野駅前→泉陽ヶ丘→熊取駅前→山の手台→小谷→熊取駅前→泉陽ヶ丘→泉佐野駅前",
    "stop": "小谷",
    "passTime": "07:41",
    "vehicleType": "南海ウイングバス(車椅子・ベビーカー・ノンステップ)",
    "updateTime": "2026/07/20 07:41"
  },
  {
    "vehicleNum": "080751",
    "vehicleCd": "551",
    "vehicleCorpCd": "1",
    "running": true,
    "lat": 34.556278,
    "lon": 135.504889,
    "route": "中もず駅前→初芝駅前→船戸下→美原区役所前",
    "stop": "中もず駅前（北側）",
    "passTime": "07:41",
    "vehicleType": "南海バス(車椅子・ベビーカー・ノンステップ)",
    "updateTime": "2026/07/20 07:41"
  },
  {
    "vehicleNum": "080746",
    "vehicleCd": "395",
    "vehicleCorpCd": "1",
    "running": true,
    "lat": 34.499278,
    "lon": 135.543889,
    "route": "金剛駅前→帝塚山学院泉ヶ丘校前→泉ヶ丘駅前",
    "stop": "狭山西小学校前",
    "passTime": "07:40",
    "vehicleType": "南海バス(車椅子・ベビーカー・ノンステップ)",
    "updateTime": "2026/07/20 07:41"
  },
  {
    "vehicleNum": "080755",
    "vehicleCd": "170",
    "vehicleCorpCd": "1",
    "running": true,
    "lat": 34.4955,
    "lon": 135.560889,
    "route": "金剛駅前→向陽・藤沢回り→金剛駅前",
    "stop": "久野喜台二丁目",
    "passTime": "07:39",
    "vehicleType": "南海バス(車椅子・ベビーカー・ノンステップ)",
    "updateTime": "2026/07/20 07:41"
  },
  {
    "vehicleNum": "080765",
    "vehicleCd": "564",
    "vehicleCorpCd": "1",
    "running": true,
    "lat": 34.517194,
    "lon": 135.5105,
    "route": "深井駅→田園→泉ヶ丘駅",
    "stop": "東中学校前（堺市）",
    "passTime": "07:40",
    "vehicleType": "南海バス(車椅子・ベビーカー・ノンステップ)",
    "updateTime": "2026/07/20 07:41"
  },
  {
    "vehicleNum": "080767",
    "vehicleCd": "566",
    "vehicleCorpCd": "1",
    "running": true,
    "lat": 34.533778,
    "lon": 135.478194,
    "route": "堺東駅前→堀上緑町１丁→堺東駅前",
    "stop": "堀上緑町一丁（地域会館東）",
    "passTime": "07:41",
    "vehicleType": "南海バス(車椅子・ベビーカー・ノンステップ)",
    "updateTime": "2026/07/20 07:41"
  },
  {
    "vehicleNum": "080788",
    "vehicleCd": "299",
    "vehicleCorpCd": "1",
    "running": true,
    "lat": 34.572194,
    "lon": 135.4775,
    "route": "地下鉄新金岡駅前→堺駅南口",
    "stop": "安井町",
    "passTime": "07:40",
    "vehicleType": "南海バス(車椅子・ベビーカー・ノンステップ)",
    "updateTime": "2026/07/20 07:41"
  },
  {
    "vehicleNum": "080795",
    "vehicleCd": "43",
    "vehicleCorpCd": "1",
    "running": true,
    "lat": 34.603583,
    "lon": 135.472694,
    "route": "匠町→住之江公園駅前→匠町",
    "stop": "松屋大和川通３丁",
    "passTime": "07:38",
    "vehicleType": "南海バス(車椅子・ベビーカー・ノンステップ)",
    "updateTime": "2026/07/20 07:41"
  },
  {
    "vehicleNum": "080794",
    "vehicleCd": "344",
    "vehicleCorpCd": "1",
    "running": true,
    "lat": 34.575083,
    "lon": 135.556583,
    "route": "河内松原駅前→阪和堺市駅前→堺駅前",
    "stop": "河内松原駅前",
    "passTime": "07:39",
    "vehicleType": "南海バス(車椅子・ベビーカー・ノンステップ)",
    "updateTime": "2026/07/20 07:41"
  },
  {
    "vehicleNum": "080798",
    "vehicleCd": "107",
    "vehicleCorpCd": "1",
    "running": true,
    "lat": 34.574583,
    "lon": 135.4735,
    "route": "河内松原駅前→阪和堺市駅前→堺駅前",
    "stop": "大寺南門山之口前",
    "passTime": "07:41",
    "vehicleType": "南海バス(車椅子・ベビーカー・ノンステップ)",
    "updateTime": "2026/07/20 07:41"
  },
  {
    "vehicleNum": "080806",
    "vehicleCd": "307",
    "vehicleCorpCd": "1",
    "running": true,
    "lat": 34.569472,
    "lon": 135.466,
    "route": "堺駅前→堺駅南口",
    "stop": "山ノ口橋",
    "passTime": "07:39",
    "vehicleType": "南海バス(車椅子・ベビーカー・ノンステップ)",
    "updateTime": "2026/07/20 07:41"
  },
  {
    "vehicleNum": "080808",
    "vehicleCd": "216",
    "vehicleCorpCd": "1",
    "running": true,
    "lat": 34.574583,
    "lon": 135.484194,
    "route": "堺東駅前→材木町→堺駅西口",
    "stop": "堺東駅前",
    "passTime": "07:40",
    "vehicleType": "南海バス(車椅子・ベビーカー・ノンステップ)",
    "updateTime": "2026/07/20 07:41"
  },
  {
    "vehicleNum": "080809",
    "vehicleCd": "215",
    "vehicleCorpCd": "1",
    "running": true,
    "lat": 34.586583,
    "lon": 135.485194,
    "route": "堺駅西口→錦綾町→堺東駅前",
    "stop": "錦綾橋",
    "passTime": "07:40",
    "vehicleType": "南海バス(車椅子・ベビーカー・ノンステップ)",
    "updateTime": "2026/07/20 07:41"
  },
  {
    "vehicleNum": "080826",
    "vehicleCd": "152",
    "vehicleCorpCd": "1",
    "running": true,
    "lat": 34.531694,
    "lon": 135.5695,
    "route": "初芝駅前→平尾→初芝駅前",
    "stop": "菅生口",
    "passTime": "07:39",
    "vehicleType": "南海バス(車椅子・ベビーカー・ノンステップ)",
    "updateTime": "2026/07/20 07:41"
  },
  {
    "vehicleNum": "080825",
    "vehicleCd": "261",
    "vehicleCorpCd": "1",
    "running": true,
    "lat": 34.540972,
    "lon": 135.486278,
    "route": "泉ヶ丘駅→宮山台中学校前→堺東駅前",
    "stop": "北深井",
    "passTime": "07:40",
    "vehicleType": "南海バス(車椅子・ベビーカー・ノンステップ)",
    "updateTime": "2026/07/20 07:41"
  },
  {
    "vehicleNum": "080838",
    "vehicleCd": "129",
    "vehicleCorpCd": "1",
    "running": true,
    "lat": 34.536278,
    "lon": 135.560583,
    "route": "中もず駅前→初芝駅前→船戸下→美原区役所前",
    "stop": "船戸下",
    "passTime": "07:40",
    "vehicleType": "南海バス(車椅子・ベビーカー・ノンステップ)",
    "updateTime": "2026/07/20 07:41"
  },
  {
    "vehicleNum": "080852",
    "vehicleCd": "584",
    "vehicleCorpCd": "1",
    "running": true,
    "lat": 34.494889,
    "lon": 135.579083,
    "route": "金剛駅前→高辺台小学校前→金剛駅前",
    "stop": "津々山台２丁目東",
    "passTime": "07:40",
    "vehicleType": "南海バス(車椅子・ベビーカー・ノンステップ)",
    "updateTime": "2026/07/20 07:41"
  },
  {
    "vehicleNum": "080858",
    "vehicleCd": "225",
    "vehicleCorpCd": "1",
    "running": true,
    "lat": 34.582,
    "lon": 135.486194,
    "route": "河内天美駅前→天美我堂→堺東駅前",
    "stop": "北庄町",
    "passTime": "07:40",
    "vehicleType": "南海バス(車椅子・ベビーカー・ノンステップ)",
    "updateTime": "2026/07/20 07:41"
  },
  {
    "vehicleNum": "080857",
    "vehicleCd": "226",
    "vehicleCorpCd": "1",
    "running": true,
    "lat": 34.580889,
    "lon": 135.482278,
    "route": "阪和堺市駅前→匠町→海浜匠町",
    "stop": "方違神社前",
    "passTime": "07:39",
    "vehicleType": "南海バス(車椅子・ベビーカー・ノンステップ)",
    "updateTime": "2026/07/20 07:41"
  },
  {
    "vehicleNum": "080865",
    "vehicleCd": "504",
    "vehicleCorpCd": "1",
    "running": true,
    "lat": 34.576889,
    "lon": 135.4975,
    "route": "堺駅前→堺東駅前→河内松原駅前",
    "stop": "阪和堺市駅前",
    "passTime": "07:40",
    "vehicleType": "南海バス(車椅子・ベビーカー・ノンステップ)",
    "updateTime": "2026/07/20 07:41"
  },
  {
    "vehicleNum": "080866",
    "vehicleCd": "497",
    "vehicleCorpCd": "1",
    "running": true,
    "lat": 34.506194,
    "lon": 135.571194,
    "route": "金剛駅前→向陽・藤沢回り→金剛駅前",
    "stop": "藤沢台５丁目",
    "passTime": "07:41",
    "vehicleType": "南海バス(車椅子・ベビーカー・ノンステップ)",
    "updateTime": "2026/07/20 07:41"
  },
  {
    "vehicleNum": "080870",
    "vehicleCd": "153",
    "vehicleCorpCd": "1",
    "running": true,
    "lat": 34.586083,
    "lon": 135.4875,
    "route": "堺東駅前→錦綾町→河内天美駅前",
    "stop": "錦綾町",
    "passTime": "07:39",
    "vehicleType": "南海バス(車椅子・ベビーカー・ノンステップ)",
    "updateTime": "2026/07/20 07:41"
  },
  {
    "vehicleNum": "080875",
    "vehicleCd": "485",
    "vehicleCorpCd": "1",
    "running": true,
    "lat": 34.483278,
    "lon": 135.517389,
    "route": "泉ヶ丘駅→槙塚台右回り→泉ヶ丘駅",
    "stop": "槙塚台２丁北",
    "passTime": "07:40",
    "vehicleType": "南海バス(車椅子・ベビーカー・ノンステップ)",
    "updateTime": "2026/07/20 07:41"
  },
  {
    "vehicleNum": "080883",
    "vehicleCd": "361",
    "vehicleCorpCd": "1",
    "running": true,
    "lat": 34.477278,
    "lon": 135.491583,
    "route": "栂・美木多駅→庭代台右回り→栂・美木多駅",
    "stop": "原山台３丁",
    "passTime": "07:41",
    "vehicleType": "南海バス(車椅子・ベビーカー・ノンステップ)",
    "updateTime": "2026/07/20 07:41"
  },
  {
    "vehicleNum": "080884",
    "vehicleCd": "116",
    "vehicleCorpCd": "1",
    "running": true,
    "lat": 34.536889,
    "lon": 135.470694,
    "route": "泉ヶ丘駅→泉北２号線→津久野駅前",
    "stop": "平岡西口",
    "passTime": "07:40",
    "vehicleType": "南海バス(車椅子・ベビーカー・ノンステップ)",
    "updateTime": "2026/07/20 07:41"
  },
  {
    "vehicleNum": "080905",
    "vehicleCd": "353",
    "vehicleCorpCd": "1",
    "running": true,
    "lat": 34.4955,
    "lon": 135.4995,
    "route": "津久野駅前→堺市立総合医療センター前→泉北２号線→泉ヶ丘駅",
    "stop": "竹城台４丁",
    "passTime": "07:39",
    "vehicleType": "南海バス(車椅子・ベビーカー・ノンステップ)",
    "updateTime": "2026/07/20 07:41"
  },
  {
    "vehicleNum": "080917",
    "vehicleCd": "70",
    "vehicleCorpCd": "1",
    "running": true,
    "lat": 34.465083,
    "lon": 135.505278,
    "route": "栂・美木多駅→御池台回り→栂・美木多駅",
    "stop": "御池台２丁",
    "passTime": "07:41",
    "vehicleType": "南海バス(車椅子・ベビーカー・ノンステップ)",
    "updateTime": "2026/07/20 07:41"
  },
  {
    "vehicleNum": "080927",
    "vehicleCd": "79",
    "vehicleCorpCd": "1",
    "running": true,
    "lat": 34.507083,
    "lon": 135.501194,
    "route": "泉ヶ丘駅→深阪→津久野駅前",
    "stop": "深阪",
    "passTime": "07:40",
    "vehicleType": "南海バス(車椅子・ベビーカー・ノンステップ)",
    "updateTime": "2026/07/20 07:41"
  },
  {
    "vehicleNum": "080920",
    "vehicleCd": "327",
    "vehicleCorpCd": "1",
    "running": true,
    "lat": 34.542083,
    "lon": 135.468694,
    "route": "津久野駅前→堺市立総合医療センター前→八田荘団地→泉ヶ丘駅",
    "stop": "津久野駅前",
    "passTime": "07:40",
    "vehicleType": "南海バス(車椅子・ベビーカー・ノンステップ)",
    "updateTime": "2026/07/20 07:41"
  },
  {
    "vehicleNum": "080921",
    "vehicleCd": "143",
    "vehicleCorpCd": "1",
    "running": true,
    "lat": 34.499,
    "lon": 135.530889,
    "route": "泉ヶ丘駅→スマ・エコタウン晴美台→高倉台右回り→泉ヶ丘駅",
    "stop": "堺東高校前",
    "passTime": "07:40",
    "vehicleType": "南海バス(車椅子・ベビーカー・ノンステップ)",
    "updateTime": "2026/07/20 07:41"
  },
  {
    "vehicleNum": "080928",
    "vehicleCd": "348",
    "vehicleCorpCd": "1",
    "running": true,
    "lat": 34.490889,
    "lon": 135.503694,
    "route": "泉ヶ丘駅→若松台左回り→泉ヶ丘駅",
    "stop": "泉北高校前",
    "passTime": "07:40",
    "vehicleType": "南海バス(車椅子・ベビーカー・ノンステップ)",
    "updateTime": "2026/07/20 07:41"
  },
  {
    "vehicleNum": "080935",
    "vehicleCd": "593",
    "vehicleCorpCd": "1",
    "running": true,
    "lat": 34.604889,
    "lon": 135.453278,
    "route": "Ｊグリーン堺クラブハウス前→堺駅西口→堺東駅前",
    "stop": "Jグリーン堺クラブハウス前",
    "passTime": "07:35",
    "vehicleType": "南海バス(車椅子・ベビーカー・ノンステップ)",
    "updateTime": "2026/07/20 07:41"
  },
  {
    "vehicleNum": "080934",
    "vehicleCd": "594",
    "vehicleCorpCd": "1",
    "running": true,
    "lat": 34.570194,
    "lon": 135.466389,
    "route": "堺駅南口→堺駅前",
    "stop": "御陵前",
    "passTime": "07:40",
    "vehicleType": "南海バス(車椅子・ベビーカー・ノンステップ)",
    "updateTime": "2026/07/20 07:41"
  },
  {
    "vehicleNum": "080937",
    "vehicleCd": "595",
    "vehicleCorpCd": "1",
    "running": true,
    "lat": 34.523583,
    "lon": 135.542083,
    "route": "北野田駅前→西口園→堺駅南口",
    "stop": "北野田駅前",
    "passTime": "07:40",
    "vehicleType": "南海バス(車椅子・ベビーカー・ノンステップ)",
    "updateTime": "2026/07/20 07:41"
  },
  {
    "vehicleNum": "080948",
    "vehicleCd": "276",
    "vehicleCorpCd": "1",
    "running": true,
    "lat": 34.576889,
    "lon": 135.497278,
    "route": "阪和堺市駅前→堺駅南口",
    "stop": "阪和堺市駅前",
    "passTime": "07:40",
    "vehicleType": "南海バス(車椅子・ベビーカー・ノンステップ)",
    "updateTime": "2026/07/20 07:41"
  },
  {
    "vehicleNum": "080950",
    "vehicleCd": "513",
    "vehicleCorpCd": "1",
    "running": true,
    "lat": 34.552,
    "lon": 135.518,
    "route": "堺東駅前→白鷺駅前→堺東駅前（循環）",
    "stop": "金田新田",
    "passTime": "07:39",
    "vehicleType": "南海バス(車椅子・ベビーカー・ノンステップ)",
    "updateTime": "2026/07/20 07:41"
  },
  {
    "vehicleNum": "080977",
    "vehicleCd": "388",
    "vehicleCorpCd": "1",
    "running": true,
    "lat": 34.550194,
    "lon": 135.478778,
    "route": "堺東駅前→上野芝駅前→東山車庫前",
    "stop": "南陵通４丁",
    "passTime": "07:40",
    "vehicleType": "南海バス(車椅子・ベビーカー・ノンステップ)",
    "updateTime": "2026/07/20 07:41"
  },
  {
    "vehicleNum": "080978",
    "vehicleCd": "431",
    "vehicleCorpCd": "1",
    "running": true,
    "lat": 34.577083,
    "lon": 135.469583,
    "route": "北野田駅前→西口園→堺駅南口",
    "stop": "川尻",
    "passTime": "07:41",
    "vehicleType": "南海バス(車椅子・ベビーカー・ノンステップ)",
    "updateTime": "2026/07/20 07:41"
  },
  {
    "vehicleNum": "080989",
    "vehicleCd": "259",
    "vehicleCorpCd": "1",
    "running": true,
    "lat": 34.527278,
    "lon": 135.488472,
    "route": "伏尾→北条→中もず駅前",
    "stop": "八田荘団地",
    "passTime": "07:40",
    "vehicleType": "南海バス(車椅子・ベビーカー・ノンステップ)",
    "updateTime": "2026/07/20 07:41"
  },
  {
    "vehicleNum": "080994",
    "vehicleCd": "130",
    "vehicleCorpCd": "1",
    "running": true,
    "lat": 34.485778,
    "lon": 135.532083,
    "route": "泉ヶ丘駅→晴美台右回り→泉ヶ丘駅",
    "stop": "帝塚山学院泉ケ丘校前",
    "passTime": "07:40",
    "vehicleType": "南海バス(車椅子・ベビーカー・ノンステップ)",
    "updateTime": "2026/07/20 07:41"
  },
  {
    "vehicleNum": "080996",
    "vehicleCd": "191",
    "vehicleCorpCd": "1",
    "running": true,
    "lat": 34.572,
    "lon": 135.482889,
    "route": "堺東駅前→もず駅前→深井駅→あみだ池",
    "stop": "堺東駅前",
    "passTime": "07:40",
    "vehicleType": "南海バス(車椅子・ベビーカー・ノンステップ)",
    "updateTime": "2026/07/20 07:41"
  },
  {
    "vehicleNum": "080995",
    "vehicleCd": "118",
    "vehicleCorpCd": "1",
    "running": true,
    "lat": 34.491,
    "lon": 135.499,
    "route": "泉ヶ丘駅→鉢ヶ峯→泉ヶ丘駅",
    "stop": "豊田南",
    "passTime": "07:40",
    "vehicleType": "南海バス(車椅子・ベビーカー・ノンステップ)",
    "updateTime": "2026/07/20 07:41"
  },
  {
    "vehicleNum": "080999",
    "vehicleCd": "493",
    "vehicleCorpCd": "1",
    "running": true,
    "lat": 34.5775,
    "lon": 135.469583,
    "route": "堺駅南口→三国ヶ丘駅前→北野田駅前",
    "stop": "川尻",
    "passTime": "07:41",
    "vehicleType": "南海バス(車椅子・ベビーカー・ノンステップ)",
    "updateTime": "2026/07/20 07:41"
  },
  {
    "vehicleNum": "081006",
    "vehicleCd": "54",
    "vehicleCorpCd": "1",
    "running": true,
    "lat": 34.554694,
    "lon": 135.500694,
    "route": "堺駅南口→福町→北野田駅前",
    "stop": "中もず駅前（南側）",
    "passTime": "07:38",
    "vehicleType": "南海バス(車椅子・ベビーカー・ノンステップ)",
    "updateTime": "2026/07/20 07:41"
  },
  {
    "vehicleNum": "081007",
    "vehicleCd": "127",
    "vehicleCorpCd": "1",
    "running": true,
    "lat": 34.508389,
    "lon": 135.524472,
    "route": "あみだ池→深井駅→もず駅前→堺東駅前",
    "stop": "見野山",
    "passTime": "07:39",
    "vehicleType": "南海バス(車椅子・ベビーカー・ノンステップ)",
    "updateTime": "2026/07/20 07:41"
  },
  {
    "vehicleNum": "081008",
    "vehicleCd": "47",
    "vehicleCorpCd": "1",
    "running": true,
    "lat": 34.554889,
    "lon": 135.500778,
    "route": "北野田駅前→福町→堺駅南口",
    "stop": "中もず駅前通",
    "passTime": "07:39",
    "vehicleType": "南海バス(車椅子・ベビーカー・ノンステップ)",
    "updateTime": "2026/07/20 07:41"
  },
  {
    "vehicleNum": "081013",
    "vehicleCd": "554",
    "vehicleCorpCd": "1",
    "running": true,
    "lat": 34.555278,
    "lon": 135.508972,
    "route": "初芝駅前→平尾→中もず駅前",
    "stop": "蟻ヶ池",
    "passTime": "07:39",
    "vehicleType": "南海バス(車椅子・ベビーカー・ノンステップ)",
    "updateTime": "2026/07/20 07:41"
  },
  {
    "vehicleNum": "081020",
    "vehicleCd": "163",
    "vehicleCorpCd": "1",
    "running": true,
    "lat": 34.521278,
    "lon": 135.520583,
    "route": "深井駅→東山車庫前→北野田駅前",
    "stop": "西山",
    "passTime": "07:39",
    "vehicleType": "南海バス(車椅子・ベビーカー・ノンステップ)",
    "updateTime": "2026/07/20 07:41"
  },
  {
    "vehicleNum": "081037",
    "vehicleCd": "236",
    "vehicleCorpCd": "1",
    "running": true,
    "lat": 34.4705,
    "lon": 135.494,
    "route": "御池台２丁→庭代台１丁→栂・美木多駅",
    "stop": "庭代台１丁",
    "passTime": "07:41",
    "vehicleType": "南海バス(車椅子・ベビーカー・ノンステップ)",
    "updateTime": "2026/07/20 07:41"
  },
  {
    "vehicleNum": "090160",
    "vehicleCd": "72",
    "vehicleCorpCd": "2",
    "running": true,
    "lat": 34.441889,
    "lon": 135.394,
    "route": "岸和田駅前→岸和田警察署前→河合→白原車庫",
    "stop": "東土生",
    "passTime": "07:40",
    "vehicleType": "南海ウイングバス(車椅子・ワンステップ)",
    "updateTime": "2026/07/20 07:41"
  },
  {
    "vehicleNum": "091107",
    "vehicleCd": "23",
    "vehicleCorpCd": "2",
    "running": true,
    "lat": 34.408389,
    "lon": 135.336778,
    "route": "大阪体育大学前→熊取駅前→ダンバラ公園前→泉佐野駅前",
    "stop": "佐野台口",
    "passTime": "07:39",
    "vehicleType": "南海ウイングバス(車椅子・ワンステップ)",
    "updateTime": "2026/07/20 07:41"
  },
  {
    "vehicleNum": "091243",
    "vehicleCd": "13",
    "vehicleCorpCd": "2",
    "running": true,
    "lat": 34.436972,
    "lon": 135.413583,
    "route": "岸和田駅前→岸和田警察署前→道の駅愛彩ランド",
    "stop": "福田",
    "passTime": "07:45",
    "vehicleType": "南海ウイングバス(車椅子・ワンステップ)",
    "updateTime": "2026/07/20 07:41"
  },
  {
    "vehicleNum": "091580",
    "vehicleCd": "85",
    "vehicleCorpCd": "2",
    "running": true,
    "lat": 34.361694,
    "lon": 135.305278,
    "route": "泉南市コミュニティバス 朝 新家回り",
    "stop": "八幡山団地口",
    "passTime": "07:40",
    "vehicleType": "南海ウイングバス(車椅子・ベビーカー・ノンステップ)",
    "updateTime": "2026/07/20 07:41"
  },
  {
    "vehicleNum": "091739",
    "vehicleCd": "147",
    "vehicleCorpCd": "2",
    "running": true,
    "lat": 34.460778,
    "lon": 135.454889,
    "route": "道の駅愛彩ランド→包近→和泉中央駅",
    "stop": "唐国南",
    "passTime": "07:39",
    "vehicleType": "南海ウイングバス(車椅子・ベビーカー・ワンステップ)",
    "updateTime": "2026/07/20 07:41"
  },
  {
    "vehicleNum": "091748",
    "vehicleCd": "74",
    "vehicleCorpCd": "2",
    "running": true,
    "lat": 34.463083,
    "lon": 135.407278,
    "route": "岸和田駅前→内畑→白原車庫",
    "stop": "久米田",
    "passTime": "07:40",
    "vehicleType": "南海ウイングバス(車椅子・ワンステップ)",
    "updateTime": "2026/07/20 07:41"
  },
  {
    "vehicleNum": "091837",
    "vehicleCd": "209",
    "vehicleCorpCd": "1",
    "running": true,
    "lat": 34.626083,
    "lon": 135.4325,
    "route": "堺東駅前→ＡＴＣ→堺東駅前",
    "stop": "ポートタウン東",
    "passTime": "07:37",
    "vehicleType": "南海バス",
    "updateTime": "2026/07/20 07:41"
  },
  {
    "vehicleNum": "092204",
    "vehicleCd": "416",
    "vehicleCorpCd": "1",
    "running": true,
    "lat": 34.419778,
    "lon": 135.641083,
    "route": "金剛山ﾛｰﾌﾟｳｪｲ前→日東町東口→河内長野駅前",
    "stop": "千早大橋",
    "passTime": "07:39",
    "vehicleType": "南海バス",
    "updateTime": "2026/07/20 07:41"
  },
  {
    "vehicleNum": "092372",
    "vehicleCd": "159",
    "vehicleCorpCd": "1",
    "running": true,
    "lat": 34.486889,
    "lon": 135.480778,
    "route": "光明池駅→新檜尾台センター→光明池駅",
    "stop": "赤坂台一丁",
    "passTime": "07:41",
    "vehicleType": "南海バス(車椅子・ベビーカー・ノンステップ)",
    "updateTime": "2026/07/20 07:41"
  },
  {
    "vehicleNum": "092344",
    "vehicleCd": "102",
    "vehicleCorpCd": "1",
    "running": true,
    "lat": 34.433083,
    "lon": 135.236194,
    "route": "空港駅→ＦｅｄＥｘ→給油地区",
    "stop": "空港駅",
    "passTime": "07:39",
    "vehicleType": "南海バス",
    "updateTime": "2026/07/20 07:41"
  },
  {
    "vehicleNum": "092383",
    "vehicleCd": "44",
    "vehicleCorpCd": "1",
    "running": true,
    "lat": 34.533194,
    "lon": 135.462778,
    "route": "鳳駅前→草部→栂・美木多駅",
    "stop": "鳳駅前",
    "passTime": "07:39",
    "vehicleType": "南海バス(車椅子・ベビーカー・ワンステップ)",
    "updateTime": "2026/07/20 07:41"
  },
  {
    "vehicleNum": "092384",
    "vehicleCd": "558",
    "vehicleCorpCd": "1",
    "running": true,
    "lat": 34.505278,
    "lon": 135.448889,
    "route": "北信太駅筋→鶴山台団地→北信太駅筋",
    "stop": "信太中学校前",
    "passTime": "07:41",
    "vehicleType": "南海バス(車椅子・ベビーカー・ノンステップ)",
    "updateTime": "2026/07/20 07:41"
  },
  {
    "vehicleNum": "092398",
    "vehicleCd": "41",
    "vehicleCorpCd": "1",
    "running": true,
    "lat": 34.437583,
    "lon": 135.231194,
    "route": "エアロプラザ→第２ターミナル(国内線・国際線)→エアロプラザ",
    "stop": "エアロプラザ",
    "passTime": "07:35",
    "vehicleType": "南海バス(車椅子・ノンステップ)",
    "updateTime": "2026/07/20 07:41"
  },
  {
    "vehicleNum": "092468",
    "vehicleCd": "51",
    "vehicleCorpCd": "1",
    "running": true,
    "lat": 34.426278,
    "lon": 135.531889,
    "route": "旭→天野山→長野",
    "stop": "旭ヶ丘口",
    "passTime": "07:37",
    "vehicleType": "南海バス(車椅子・ベビーカー・ノンステップ)",
    "updateTime": "2026/07/20 07:41"
  },
  {
    "vehicleNum": "092469",
    "vehicleCd": "220",
    "vehicleCorpCd": "1",
    "running": true,
    "lat": 34.433389,
    "lon": 135.565472,
    "route": "大矢船西町→三日市町駅前",
    "stop": "南花台１丁目北",
    "passTime": "07:40",
    "vehicleType": "南海バス(車椅子・ベビーカー・ノンステップ)",
    "updateTime": "2026/07/20 07:41"
  },
  {
    "vehicleNum": "092454",
    "vehicleCd": "125",
    "vehicleCorpCd": "2",
    "running": true,
    "lat": 34.361694,
    "lon": 135.28,
    "route": "泉南市コミュニティバス 山回り",
    "stop": "砂川駅前通り",
    "passTime": "07:39",
    "vehicleType": "泉南市コミュニティバス(橙)",
    "updateTime": "2026/07/20 07:41"
  },
  {
    "vehicleNum": "092470",
    "vehicleCd": "105",
    "vehicleCorpCd": "1",
    "running": true,
    "lat": 34.457389,
    "lon": 135.557889,
    "route": "千代田駅前→赤峯→荘園町",
    "stop": "小山田口",
    "passTime": "07:40",
    "vehicleType": "南海バス(車椅子・ベビーカー・ノンステップ)",
    "updateTime": "2026/07/20 07:41"
  },
  {
    "vehicleNum": "092483",
    "vehicleCd": "110",
    "vehicleCorpCd": "1",
    "running": true,
    "lat": 34.449778,
    "lon": 135.5585,
    "route": "長野→天野山→旭",
    "stop": "野作",
    "passTime": "07:40",
    "vehicleType": "南海バス(車椅子・ベビーカー・ノンステップ)",
    "updateTime": "2026/07/20 07:41"
  },
  {
    "vehicleNum": "092498",
    "vehicleCd": "8",
    "vehicleCorpCd": "1",
    "running": true,
    "lat": 34.439,
    "lon": 135.462889,
    "route": "和泉中央駅→はつが野六丁目→和泉中央駅",
    "stop": "南松尾はつが野学園前",
    "passTime": "07:39",
    "vehicleType": "南海バス(車椅子・ベビーカー・ノンステップ)",
    "updateTime": "2026/07/20 07:41"
  },
  {
    "vehicleNum": "092577",
    "vehicleCd": "578",
    "vehicleCorpCd": "1",
    "running": true,
    "lat": 34.433972,
    "lon": 135.562194,
    "route": "三日市町駅前→南花台１丁目北→大矢船西町",
    "stop": "南花台１丁目北",
    "passTime": "07:40",
    "vehicleType": "南海バス(車椅子・ベビーカー・ノンステップ)",
    "updateTime": "2026/07/20 07:41"
  },
  {
    "vehicleNum": "092570",
    "vehicleCd": "577",
    "vehicleCorpCd": "1",
    "running": true,
    "lat": 34.486694,
    "lon": 135.424278,
    "route": "和泉中央駅→寺田→泉大津駅前",
    "stop": "和泉市役所前",
    "passTime": "07:39",
    "vehicleType": "南海バス(車椅子・ベビーカー・ノンステップ)",
    "updateTime": "2026/07/20 07:41"
  },
  {
    "vehicleNum": "092580",
    "vehicleCd": "377",
    "vehicleCorpCd": "1",
    "running": true,
    "lat": 34.4835,
    "lon": 135.424389,
    "route": "泉大津駅前→和泉府中駅前→和泉中央駅",
    "stop": "和泉市役所前",
    "passTime": "07:41",
    "vehicleType": "南海バス(車椅子・ベビーカー・ノンステップ)",
    "updateTime": "2026/07/20 07:41"
  },
  {
    "vehicleNum": "092647",
    "vehicleCd": "587",
    "vehicleCorpCd": "1",
    "running": true,
    "lat": 34.437194,
    "lon": 135.5735,
    "route": "三日市町駅前→清見台回り→三日市町駅前",
    "stop": "三日市町駅前通",
    "passTime": "07:40",
    "vehicleType": "南海バス(車椅子・ベビーカー・ノンステップ)",
    "updateTime": "2026/07/20 07:41"
  },
  {
    "vehicleNum": "092653",
    "vehicleCd": "357",
    "vehicleCorpCd": "1",
    "running": true,
    "lat": 34.412,
    "lon": 135.571389,
    "route": "南青葉台中央→南青葉台→南青葉台中央→三日市町駅前",
    "stop": "南青葉台",
    "passTime": "07:41",
    "vehicleType": "南海バス(車椅子・ベビーカー・ノンステップ)",
    "updateTime": "2026/07/20 07:41"
  },
  {
    "vehicleNum": "092655",
    "vehicleCd": "168",
    "vehicleCorpCd": "1",
    "running": true,
    "lat": 34.415194,
    "lon": 135.623583,
    "route": "河内長野駅前→観心寺→金剛山ロープウェイ前",
    "stop": "錦川",
    "passTime": "07:41",
    "vehicleType": "南海バス(車椅子・ベビーカー・ノンステップ)",
    "updateTime": "2026/07/20 07:41"
  },
  {
    "vehicleNum": "092734",
    "vehicleCd": "289",
    "vehicleCorpCd": "1",
    "running": true,
    "lat": 34.423389,
    "lon": 135.5815,
    "route": "美加の台駅前→美加の台西→美加の台駅前",
    "stop": "美加の台口",
    "passTime": "07:41",
    "vehicleType": "南海バス(車椅子・ベビーカー・ノンステップ)",
    "updateTime": "2026/07/20 07:41"
  },
  {
    "vehicleNum": "092758",
    "vehicleCd": "363",
    "vehicleCorpCd": "1",
    "running": true,
    "lat": 34.413889,
    "lon": 135.561194,
    "route": "南ヶ丘→南花台４丁目→三日市町駅前",
    "stop": "南ヶ丘",
    "passTime": "07:40",
    "vehicleType": "南海バス(車椅子・ベビーカー・ノンステップ)",
    "updateTime": "2026/07/20 07:41"
  },
  {
    "vehicleNum": "092762",
    "vehicleCd": "570",
    "vehicleCorpCd": "1",
    "running": true,
    "lat": 34.544889,
    "lon": 135.463389,
    "route": "堺東駅前→鳳駅前→国分峠東",
    "stop": "下田",
    "passTime": "07:41",
    "vehicleType": "南海バス(車椅子・ベビーカー・ノンステップ)",
    "updateTime": "2026/07/20 07:41"
  },
  {
    "vehicleNum": "092795",
    "vehicleCd": "592",
    "vehicleCorpCd": "1",
    "running": true,
    "lat": 34.523778,
    "lon": 135.462389,
    "route": "堺東駅前→鳳駅前→光明池駅",
    "stop": "上",
    "passTime": "07:41",
    "vehicleType": "南海バス(車椅子・ベビーカー・ノンステップ)",
    "updateTime": "2026/07/20 07:41"
  },
  {
    "vehicleNum": "092901",
    "vehicleCd": "356",
    "vehicleCorpCd": "1",
    "running": true,
    "lat": 34.460083,
    "lon": 135.454583,
    "route": "和泉青葉台→和泉中央駅→泉大津駅前",
    "stop": "和泉中央駅",
    "passTime": "07:39",
    "vehicleType": "南海バス(車椅子・ベビーカー・ノンステップ)",
    "updateTime": "2026/07/20 07:41"
  },
  {
    "vehicleNum": "092917",
    "vehicleCd": "40",
    "vehicleCorpCd": "1",
    "running": true,
    "lat": 34.401694,
    "lon": 135.531194,
    "route": "滝畑ダム→河内長野駅前",
    "stop": "滝尻",
    "passTime": "07:40",
    "vehicleType": "南海バス(車椅子・ベビーカー・ノンステップ)",
    "updateTime": "2026/07/20 07:41"
  },
  {
    "vehicleNum": "092918",
    "vehicleCd": "114",
    "vehicleCorpCd": "1",
    "running": true,
    "lat": 34.554389,
    "lon": 135.467694,
    "route": "光明池駅→山田→堺東駅前",
    "stop": "霞ヶ丘",
    "passTime": "07:41",
    "vehicleType": "南海バス(車椅子・ベビーカー・ノンステップ)",
    "updateTime": "2026/07/20 07:41"
  },
  {
    "vehicleNum": "092937",
    "vehicleCd": "73",
    "vehicleCorpCd": "1",
    "running": true,
    "lat": 34.470778,
    "lon": 135.478889,
    "route": "光明池駅→城山台２丁→光明池駅",
    "stop": "鴨谷台三丁",
    "passTime": "07:40",
    "vehicleType": "南海バス(車椅子・ベビーカー・ノンステップ)",
    "updateTime": "2026/07/20 07:41"
  },
  {
    "vehicleNum": "092936",
    "vehicleCd": "322",
    "vehicleCorpCd": "1",
    "running": true,
    "lat": 34.426889,
    "lon": 135.227194,
    "route": "空港駅→給油地区",
    "stop": "貨物合同庁舎前",
    "passTime": "07:40",
    "vehicleType": "南海バス(車椅子・ベビーカー・ノンステップ)",
    "updateTime": "2026/07/20 07:41"
  },
  {
    "vehicleNum": "092948",
    "vehicleCd": "606",
    "vehicleCorpCd": "1",
    "running": true,
    "lat": 34.481,
    "lon": 135.467389,
    "route": "光明池駅→山田→堺東駅前",
    "stop": "下伏屋",
    "passTime": "07:41",
    "vehicleType": "南海バス(車椅子・ベビーカー・ノンステップ)",
    "updateTime": "2026/07/20 07:41"
  },
  {
    "vehicleNum": "092951",
    "vehicleCd": "340",
    "vehicleCorpCd": "1",
    "running": true,
    "lat": 34.5225,
    "lon": 135.462694,
    "route": "国分峠東→栂・美木多駅→堺東駅前",
    "stop": "石橋",
    "passTime": "07:40",
    "vehicleType": "南海バス(車椅子・ベビーカー・ノンステップ)",
    "updateTime": "2026/07/20 07:41"
  },
  {
    "vehicleNum": "092975",
    "vehicleCd": "115",
    "vehicleCorpCd": "1",
    "running": true,
    "lat": 34.470194,
    "lon": 135.476694,
    "route": "みずき台２丁目西→光明池駅",
    "stop": "東室堂",
    "passTime": "07:41",
    "vehicleType": "南海バス(車椅子・ベビーカー・ノンステップ)",
    "updateTime": "2026/07/20 07:41"
  },
  {
    "vehicleNum": "092974",
    "vehicleCd": "260",
    "vehicleCorpCd": "1",
    "running": true,
    "lat": 34.4495,
    "lon": 135.457778,
    "route": "和泉中央駅→のぞみ野南→美術館",
    "stop": "緑ヶ丘団地",
    "passTime": "07:41",
    "vehicleType": "南海バス(車椅子・ベビーカー・ノンステップ)",
    "updateTime": "2026/07/20 07:41"
  },
  {
    "vehicleNum": "092952",
    "vehicleCd": "113",
    "vehicleCorpCd": "1",
    "running": true,
    "lat": 34.442694,
    "lon": 135.4485,
    "route": "和泉中央駅→テクノステージセンター前→直行→和泉中央駅",
    "stop": "大阪技術研前",
    "passTime": "07:40",
    "vehicleType": "南海バス(車椅子・ベビーカー・ノンステップ)",
    "updateTime": "2026/07/20 07:41"
  },
  {
    "vehicleNum": "093003",
    "vehicleCd": "111",
    "vehicleCorpCd": "1",
    "running": true,
    "lat": 34.453583,
    "lon": 135.490194,
    "route": "光明池駅→光明池車庫→城山台５丁→光明池駅",
    "stop": "光明台一丁目西",
    "passTime": "07:39",
    "vehicleType": "南海バス(車椅子・ベビーカー・ノンステップ)",
    "updateTime": "2026/07/20 07:41"
  },
  {
    "vehicleNum": "093032",
    "vehicleCd": "231",
    "vehicleCorpCd": "1",
    "running": true,
    "lat": 34.4365,
    "lon": 135.241,
    "route": "エアロプラザ→第２ターミナル(国内線・国際線)→エアロプラザ",
    "stop": "第2ターミナル国際線",
    "passTime": "07:37",
    "vehicleType": "南海バス",
    "updateTime": "2026/07/20 07:41"
  },
  {
    "vehicleNum": "093073",
    "vehicleCd": "370",
    "vehicleCorpCd": "1",
    "running": true,
    "lat": 34.492583,
    "lon": 135.414278,
    "route": "泉大津駅前→和泉中央駅→和泉青葉台",
    "stop": "池浦",
    "passTime": "07:39",
    "vehicleType": "南海バス(車椅子・ベビーカー・ノンステップ)",
    "updateTime": "2026/07/20 07:41"
  }
]