[
  {
    "vehicleNum": "070105",
    "vehicleCd": "403",
    "vehicleCorpCd": "1",
    "running": true,
    "lat": 34.498278,
    "lon": 135.548083,
    "route": "金剛駅前→狭山ニュータウンセンター→泉ヶ丘駅",
    "stop": "亀の甲",
    "passTime": "07:05",
    "vehicleType": "泉北コミュニティバス(車椅子・ベビーカー・ノンステップ)",
    "updateTime": "2026/07/22 07:06"
  },
  {
    "vehicleNum": "070104",
    "vehicleCd": "402",
    "vehicleCorpCd": "1",
    "running": true,
    "lat": 34.478583,
    "lon": 135.548389,
    "route": "金剛駅前→狭山ニュータウンセンター→泉ヶ丘駅",
    "stop": "南中学校前",
    "passTime": "07:05",
    "vehicleType": "泉北コミュニティバス(車椅子・ベビーカー・ノンステップ)",
    "updateTime": "2026/07/22 07:06"
  },
  {
    "vehicleNum": "070108",
    "vehicleCd": "406",
    "vehicleCorpCd": "1",
    "running": true,
    "lat": 34.490889,
    "lon": 135.5205,
    "route": "泉ヶ丘駅→狭山ニュータウンセンター→金剛駅前",
    "stop": "茶山台２丁",
    "passTime": "07:05",
    "vehicleType": "泉北コミュニティバス(車椅子・ベビーカー・ノンステップ)",
    "updateTime": "2026/07/22 07:06"
  },
  {
    "vehicleNum": "070189",
    "vehicleCd": "67",
    "vehicleCorpCd": "1",
    "running": true,
    "lat": 34.5915,
    "lon": 135.474083,
    "route": "【急行】阪和堺市駅前→海浜匠町",
    "stop": "阪和堺市駅前",
    "passTime": "06:47",
    "vehicleType": "南海バス(車椅子・ベビーカー・ワンステップ)",
    "updateTime": "2026/07/22 07:06"
  },
  {
    "vehicleNum": "071601",
    "vehicleCd": "408",
    "vehicleCorpCd": "1",
    "running": true,
    "lat": 34.580889,
    "lon": 135.470778,
    "route": "堺東駅前→大小路→堺駅前",
    "stop": "市小学校前",
    "passTime": "07:03",
    "vehicleType": "堺シャトル(車椅子・ベビーカー・ノンステップ)",
    "updateTime": "2026/07/22 07:06"
  },
  {
    "vehicleNum": "071604",
    "vehicleCd": "217",
    "vehicleCorpCd": "1",
    "running": true,
    "lat": 34.575083,
    "lon": 135.480194,
    "route": "堺駅前→大小路→堺東駅前",
    "stop": "熊野小学校前",
    "passTime": "07:04",
    "vehicleType": "堺シャトル(車椅子・ベビーカー・ノンステップ)",
    "updateTime": "2026/07/22 07:06"
  },
  {
    "vehicleNum": "080088",
    "vehicleCd": "442",
    "vehicleCorpCd": "1",
    "running": true,
    "lat": 34.497194,
    "lon": 135.569694,
    "route": "金剛駅前→寺池台小学校前→金剛駅前",
    "stop": "高辺台三丁目",
    "passTime": "07:05",
    "vehicleType": "南海バス(車椅子・ベビーカー・ワンステップ)",
    "updateTime": "2026/07/22 07:06"
  },
  {
    "vehicleNum": "080134",
    "vehicleCd": "118",
    "vehicleCorpCd": "2",
    "running": true,
    "lat": 34.4005,
    "lon": 135.363389,
    "route": "熊取ニュータウン→熊取駅前",
    "stop": "小垣内",
    "passTime": "07:05",
    "vehicleType": "南海ウイングバス(車椅子・ベビーカー・ワンステップ)",
    "updateTime": "2026/07/22 07:06"
  },
  {
    "vehicleNum": "080184",
    "vehicleCd": "34",
    "vehicleCorpCd": "2",
    "running": true,
    "lat": 34.388778,
    "lon": 135.35,
    "route": "つばさが丘北口→熊取駅前",
    "stop": "原子力研究所前",
    "passTime": "07:05",
    "vehicleType": "南海ウイングバス(車椅子・ベビーカー・ノンステップ)",
    "updateTime": "2026/07/22 07:06"
  },
  {
    "vehicleNum": "080187",
    "vehicleCd": "66",
    "vehicleCorpCd": "1",
    "running": true,
    "lat": 34.593278,
    "lon": 135.458,
    "route": "堺東駅前→綾の町電停前→匠町",
    "stop": "塩浜町",
    "passTime": "07:04",
    "vehicleType": "南海バス(車椅子・ベビーカー・ノンステップ)",
    "updateTime": "2026/07/22 07:06"
  },
  {
    "vehicleNum": "080191",
    "vehicleCd": "68",
    "vehicleCorpCd": "1",
    "running": true,
    "lat": 34.573278,
    "lon": 135.469194,
    "route": "堺駅前→塩穴通",
    "stop": "堺駅前",
    "passTime": "07:00",
    "vehicleType": "南海バス(車椅子・ベビーカー・ワンステップ)",
    "updateTime": "2026/07/22 07:06"
  },
  {
    "vehicleNum": "080270",
    "vehicleCd": "86",
    "vehicleCorpCd": "2",
    "running": true,
    "lat": 34.334,
    "lon": 135.219778,
    "route": "箱作駅前→桃の木台回り→箱作駅前",
    "stop": "箱作駅前",
    "passTime": "07:03",
    "vehicleType": "南海バス(車椅子・ワンステップ)",
    "updateTime": "2026/07/22 07:06"
  },
  {
    "vehicleNum": "080315",
    "vehicleCd": "80",
    "vehicleCorpCd": "1",
    "running": true,
    "lat": 34.568083,
    "lon": 135.485194,
    "route": "地下鉄新金岡駅前→堺駅南口",
    "stop": "永山園",
    "passTime": "07:05",
    "vehicleType": "南海バス(車椅子・ベビーカー・ワンステップ)",
    "updateTime": "2026/07/22 07:06"
  },
  {
    "vehicleNum": "080319",
    "vehicleCd": "84",
    "vehicleCorpCd": "1",
    "running": true,
    "lat": 34.598778,
    "lon": 135.470278,
    "route": "住之江公園駅前→匠町",
    "stop": "住之江公園駅前",
    "passTime": "07:01",
    "vehicleType": "南海バス(車椅子・ベビーカー・ワンステップ)",
    "updateTime": "2026/07/22 07:06"
  },
  {
    "vehicleNum": "080316",
    "vehicleCd": "81",
    "vehicleCorpCd": "1",
    "running": true,
    "lat": 34.602194,
    "lon": 135.451694,
    "route": "堺東駅前→堺駅西口→海山通四丁→堺東駅前",
    "stop": "Jグリーン堺南口",
    "passTime": "07:03",
    "vehicleType": "南海バス(車椅子・ベビーカー・ワンステップ)",
    "updateTime": "2026/07/22 07:06"
  },
  {
    "vehicleNum": "080322",
    "vehicleCd": "116",
    "vehicleCorpCd": "2",
    "running": true,
    "lat": 34.372889,
    "lon": 135.350389,
    "route": "泉佐野駅前→野々地蔵北→日根野駅前→犬鳴山",
    "stop": "頓田",
    "passTime": "07:06",
    "vehicleType": "南海ウイングバス(車椅子・ワンステップ)",
    "updateTime": "2026/07/22 07:06"
  },
  {
    "vehicleNum": "080323",
    "vehicleCd": "59",
    "vehicleCorpCd": "2",
    "running": true,
    "lat": 34.412889,
    "lon": 135.438778,
    "route": "牛滝温泉→内畑→岸和田駅前",
    "stop": "内畑",
    "passTime": "07:06",
    "vehicleType": "南海ウイングバス(車椅子・ワンステップ)",
    "updateTime": "2026/07/22 07:06"
  },
  {
    "vehicleNum": "080384",
    "vehicleCd": "444",
    "vehicleCorpCd": "1",
    "running": true,
    "lat": 34.590694,
    "lon": 135.476472,
    "route": "【急行】瓦町公園前→海浜匠町",
    "stop": "瓦町公園前",
    "passTime": "07:00",
    "vehicleType": "南海バス(車椅子・ワンステップ)",
    "updateTime": "2026/07/22 07:06"
  },
  {
    "vehicleNum": "080388",
    "vehicleCd": "52",
    "vehicleCorpCd": "2",
    "running": true,
    "lat": 34.395083,
    "lon": 135.360083,
    "route": "山の手台→小谷→熊取駅前→泉陽ヶ丘→泉佐野駅前",
    "stop": "山の手台口",
    "passTime": "07:05",
    "vehicleType": "南海ウイングバス(車椅子・ベビーカー・ワンステップ)",
    "updateTime": "2026/07/22 07:06"
  },
  {
    "vehicleNum": "080412",
    "vehicleCd": "115",
    "vehicleCorpCd": "2",
    "running": true,
    "lat": 34.404083,
    "lon": 135.345194,
    "route": "泉佐野駅前→ダンバラ公園前→熊取駅前→大阪体育大学前",
    "stop": "熊取駅前",
    "passTime": "07:04",
    "vehicleType": "南海ウイングバス(車椅子・ベビーカー・ノンステップ)",
    "updateTime": "2026/07/22 07:06"
  },
  {
    "vehicleNum": "080482",
    "vehicleCd": "156",
    "vehicleCorpCd": "1",
    "running": true,
    "lat": 34.555,
    "lon": 135.500889,
    "route": "北野田駅前→福町→堺駅南口",
    "stop": "中もず駅前通",
    "passTime": "07:02",
    "vehicleType": "南海バス(車椅子・ベビーカー・ノンステップ)",
    "updateTime": "2026/07/22 07:06"
  },
  {
    "vehicleNum": "080483",
    "vehicleCd": "157",
    "vehicleCorpCd": "1",
    "running": true,
    "lat": 34.539278,
    "lon": 135.471583,
    "route": "中もず駅前→北条→堺市立総合医療センター前",
    "stop": "堺市立総合医療センター北",
    "passTime": "07:02",
    "vehicleType": "南海バス(車椅子・ベビーカー・ノンステップ)",
    "updateTime": "2026/07/22 07:06"
  },
  {
    "vehicleNum": "080628",
    "vehicleCd": "445",
    "vehicleCorpCd": "1",
    "running": true,
    "lat": 34.564083,
    "lon": 135.518083,
    "route": "地下鉄新金岡駅前→野遠→美原区役所",
    "stop": "金岡口",
    "passTime": "07:06",
    "vehicleType": "南海バス(車椅子・ベビーカー・ノンステップ)",
    "updateTime": "2026/07/22 07:06"
  },
  {
    "vehicleNum": "080644",
    "vehicleCd": "452",
    "vehicleCorpCd": "1",
    "running": true,
    "lat": 34.561194,
    "lon": 135.473778,
    "route": "堺東駅前→緑ヶ丘",
    "stop": "旭ヶ丘北町",
    "passTime": "07:05",
    "vehicleType": "南海バス(車椅子・ベビーカー・ノンステップ)",
    "updateTime": "2026/07/22 07:06"
  },
  {
    "vehicleNum": "080643",
    "vehicleCd": "94",
    "vehicleCorpCd": "1",
    "running": true,
    "lat": 34.544889,
    "lon": 135.463389,
    "route": "堺東駅前→鳳駅前→光明池駅",
    "stop": "下田",
    "passTime": "07:05",
    "vehicleType": "南海バス(車椅子・ベビーカー・ノンステップ)",
    "updateTime": "2026/07/22 07:06"
  },
  {
    "vehicleNum": "080651",
    "vehicleCd": "455",
    "vehicleCorpCd": "1",
    "running": true,
    "lat": 34.522583,
    "lon": 135.542278,
    "route": "北野田駅前→多治井北（循環）→北野田駅前",
    "stop": "北野田駅前",
    "passTime": "07:05",
    "vehicleType": "南海バス",
    "updateTime": "2026/07/22 07:06"
  },
  {
    "vehicleNum": "080652",
    "vehicleCd": "456",
    "vehicleCorpCd": "1",
    "running": true,
    "lat": 34.548083,
    "lon": 135.542,
    "route": "美原区役所→初芝駅前→美原区役所",
    "stop": "菩提",
    "passTime": "07:05",
    "vehicleType": "南海バス",
    "updateTime": "2026/07/22 07:06"
  },
  {
    "vehicleNum": "080698",
    "vehicleCd": "531",
    "vehicleCorpCd": "1",
    "running": true,
    "lat": 34.5775,
    "lon": 135.488,
    "route": "【急行】阪和堺市駅前→海浜匠町",
    "stop": "阪和堺市駅前",
    "passTime": "07:00",
    "vehicleType": "南海バス",
    "updateTime": "2026/07/22 07:06"
  },
  {
    "vehicleNum": "080706",
    "vehicleCd": "543",
    "vehicleCorpCd": "1",
    "running": true,
    "lat": 34.5745,
    "lon": 135.474194,
    "route": "堺駅前→堺東駅前→河内松原駅前",
    "stop": "大寺南門山之口前",
    "passTime": "07:04",
    "vehicleType": "南海バス(車椅子・ベビーカー・ノンステップ)",
    "updateTime": "2026/07/22 07:06"
  },
  {
    "vehicleNum": "080707",
    "vehicleCd": "544",
    "vehicleCorpCd": "1",
    "running": true,
    "lat": 34.583278,
    "lon": 135.467972,
    "route": "堺駅西口→匠町",
    "stop": "堺駅西口",
    "passTime": "07:05",
    "vehicleType": "南海バス(車椅子・ベビーカー・ノンステップ)",
    "updateTime": "2026/07/22 07:06"
  },
  {
    "vehicleNum": "080709",
    "vehicleCd": "5",
    "vehicleCorpCd": "2",
    "running": true,
    "lat": 34.451389,
    "lon": 135.381889,
    "route": "岸和田駅前→天神山・一の宮循環　右回り→岸和田駅前",
    "stop": "岸和田警察署前",
    "passTime": "07:02",
    "vehicleType": "南海ウイングバス(車椅子・ベビーカー・ノンステップ)",
    "updateTime": "2026/07/22 07:06"
  },
  {
    "vehicleNum": "080734",
    "vehicleCd": "415",
    "vehicleCorpCd": "1",
    "running": true,
    "lat": 34.558194,
    "lon": 135.541778,
    "route": "美原区役所→野遠→地下鉄新金岡駅前",
    "stop": "出屋敷",
    "passTime": "07:04",
    "vehicleType": "南海バス",
    "updateTime": "2026/07/22 07:06"
  },
  {
    "vehicleNum": "080744",
    "vehicleCd": "550",
    "vehicleCorpCd": "1",
    "running": true,
    "lat": 34.472389,
    "lon": 135.492889,
    "route": "栂・美木多駅→御池台回り→栂・美木多駅",
    "stop": "庭代台１丁",
    "passTime": "07:04",
    "vehicleType": "南海バス(車椅子・ベビーカー・ノンステップ)",
    "updateTime": "2026/07/22 07:06"
  },
  {
    "vehicleNum": "080745",
    "vehicleCd": "57",
    "vehicleCorpCd": "1",
    "running": true,
    "lat": 34.498694,
    "lon": 135.556194,
    "route": "金剛駅前→泉ヶ丘駅→近大キャンパス前→金剛駅前",
    "stop": "金剛駅前（西側）",
    "passTime": "07:04",
    "vehicleType": "南海バス(車椅子・ベビーカー・ノンステップ)",
    "updateTime": "2026/07/22 07:06"
  },
  {
    "vehicleNum": "080747",
    "vehicleCd": "161",
    "vehicleCorpCd": "1",
    "running": true,
    "lat": 34.585278,
    "lon": 135.487083,
    "route": "堺東駅前→錦綾町→河内天美駅前",
    "stop": "錦綾町",
    "passTime": "07:05",
    "vehicleType": "南海バス(車椅子・ベビーカー・ノンステップ)",
    "updateTime": "2026/07/22 07:06"
  },
  {
    "vehicleNum": "080751",
    "vehicleCd": "551",
    "vehicleCorpCd": "1",
    "running": true,
    "lat": 34.566694,
    "lon": 135.464583,
    "route": "堺駅南口→堺駅前",
    "stop": "東湊３丁",
    "passTime": "07:06",
    "vehicleType": "南海バス(車椅子・ベビーカー・ノンステップ)",
    "updateTime": "2026/07/22 07:06"
  },
  {
    "vehicleNum": "080753",
    "vehicleCd": "552",
    "vehicleCorpCd": "1",
    "running": true,
    "lat": 34.494972,
    "lon": 135.524583,
    "route": "泉ヶ丘駅→スマ・エコタウン晴美台→高倉台右回り→泉ヶ丘駅",
    "stop": "高倉台センター",
    "passTime": "07:06",
    "vehicleType": "南海バス(車椅子・ベビーカー・ノンステップ)",
    "updateTime": "2026/07/22 07:06"
  },
  {
    "vehicleNum": "080754",
    "vehicleCd": "428",
    "vehicleCorpCd": "1",
    "running": true,
    "lat": 34.503972,
    "lon": 135.505083,
    "route": "泉ヶ丘駅→深阪→津久野駅前",
    "stop": "古畑",
    "passTime": "07:05",
    "vehicleType": "南海バス(車椅子・ベビーカー・ノンステップ)",
    "updateTime": "2026/07/22 07:06"
  },
  {
    "vehicleNum": "080764",
    "vehicleCd": "563",
    "vehicleCorpCd": "1",
    "running": true,
    "lat": 34.525778,
    "lon": 135.479583,
    "route": "津久野駅前→鈴の宮団地センター→深井駅",
    "stop": "鈴の宮団地東口",
    "passTime": "07:05",
    "vehicleType": "南海バス(車椅子・ベビーカー・ノンステップ)",
    "updateTime": "2026/07/22 07:06"
  },
  {
    "vehicleNum": "080758",
    "vehicleCd": "511",
    "vehicleCorpCd": "1",
    "running": true,
    "lat": 34.491278,
    "lon": 135.527778,
    "route": "泉ヶ丘駅→晴美台右回り→泉ヶ丘駅",
    "stop": "高倉台４丁",
    "passTime": "07:05",
    "vehicleType": "南海バス(車椅子・ベビーカー・ノンステップ)",
    "updateTime": "2026/07/22 07:06"
  },
  {
    "vehicleNum": "080761",
    "vehicleCd": "560",
    "vehicleCorpCd": "1",
    "running": true,
    "lat": 34.574694,
    "lon": 135.513778,
    "route": "河内松原駅前→阪和堺市駅前→堺駅前",
    "stop": "蔵前西",
    "passTime": "07:05",
    "vehicleType": "南海バス(車椅子・ベビーカー・ノンステップ)",
    "updateTime": "2026/07/22 07:06"
  },
  {
    "vehicleNum": "080766",
    "vehicleCd": "565",
    "vehicleCorpCd": "1",
    "running": true,
    "lat": 34.508389,
    "lon": 135.523694,
    "route": "あみだ池→田園→深井駅",
    "stop": "見野山",
    "passTime": "07:05",
    "vehicleType": "南海バス(車椅子・ベビーカー・ノンステップ)",
    "updateTime": "2026/07/22 07:06"
  },
  {
    "vehicleNum": "080767",
    "vehicleCd": "566",
    "vehicleCorpCd": "1",
    "running": true,
    "lat": 34.575194,
    "lon": 135.472583,
    "route": "下出口→大の芝→堺駅南口",
    "stop": "大寺南門山之口前",
    "passTime": "07:04",
    "vehicleType": "南海バス(車椅子・ベビーカー・ノンステップ)",
    "updateTime": "2026/07/22 07:06"
  },
  {
    "vehicleNum": "080787",
    "vehicleCd": "301",
    "vehicleCorpCd": "1",
    "running": true,
    "lat": 34.565194,
    "lon": 135.517583,
    "route": "阪和堺市駅前→堺駅南口",
    "stop": "北区役所前",
    "passTime": "07:06",
    "vehicleType": "南海バス(車椅子・ベビーカー・ノンステップ)",
    "updateTime": "2026/07/22 07:06"
  },
  {
    "vehicleNum": "080793",
    "vehicleCd": "112",
    "vehicleCorpCd": "1",
    "running": true,
    "lat": 34.582389,
    "lon": 135.468583,
    "route": "堺駅西口→錦綾町→堺東駅前",
    "stop": "堺駅西口",
    "passTime": "07:06",
    "vehicleType": "南海バス(車椅子・ベビーカー・ノンステップ)",
    "updateTime": "2026/07/22 07:06"
  },
  {
    "vehicleNum": "080795",
    "vehicleCd": "43",
    "vehicleCorpCd": "1",
    "running": true,
    "lat": 34.574694,
    "lon": 135.504583,
    "route": "堺駅前→堺東駅前→河内松原駅前",
    "stop": "警察学校前（堺市）",
    "passTime": "07:05",
    "vehicleType": "南海バス(車椅子・ベビーカー・ノンステップ)",
    "updateTime": "2026/07/22 07:06"
  },
  {
    "vehicleNum": "080806",
    "vehicleCd": "307",
    "vehicleCorpCd": "1",
    "running": true,
    "lat": 34.5815,
    "lon": 135.469889,
    "route": "堺駅前→塩穴通",
    "stop": "堺駅前",
    "passTime": "07:05",
    "vehicleType": "南海バス(車椅子・ベビーカー・ノンステップ)",
    "updateTime": "2026/07/22 07:06"
  },
  {
    "vehicleNum": "080807",
    "vehicleCd": "223",
    "vehicleCorpCd": "1",
    "running": true,
    "lat": 34.579194,
    "lon": 135.474278,
    "route": "堺東駅前→材木町→堺駅西口",
    "stop": "大小路",
    "passTime": "07:06",
    "vehicleType": "南海バス(車椅子・ベビーカー・ノンステップ)",
    "updateTime": "2026/07/22 07:06"
  },
  {
    "vehicleNum": "080808",
    "vehicleCd": "216",
    "vehicleCorpCd": "1",
    "running": true,
    "lat": 34.589,
    "lon": 135.532889,
    "route": "堺東駅前→錦綾町→河内天美駅前",
    "stop": "天美西",
    "passTime": "07:04",
    "vehicleType": "南海バス(車椅子・ベビーカー・ノンステップ)",
    "updateTime": "2026/07/22 07:06"
  },
  {
    "vehicleNum": "080809",
    "vehicleCd": "215",
    "vehicleCorpCd": "1",
    "running": true,
    "lat": 34.589,
    "lon": 135.528889,
    "route": "河内天美駅前→天美我堂→堺東駅前",
    "stop": "天美西",
    "passTime": "07:04",
    "vehicleType": "南海バス(車椅子・ベビーカー・ノンステップ)",
    "updateTime": "2026/07/22 07:06"
  },
  {
    "vehicleNum": "080825",
    "vehicleCd": "261",
    "vehicleCorpCd": "1",
    "running": true,
    "lat": 34.567583,
    "lon": 135.489194,
    "route": "北野田駅前→西口園→堺駅南口",
    "stop": "三国ヶ丘駅前",
    "passTime": "07:05",
    "vehicleType": "南海バス(車椅子・ベビーカー・ノンステップ)",
    "updateTime": "2026/07/22 07:06"
  },
  {
    "vehicleNum": "080827",
    "vehicleCd": "317",
    "vehicleCorpCd": "1",
    "running": true,
    "lat": 34.5795,
    "lon": 135.467194,
    "route": "堺駅南口→阪和堺市駅",
    "stop": "堺駅南口",
    "passTime": "07:06",
    "vehicleType": "南海バス(車椅子・ベビーカー・ノンステップ)",
    "updateTime": "2026/07/22 07:06"
  },
  {
    "vehicleNum": "080815",
    "vehicleCd": "575",
    "vehicleCorpCd": "1",
    "running": true,
    "lat": 34.513778,
    "lon": 135.485,
    "route": "泉ヶ丘駅→泉北２号線→津久野駅前",
    "stop": "平井大橋",
    "passTime": "07:05",
    "vehicleType": "南海バス(車椅子・ベビーカー・ノンステップ)",
    "updateTime": "2026/07/22 07:06"
  },
  {
    "vehicleNum": "080835",
    "vehicleCd": "310",
    "vehicleCorpCd": "1",
    "running": true,
    "lat": 34.497583,
    "lon": 135.582694,
    "route": "金剛駅前→高辺台小学校前→金剛駅前",
    "stop": "小金台２丁目",
    "passTime": "07:06",
    "vehicleType": "南海バス(車椅子・ベビーカー・ノンステップ)",
    "updateTime": "2026/07/22 07:06"
  },
  {
    "vehicleNum": "080836",
    "vehicleCd": "268",
    "vehicleCorpCd": "1",
    "running": true,
    "lat": 34.570778,
    "lon": 135.481694,
    "route": "河内松原駅前→阪和堺市駅前→堺駅前",
    "stop": "堺東駅前",
    "passTime": "07:03",
    "vehicleType": "南海バス(車椅子・ベビーカー・ノンステップ)",
    "updateTime": "2026/07/22 07:06"
  },
  {
    "vehicleNum": "080838",
    "vehicleCd": "129",
    "vehicleCorpCd": "1",
    "running": true,
    "lat": 34.579889,
    "lon": 135.4855,
    "route": "河内天美駅前→天美我堂→堺東駅前",
    "stop": "中向陽町",
    "passTime": "07:05",
    "vehicleType": "南海バス(車椅子・ベビーカー・ノンステップ)",
    "updateTime": "2026/07/22 07:06"
  },
  {
    "vehicleNum": "080844",
    "vehicleCd": "581",
    "vehicleCorpCd": "1",
    "running": true,
    "lat": 34.503389,
    "lon": 135.571472,
    "route": "金剛駅前→向陽・藤沢回り→金剛駅前",
    "stop": "葛城中学校前",
    "passTime": "07:05",
    "vehicleType": "南海バス(車椅子・ベビーカー・ノンステップ)",
    "updateTime": "2026/07/22 07:06"
  },
  {
    "vehicleNum": "080845",
    "vehicleCd": "319",
    "vehicleCorpCd": "1",
    "running": true,
    "lat": 34.531972,
    "lon": 135.459472,
    "route": "石津川駅前→浜寺公園駅前通→鳳駅前→堺市立総合医療センター前",
    "stop": "鳳駅前",
    "passTime": "07:05",
    "vehicleType": "南海バス(車椅子・ベビーカー・ノンステップ)",
    "updateTime": "2026/07/22 07:06"
  },
  {
    "vehicleNum": "080846",
    "vehicleCd": "224",
    "vehicleCorpCd": "1",
    "running": true,
    "lat": 34.506194,
    "lon": 135.578778,
    "route": "中央センター前→向陽・藤沢回り→金剛駅前",
    "stop": "向陽台３丁目",
    "passTime": "07:06",
    "vehicleType": "南海バス(車椅子・ベビーカー・ノンステップ)",
    "updateTime": "2026/07/22 07:06"
  },
  {
    "vehicleNum": "080854",
    "vehicleCd": "17",
    "vehicleCorpCd": "1",
    "running": true,
    "lat": 34.567583,
    "lon": 135.502389,
    "route": "堺駅南口→地下鉄新金岡駅前",
    "stop": "黒土町",
    "passTime": "07:06",
    "vehicleType": "南海バス(車椅子・ベビーカー・ノンステップ)",
    "updateTime": "2026/07/22 07:06"
  },
  {
    "vehicleNum": "080856",
    "vehicleCd": "358",
    "vehicleCorpCd": "1",
    "running": true,
    "lat": 34.496,
    "lon": 135.564694,
    "route": "中央センター前→向陽・藤沢回り→金剛駅前",
    "stop": "久野喜台二丁目",
    "passTime": "07:05",
    "vehicleType": "南海バス(車椅子・ベビーカー・ワンステップ)",
    "updateTime": "2026/07/22 07:06"
  },
  {
    "vehicleNum": "080857",
    "vehicleCd": "226",
    "vehicleCorpCd": "1",
    "running": true,
    "lat": 34.573389,
    "lon": 135.469278,
    "route": "堺駅南口→堺駅前",
    "stop": "寺地町",
    "passTime": "07:05",
    "vehicleType": "南海バス(車椅子・ベビーカー・ノンステップ)",
    "updateTime": "2026/07/22 07:06"
  },
  {
    "vehicleNum": "080865",
    "vehicleCd": "504",
    "vehicleCorpCd": "1",
    "running": true,
    "lat": 34.574278,
    "lon": 135.482778,
    "route": "堺駅前→堺駅南口",
    "stop": "堺東駅前",
    "passTime": "07:06",
    "vehicleType": "南海バス(車椅子・ベビーカー・ノンステップ)",
    "updateTime": "2026/07/22 07:06"
  },
  {
    "vehicleNum": "080868",
    "vehicleCd": "237",
    "vehicleCorpCd": "1",
    "running": true,
    "lat": 34.463083,
    "lon": 135.506389,
    "route": "栂・美木多駅→御池台回り→栂・美木多駅",
    "stop": "御池台４丁",
    "passTime": "07:06",
    "vehicleType": "南海バス(車椅子・ベビーカー・ノンステップ)",
    "updateTime": "2026/07/22 07:06"
  },
  {
    "vehicleNum": "080866",
    "vehicleCd": "497",
    "vehicleCorpCd": "1",
    "running": true,
    "lat": 34.505083,
    "lon": 135.569194,
    "route": "金剛駅前→向陽・藤沢回り→金剛駅前",
    "stop": "藤沢台２丁目",
    "passTime": "07:06",
    "vehicleType": "南海バス(車椅子・ベビーカー・ノンステップ)",
    "updateTime": "2026/07/22 07:06"
  },
  {
    "vehicleNum": "080875",
    "vehicleCd": "485",
    "vehicleCorpCd": "1",
    "running": true,
    "lat": 34.502,
    "lon": 135.529583,
    "route": "泉ヶ丘駅→スマ・エコタウン晴美台→高倉台右回り→泉ヶ丘駅",
    "stop": "三原台４丁",
    "passTime": "07:05",
    "vehicleType": "南海バス(車椅子・ベビーカー・ノンステップ)",
    "updateTime": "2026/07/22 07:06"
  },
  {
    "vehicleNum": "080877",
    "vehicleCd": "588",
    "vehicleCorpCd": "1",
    "running": true,
    "lat": 34.522083,
    "lon": 135.528389,
    "route": "北野田駅前→福町→堺駅南口",
    "stop": "福町",
    "passTime": "07:05",
    "vehicleType": "南海バス(車椅子・ベビーカー・ノンステップ)",
    "updateTime": "2026/07/22 07:06"
  },
  {
    "vehicleNum": "080876",
    "vehicleCd": "390",
    "vehicleCorpCd": "1",
    "running": true,
    "lat": 34.5475,
    "lon": 135.522194,
    "route": "中もず駅前→平尾→初芝駅前",
    "stop": "引野",
    "passTime": "07:06",
    "vehicleType": "南海バス(車椅子・ベビーカー・ノンステップ)",
    "updateTime": "2026/07/22 07:06"
  },
  {
    "vehicleNum": "080878",
    "vehicleCd": "368",
    "vehicleCorpCd": "1",
    "running": true,
    "lat": 34.521083,
    "lon": 135.5115,
    "route": "北野田駅前→福町→深井駅",
    "stop": "高山",
    "passTime": "07:06",
    "vehicleType": "南海バス(車椅子・ベビーカー・ノンステップ)",
    "updateTime": "2026/07/22 07:06"
  },
  {
    "vehicleNum": "080879",
    "vehicleCd": "359",
    "vehicleCorpCd": "1",
    "running": true,
    "lat": 34.525278,
    "lon": 135.479583,
    "route": "深井駅→八田荘団地→津久野駅前",
    "stop": "鈴の宮団地東口",
    "passTime": "07:06",
    "vehicleType": "南海バス(車椅子・ベビーカー・ノンステップ)",
    "updateTime": "2026/07/22 07:06"
  },
  {
    "vehicleNum": "080880",
    "vehicleCd": "360",
    "vehicleCorpCd": "1",
    "running": true,
    "lat": 34.570889,
    "lon": 135.482,
    "route": "堺東駅前→白鷺駅前→堺東駅前（循環）",
    "stop": "堺東駅前",
    "passTime": "07:04",
    "vehicleType": "南海バス(車椅子・ベビーカー・ノンステップ)",
    "updateTime": "2026/07/22 07:06"
  },
  {
    "vehicleNum": "080894",
    "vehicleCd": "350",
    "vehicleCorpCd": "1",
    "running": true,
    "lat": 34.542194,
    "lon": 135.557583,
    "route": "美原区役所→初芝駅前→美原区役所",
    "stop": "美原区役所前",
    "passTime": "07:04",
    "vehicleType": "南海バス(車椅子・ベビーカー・ノンステップ)",
    "updateTime": "2026/07/22 07:06"
  },
  {
    "vehicleNum": "080899",
    "vehicleCd": "498",
    "vehicleCorpCd": "1",
    "running": true,
    "lat": 34.595,
    "lon": 135.461389,
    "route": "【急行】堺駅西口→海浜匠町",
    "stop": "堺駅西口",
    "passTime": "06:58",
    "vehicleType": "南海バス(車椅子・ベビーカー・ワンステップ)",
    "updateTime": "2026/07/22 07:06"
  },
  {
    "vehicleNum": "080900",
    "vehicleCd": "386",
    "vehicleCorpCd": "1",
    "running": true,
    "lat": 34.584389,
    "lon": 135.468583,
    "route": "【急行】堺駅西口→海浜匠町",
    "stop": "堺駅西口",
    "passTime": "07:04",
    "vehicleType": "南海バス(車椅子・ベビーカー・ワンステップ)",
    "updateTime": "2026/07/22 07:06"
  },
  {
    "vehicleNum": "080904",
    "vehicleCd": "362",
    "vehicleCorpCd": "1",
    "running": true,
    "lat": 34.551194,
    "lon": 135.516778,
    "route": "平尾→初芝駅前→中もず駅前",
    "stop": "金田新田",
    "passTime": "07:06",
    "vehicleType": "南海バス(車椅子・ベビーカー・ノンステップ)",
    "updateTime": "2026/07/22 07:06"
  },
  {
    "vehicleNum": "080905",
    "vehicleCd": "353",
    "vehicleCorpCd": "1",
    "running": true,
    "lat": 34.487472,
    "lon": 135.522694,
    "route": "泉ヶ丘駅→帝塚山学院泉ヶ丘校前→金剛駅前",
    "stop": "茶山台南口",
    "passTime": "07:05",
    "vehicleType": "南海バス(車椅子・ベビーカー・ノンステップ)",
    "updateTime": "2026/07/22 07:06"
  },
  {
    "vehicleNum": "080907",
    "vehicleCd": "499",
    "vehicleCorpCd": "1",
    "running": true,
    "lat": 34.510083,
    "lon": 135.497583,
    "route": "津久野駅前→堺市立総合医療センター前→八田荘団地→泉ヶ丘駅",
    "stop": "宮山台４丁",
    "passTime": "07:05",
    "vehicleType": "南海バス(車椅子・ベビーカー・ノンステップ)",
    "updateTime": "2026/07/22 07:06"
  },
  {
    "vehicleNum": "080912",
    "vehicleCd": "372",
    "vehicleCorpCd": "1",
    "running": true,
    "lat": 34.592583,
    "lon": 135.457083,
    "route": "阪和堺市駅前→堺駅西口→匠町",
    "stop": "塩浜町",
    "passTime": "07:04",
    "vehicleType": "南海バス(車椅子・ベビーカー・ノンステップ)",
    "updateTime": "2026/07/22 07:06"
  },
  {
    "vehicleNum": "080918",
    "vehicleCd": "419",
    "vehicleCorpCd": "1",
    "running": true,
    "lat": 34.584083,
    "lon": 135.483389,
    "route": "【急行】瓦町公園前→海浜匠町",
    "stop": "瓦町公園前",
    "passTime": "07:04",
    "vehicleType": "南海バス(車椅子・ベビーカー・ノンステップ)",
    "updateTime": "2026/07/22 07:06"
  },
  {
    "vehicleNum": "080927",
    "vehicleCd": "79",
    "vehicleCorpCd": "1",
    "running": true,
    "lat": 34.497389,
    "lon": 135.509583,
    "route": "津久野駅前→堺市立総合医療センター前→泉北２号線→泉ヶ丘駅",
    "stop": "竹城台３丁",
    "passTime": "07:04",
    "vehicleType": "南海バス(車椅子・ベビーカー・ノンステップ)",
    "updateTime": "2026/07/22 07:06"
  },
  {
    "vehicleNum": "080934",
    "vehicleCd": "594",
    "vehicleCorpCd": "1",
    "running": true,
    "lat": 34.609,
    "lon": 135.473583,
    "route": "住之江公園駅前→匠町",
    "stop": "住之江公園駅前",
    "passTime": "07:06",
    "vehicleType": "南海バス(車椅子・ベビーカー・ノンステップ)",
    "updateTime": "2026/07/22 07:06"
  },
  {
    "vehicleNum": "080937",
    "vehicleCd": "595",
    "vehicleCorpCd": "1",
    "running": true,
    "lat": 34.571,
    "lon": 135.4805,
    "route": "堺駅南口→三国ヶ丘駅前→北野田駅前",
    "stop": "一条通",
    "passTime": "07:06",
    "vehicleType": "南海バス(車椅子・ベビーカー・ノンステップ)",
    "updateTime": "2026/07/22 07:06"
  },
  {
    "vehicleNum": "080948",
    "vehicleCd": "276",
    "vehicleCorpCd": "1",
    "running": true,
    "lat": 34.550694,
    "lon": 135.5135,
    "route": "三国ヶ丘駅前→白鷺駅前→堺東駅前（循環）",
    "stop": "中もず団地前",
    "passTime": "07:05",
    "vehicleType": "南海バス(車椅子・ベビーカー・ノンステップ)",
    "updateTime": "2026/07/22 07:06"
  },
  {
    "vehicleNum": "080956",
    "vehicleCd": "71",
    "vehicleCorpCd": "1",
    "running": true,
    "lat": 34.628972,
    "lon": 135.431,
    "route": "堺東駅前→ＡＴＣ／フェリー→堺東駅前",
    "stop": "ポートタウン東",
    "passTime": "07:05",
    "vehicleType": "南海バス",
    "updateTime": "2026/07/22 07:06"
  },
  {
    "vehicleNum": "080950",
    "vehicleCd": "513",
    "vehicleCorpCd": "1",
    "running": true,
    "lat": 34.597389,
    "lon": 135.442278,
    "route": "【急行】堺駅西口→海浜匠町",
    "stop": "堺駅西口",
    "passTime": "06:53",
    "vehicleType": "南海バス(車椅子・ベビーカー・ノンステップ)",
    "updateTime": "2026/07/22 07:06"
  },
  {
    "vehicleNum": "080967",
    "vehicleCd": "605",
    "vehicleCorpCd": "1",
    "running": true,
    "lat": 34.536083,
    "lon": 135.553,
    "route": "初芝駅前→平尾→中もず駅前",
    "stop": "農芸高校前",
    "passTime": "07:05",
    "vehicleType": "南海バス(車椅子・ベビーカー・ノンステップ)",
    "updateTime": "2026/07/22 07:06"
  },
  {
    "vehicleNum": "080977",
    "vehicleCd": "388",
    "vehicleCorpCd": "1",
    "running": true,
    "lat": 34.5245,
    "lon": 135.506194,
    "route": "堺東駅前→もず駅前→深井駅→あみだ池",
    "stop": "北垣外",
    "passTime": "07:06",
    "vehicleType": "南海バス(車椅子・ベビーカー・ノンステップ)",
    "updateTime": "2026/07/22 07:06"
  },
  {
    "vehicleNum": "080978",
    "vehicleCd": "431",
    "vehicleCorpCd": "1",
    "running": true,
    "lat": 34.542472,
    "lon": 135.512472,
    "route": "堺駅南口→三国ヶ丘駅前→北野田駅前",
    "stop": "下茶屋",
    "passTime": "07:06",
    "vehicleType": "南海バス(車椅子・ベビーカー・ノンステップ)",
    "updateTime": "2026/07/22 07:06"
  },
  {
    "vehicleNum": "080989",
    "vehicleCd": "259",
    "vehicleCorpCd": "1",
    "running": true,
    "lat": 34.541889,
    "lon": 135.468083,
    "route": "堺東駅前→堀上緑町１丁→堺東駅前",
    "stop": "堺市立総合医療センター北",
    "passTime": "07:02",
    "vehicleType": "南海バス(車椅子・ベビーカー・ノンステップ)",
    "updateTime": "2026/07/22 07:06"
  },
  {
    "vehicleNum": "080994",
    "vehicleCd": "130",
    "vehicleCorpCd": "1",
    "running": true,
    "lat": 34.501583,
    "lon": 135.5225,
    "route": "泉ヶ丘駅→三原台左回り→泉ヶ丘駅",
    "stop": "三原台センター",
    "passTime": "07:06",
    "vehicleType": "南海バス(車椅子・ベビーカー・ノンステップ)",
    "updateTime": "2026/07/22 07:06"
  },
  {
    "vehicleNum": "080995",
    "vehicleCd": "118",
    "vehicleCorpCd": "1",
    "running": true,
    "lat": 34.494194,
    "lon": 135.511278,
    "route": "泉ヶ丘駅→槙塚台右回り→泉ヶ丘駅",
    "stop": "茶山台",
    "passTime": "07:04",
    "vehicleType": "南海バス(車椅子・ベビーカー・ノンステップ)",
    "updateTime": "2026/07/22 07:06"
  },
  {
    "vehicleNum": "080996",
    "vehicleCd": "191",
    "vehicleCorpCd": "1",
    "running": true,
    "lat": 34.538389,
    "lon": 135.542389,
    "route": "初芝駅前→平尾→初芝駅前",
    "stop": "北余部",
    "passTime": "07:05",
    "vehicleType": "南海バス(車椅子・ベビーカー・ノンステップ)",
    "updateTime": "2026/07/22 07:06"
  },
  {
    "vehicleNum": "080999",
    "vehicleCd": "493",
    "vehicleCorpCd": "1",
    "running": true,
    "lat": 34.539778,
    "lon": 135.514194,
    "route": "北野田駅前→西口園→堺駅南口",
    "stop": "新家町",
    "passTime": "07:06",
    "vehicleType": "南海バス(車椅子・ベビーカー・ノンステップ)",
    "updateTime": "2026/07/22 07:06"
  },
  {
    "vehicleNum": "081005",
    "vehicleCd": "272",
    "vehicleCorpCd": "1",
    "running": true,
    "lat": 34.524889,
    "lon": 135.487889,
    "route": "泉ヶ丘駅→宮山台中学校前→堺東駅前",
    "stop": "八田荘",
    "passTime": "07:06",
    "vehicleType": "南海バス(車椅子・ベビーカー・ノンステップ)",
    "updateTime": "2026/07/22 07:06"
  },
  {
    "vehicleNum": "081007",
    "vehicleCd": "127",
    "vehicleCorpCd": "1",
    "running": true,
    "lat": 34.543389,
    "lon": 135.475583,
    "route": "堀上緑町１丁→堺東駅前",
    "stop": "神野",
    "passTime": "07:06",
    "vehicleType": "南海バス(車椅子・ベビーカー・ノンステップ)",
    "updateTime": "2026/07/22 07:06"
  },
  {
    "vehicleNum": "081008",
    "vehicleCd": "47",
    "vehicleCorpCd": "1",
    "running": true,
    "lat": 34.522583,
    "lon": 135.533889,
    "route": "東山車庫前→北野田駅前",
    "stop": "伊勢道",
    "passTime": "07:06",
    "vehicleType": "南海バス(車椅子・ベビーカー・ノンステップ)",
    "updateTime": "2026/07/22 07:06"
  },
  {
    "vehicleNum": "081014",
    "vehicleCd": "229",
    "vehicleCorpCd": "1",
    "running": true,
    "lat": 34.555194,
    "lon": 135.492694,
    "route": "あみだ池→深井駅→もず駅前→堺東駅前",
    "stop": "赤畑町",
    "passTime": "07:06",
    "vehicleType": "南海バス(車椅子・ベビーカー・ノンステップ)",
    "updateTime": "2026/07/22 07:06"
  },
  {
    "vehicleNum": "081016",
    "vehicleCd": "239",
    "vehicleCorpCd": "1",
    "running": true,
    "lat": 34.496,
    "lon": 135.512083,
    "route": "明正→鉢ヶ峯→泉ヶ丘駅",
    "stop": "茶山台",
    "passTime": "07:03",
    "vehicleType": "南海バス(車椅子・ベビーカー・ノンステップ)",
    "updateTime": "2026/07/22 07:06"
  },
  {
    "vehicleNum": "081017",
    "vehicleCd": "135",
    "vehicleCorpCd": "1",
    "running": true,
    "lat": 34.477194,
    "lon": 135.491694,
    "route": "栂・美木多駅→庭代台右回り→栂・美木多駅",
    "stop": "原山台３丁",
    "passTime": "07:06",
    "vehicleType": "南海バス(車椅子・ベビーカー・ノンステップ)",
    "updateTime": "2026/07/22 07:06"
  },
  {
    "vehicleNum": "081024",
    "vehicleCd": "270",
    "vehicleCorpCd": "1",
    "running": true,
    "lat": 34.564778,
    "lon": 135.476583,
    "route": "東山車庫前→小阪→堺東駅前",
    "stop": "大仙中町",
    "passTime": "07:06",
    "vehicleType": "南海バス(車椅子・ベビーカー・ノンステップ)",
    "updateTime": "2026/07/22 07:06"
  },
  {
    "vehicleNum": "081019",
    "vehicleCd": "267",
    "vehicleCorpCd": "1",
    "running": true,
    "lat": 34.555083,
    "lon": 135.480083,
    "route": "堺東駅前→上野芝→泉ヶ丘駅",
    "stop": "旭ヶ丘（堺市）",
    "passTime": "07:04",
    "vehicleType": "南海バス(車椅子・ベビーカー・ノンステップ)",
    "updateTime": "2026/07/22 07:06"
  },
  {
    "vehicleNum": "081034",
    "vehicleCd": "120",
    "vehicleCorpCd": "1",
    "running": true,
    "lat": 34.487889,
    "lon": 135.509694,
    "route": "畑→片蔵→泉ヶ丘駅",
    "stop": "若松台３丁",
    "passTime": "07:06",
    "vehicleType": "南海バス(車椅子・ベビーカー・ノンステップ)",
    "updateTime": "2026/07/22 07:06"
  },
  {
    "vehicleNum": "081036",
    "vehicleCd": "293",
    "vehicleCorpCd": "1",
    "running": true,
    "lat": 34.485194,
    "lon": 135.525,
    "route": "泉ヶ丘駅→槙塚台右回り→泉ヶ丘駅",
    "stop": "槙塚台１丁",
    "passTime": "07:06",
    "vehicleType": "南海バス(車椅子・ベビーカー・ノンステップ)",
    "updateTime": "2026/07/22 07:06"
  },
  {
    "vehicleNum": "081037",
    "vehicleCd": "236",
    "vehicleCorpCd": "1",
    "running": true,
    "lat": 34.485194,
    "lon": 135.524778,
    "route": "泉ヶ丘駅→晴美台右回り→泉ヶ丘駅",
    "stop": "槙塚台１丁",
    "passTime": "07:06",
    "vehicleType": "南海バス(車椅子・ベビーカー・ノンステップ)",
    "updateTime": "2026/07/22 07:06"
  },
  {
    "vehicleNum": "081040",
    "vehicleCd": "248",
    "vehicleCorpCd": "1",
    "running": true,
    "lat": 34.498694,
    "lon": 135.554472,
    "route": "泉ヶ丘駅→狭山ニュータウンセンター→金剛駅前",
    "stop": "亀の甲",
    "passTime": "07:05",
    "vehicleType": "南海バス(車椅子・ベビーカー・ノンステップ)",
    "updateTime": "2026/07/22 07:06"
  },
  {
    "vehicleNum": "081043",
    "vehicleCd": "612",
    "vehicleCorpCd": "1",
    "running": true,
    "lat": 34.540083,
    "lon": 135.470083,
    "route": "泉ヶ丘駅→深阪→津久野駅前",
    "stop": "文珠前",
    "passTime": "07:04",
    "vehicleType": "南海バス(車椅子・ベビーカー・ノンステップ)",
    "updateTime": "2026/07/22 07:06"
  },
  {
    "vehicleNum": "090144",
    "vehicleCd": "82",
    "vehicleCorpCd": "2",
    "running": true,
    "lat": 34.458,
    "lon": 135.450083,
    "route": "岸和田駅前→荒木町→和泉中央駅",
    "stop": "唐国南",
    "passTime": "07:06",
    "vehicleType": "南海ウイングバス(車椅子・ベビーカー・ワンステップ)",
    "updateTime": "2026/07/22 07:06"
  },
  {
    "vehicleNum": "090103",
    "vehicleCd": "49",
    "vehicleCorpCd": "2",
    "running": true,
    "lat": 34.457194,
    "lon": 135.424389,
    "route": "白原車庫→内畑→岸和田駅前",
    "stop": "岡山",
    "passTime": "07:06",
    "vehicleType": "南海ウイングバス(車椅子・ベビーカー・ワンステップ)",
    "updateTime": "2026/07/22 07:06"
  },
  {
    "vehicleNum": "090170",
    "vehicleCd": "117",
    "vehicleCorpCd": "2",
    "running": true,
    "lat": 34.470583,
    "lon": 135.401,
    "route": "和泉中央駅→荒木町→岸和田駅前",
    "stop": "下池田",
    "passTime": "07:04",
    "vehicleType": "南海ウイングバス",
    "updateTime": "2026/07/22 07:06"
  },
  {
    "vehicleNum": "090160",
    "vehicleCd": "72",
    "vehicleCorpCd": "2",
    "running": true,
    "lat": 34.408083,
    "lon": 135.321583,
    "route": "山の手台→小谷→熊取駅前→泉陽ヶ丘→泉佐野駅前",
    "stop": "上町１丁目",
    "passTime": "07:06",
    "vehicleType": "南海ウイングバス(車椅子・ワンステップ)",
    "updateTime": "2026/07/22 07:06"
  },
  {
    "vehicleNum": "091186",
    "vehicleCd": "106",
    "vehicleCorpCd": "2",
    "running": true,
    "lat": 34.410389,
    "lon": 135.412583,
    "route": "白原車庫→河合→岸和田警察署前→岸和田駅前",
    "stop": "船渡",
    "passTime": "07:05",
    "vehicleType": "南海ウイングバス(車椅子・ベビーカー・ワンステップ)",
    "updateTime": "2026/07/22 07:07"
  },
  {
    "vehicleNum": "091107",
    "vehicleCd": "23",
    "vehicleCorpCd": "2",
    "running": true,
    "lat": 34.450583,
    "lon": 135.435,
    "route": "和泉中央駅→道の駅愛彩ランド",
    "stop": "山直東",
    "passTime": "07:04",
    "vehicleType": "南海ウイングバス(車椅子・ワンステップ)",
    "updateTime": "2026/07/22 07:07"
  },
  {
    "vehicleNum": "091378",
    "vehicleCd": "135",
    "vehicleCorpCd": "2",
    "running": true,
    "lat": 34.410194,
    "lon": 135.338583,
    "route": "熊取ニュータウン→熊取駅前→上瓦屋町→泉佐野駅前",
    "stop": "佐野台口",
    "passTime": "07:06",
    "vehicleType": "南海ウイングバス(車椅子・ベビーカー・ノンステップ)",
    "updateTime": "2026/07/22 07:07"
  },
  {
    "vehicleNum": "091580",
    "vehicleCd": "85",
    "vehicleCorpCd": "2",
    "running": true,
    "lat": 34.3605,
    "lon": 135.3025,
    "route": "泉南市コミュニティバス 朝 新家回り",
    "stop": "ルナりんくう団地",
    "passTime": "07:06",
    "vehicleType": "南海ウイングバス(車椅子・ベビーカー・ノンステップ)",
    "updateTime": "2026/07/22 07:07"
  },
  {
    "vehicleNum": "091595",
    "vehicleCd": "199",
    "vehicleCorpCd": "1",
    "running": true,
    "lat": 34.426778,
    "lon": 135.227278,
    "route": "空港駅→給油地区",
    "stop": "貨物合同庁舎前",
    "passTime": "07:05",
    "vehicleType": "南海バス(車椅子・ノンステップ)",
    "updateTime": "2026/07/22 07:07"
  },
  {
    "vehicleNum": "091581",
    "vehicleCd": "198",
    "vehicleCorpCd": "1",
    "running": true,
    "lat": 34.425389,
    "lon": 135.228694,
    "route": "給油地区→空港駅",
    "stop": "第2代理店ビル前",
    "passTime": "07:06",
    "vehicleType": "南海バス(車椅子・ノンステップ)",
    "updateTime": "2026/07/22 07:07"
  },
  {
    "vehicleNum": "091737",
    "vehicleCd": "48",
    "vehicleCorpCd": "2",
    "running": true,
    "lat": 34.456389,
    "lon": 135.447194,
    "route": "道の駅愛彩ランド→包近→和泉中央駅",
    "stop": "山直東",
    "passTime": "07:03",
    "vehicleType": "南海ウイングバス(車椅子・ベビーカー・ワンステップ)",
    "updateTime": "2026/07/22 07:07"
  },
  {
    "vehicleNum": "091659",
    "vehicleCd": "204",
    "vehicleCorpCd": "1",
    "running": true,
    "lat": 34.435278,
    "lon": 135.242694,
    "route": "第１ターミナル→ポートターミナル",
    "stop": "旅客ターミナル",
    "passTime": "07:05",
    "vehicleType": "南海バス(車椅子・ノンステップ)",
    "updateTime": "2026/07/22 07:07"
  },
  {
    "vehicleNum": "091736",
    "vehicleCd": "65",
    "vehicleCorpCd": "2",
    "running": true,
    "lat": 34.410194,
    "lon": 135.338583,
    "route": "大阪体育大学前→熊取駅前→ダンバラ公園前→泉佐野駅前",
    "stop": "佐野台口",
    "passTime": "07:06",
    "vehicleType": "南海ウイングバス(車椅子・ワンステップ)",
    "updateTime": "2026/07/22 07:07"
  },
  {
    "vehicleNum": "091740",
    "vehicleCd": "105",
    "vehicleCorpCd": "2",
    "running": true,
    "lat": 34.446083,
    "lon": 135.386389,
    "route": "岸和田駅前→天神山・一の宮循環　右回り→岸和田駅前",
    "stop": "旭小学校前",
    "passTime": "07:04",
    "vehicleType": "南海ウイングバス(車椅子・ベビーカー・ワンステップ)",
    "updateTime": "2026/07/22 07:07"
  },
  {
    "vehicleNum": "091747",
    "vehicleCd": "333",
    "vehicleCorpCd": "1",
    "running": true,
    "lat": 34.466194,
    "lon": 135.561889,
    "route": "貴望ヶ丘→千代田駅前",
    "stop": "南貴望ヶ丘",
    "passTime": "07:05",
    "vehicleType": "南海バス(車椅子・ベビーカー・ワンステップ)",
    "updateTime": "2026/07/22 07:07"
  },
  {
    "vehicleNum": "091745",
    "vehicleCd": "103",
    "vehicleCorpCd": "2",
    "running": true,
    "lat": 34.442,
    "lon": 135.393778,
    "route": "岸和田駅前→岸和田警察署前→塔原",
    "stop": "東土生",
    "passTime": "07:06",
    "vehicleType": "南海ウイングバス",
    "updateTime": "2026/07/22 07:07"
  },
  {
    "vehicleNum": "091744",
    "vehicleCd": "148",
    "vehicleCorpCd": "2",
    "running": true,
    "lat": 34.461889,
    "lon": 135.395389,
    "route": "岸和田駅前→内畑→牛滝温泉",
    "stop": "市民病院前",
    "passTime": "07:06",
    "vehicleType": "南海ウイングバス(車椅子・ベビーカー・ワンステップ)",
    "updateTime": "2026/07/22 07:07"
  },
  {
    "vehicleNum": "091895",
    "vehicleCd": "4",
    "vehicleCorpCd": "2",
    "running": true,
    "lat": 34.370583,
    "lon": 135.279889,
    "route": "泉南市コミュニティバス 朝 一丘回り",
    "stop": "市場大発団地前",
    "passTime": "07:06",
    "vehicleType": "泉南市コミュニティバス(ピンク)",
    "updateTime": "2026/07/22 07:07"
  },
  {
    "vehicleNum": "092135",
    "vehicleCd": "525",
    "vehicleCorpCd": "1",
    "running": true,
    "lat": 34.434278,
    "lon": 135.238,
    "route": "エアロプラザ→第２ターミナル(国内線・国際線)→エアロプラザ",
    "stop": "第2ターミナル国際線",
    "passTime": "07:03",
    "vehicleType": "南海バス",
    "updateTime": "2026/07/22 07:07"
  },
  {
    "vehicleNum": "092140",
    "vehicleCd": "526",
    "vehicleCorpCd": "1",
    "running": true,
    "lat": 34.610083,
    "lon": 135.448889,
    "route": "堺東駅前→ＡＴＣ→堺東駅前",
    "stop": "堺駅前",
    "passTime": "06:53",
    "vehicleType": "南海バス",
    "updateTime": "2026/07/22 07:07"
  },
  {
    "vehicleNum": "092204",
    "vehicleCd": "416",
    "vehicleCorpCd": "1",
    "running": true,
    "lat": 34.455278,
    "lon": 135.563194,
    "route": "河内長野駅前→河内長野市役所前",
    "stop": "河内長野警察署前",
    "passTime": "07:05",
    "vehicleType": "南海バス",
    "updateTime": "2026/07/22 07:07"
  },
  {
    "vehicleNum": "092205",
    "vehicleCd": "25",
    "vehicleCorpCd": "1",
    "running": true,
    "lat": 34.445194,
    "lon": 135.544278,
    "route": "千代→小山田→緑→千代",
    "stop": "緑ヶ丘南町",
    "passTime": "07:06",
    "vehicleType": "南海バス(車椅子・ベビーカー・ノンステップ)",
    "updateTime": "2026/07/22 07:07"
  },
  {
    "vehicleNum": "092235",
    "vehicleCd": "535",
    "vehicleCorpCd": "1",
    "running": true,
    "lat": 34.447083,
    "lon": 135.454083,
    "route": "美術館前→のぞみ野南→和泉中央駅",
    "stop": "内田上",
    "passTime": "07:05",
    "vehicleType": "南海バス(車椅子・ベビーカー・ノンステップ)",
    "updateTime": "2026/07/22 07:07"
  },
  {
    "vehicleNum": "092373",
    "vehicleCd": "553",
    "vehicleCorpCd": "1",
    "running": true,
    "lat": 34.4705,
    "lon": 135.479583,
    "route": "光明池駅→城山台２丁→光明池駅",
    "stop": "鴨谷台三丁",
    "passTime": "07:06",
    "vehicleType": "南海バス(車椅子・ベビーカー・ノンステップ)",
    "updateTime": "2026/07/22 07:07"
  },
  {
    "vehicleNum": "092382",
    "vehicleCd": "556",
    "vehicleCorpCd": "1",
    "running": true,
    "lat": 34.480389,
    "lon": 135.439389,
    "route": "光明池駅→光明池車庫→泉大津駅前",
    "stop": "芦部",
    "passTime": "07:05",
    "vehicleType": "南海バス(車椅子・ベビーカー・ノンステップ)",
    "updateTime": "2026/07/22 07:07"
  },
  {
    "vehicleNum": "092372",
    "vehicleCd": "159",
    "vehicleCorpCd": "1",
    "running": true,
    "lat": 34.460583,
    "lon": 135.472389,
    "route": "和泉青葉台→和泉中央駅→泉大津駅前",
    "stop": "和泉和田",
    "passTime": "07:06",
    "vehicleType": "南海バス(車椅子・ベビーカー・ノンステップ)",
    "updateTime": "2026/07/22 07:07"
  },
  {
    "vehicleNum": "092398",
    "vehicleCd": "41",
    "vehicleCorpCd": "1",
    "running": true,
    "lat": 34.438083,
    "lon": 135.231389,
    "route": "エアロプラザ→第２ターミナル(国内線・国際線)→エアロプラザ",
    "stop": "エアロプラザ",
    "passTime": "07:00",
    "vehicleType": "南海バス(車椅子・ノンステップ)",
    "updateTime": "2026/07/22 07:07"
  },
  {
    "vehicleNum": "092454",
    "vehicleCd": "125",
    "vehicleCorpCd": "2",
    "running": true,
    "lat": 34.382889,
    "lon": 135.274083,
    "route": "泉南市コミュニティバス 朝 西信回り",
    "stop": "西信達公民館",
    "passTime": "07:05",
    "vehicleType": "泉南市コミュニティバス(橙)",
    "updateTime": "2026/07/22 07:07"
  },
  {
    "vehicleNum": "092469",
    "vehicleCd": "220",
    "vehicleCorpCd": "1",
    "running": true,
    "lat": 34.468583,
    "lon": 135.565278,
    "route": "千代田駅前→赤峯→荘園町",
    "stop": "南海西友前",
    "passTime": "07:04",
    "vehicleType": "南海バス(車椅子・ベビーカー・ノンステップ)",
    "updateTime": "2026/07/22 07:07"
  },
  {
    "vehicleNum": "092468",
    "vehicleCd": "51",
    "vehicleCorpCd": "1",
    "running": true,
    "lat": 34.430194,
    "lon": 135.556694,
    "route": "大矢船西町→三日市町駅前（前乗り）",
    "stop": "南花台３丁目北",
    "passTime": "07:07",
    "vehicleType": "南海バス(車椅子・ベビーカー・ノンステップ)",
    "updateTime": "2026/07/22 07:07"
  },
  {
    "vehicleNum": "092470",
    "vehicleCd": "105",
    "vehicleCorpCd": "1",
    "running": true,
    "lat": 34.427083,
    "lon": 135.590194,
    "route": "美加の台駅前→美加の台西→美加の台駅前（前乗り）",
    "stop": "美加の台小学校前",
    "passTime": "07:06",
    "vehicleType": "南海バス(車椅子・ベビーカー・ノンステップ)",
    "updateTime": "2026/07/22 07:07"
  },
  {
    "vehicleNum": "092482",
    "vehicleCd": "528",
    "vehicleCorpCd": "1",
    "running": true,
    "lat": 34.436889,
    "lon": 135.569694,
    "route": "三日市町駅前→清見台回り→三日市町駅前（前乗り）",
    "stop": "三日市町駅前通",
    "passTime": "07:05",
    "vehicleType": "南海バス(車椅子・ベビーカー・ノンステップ)",
    "updateTime": "2026/07/22 07:07"
  },
  {
    "vehicleNum": "092498",
    "vehicleCd": "8",
    "vehicleCorpCd": "1",
    "running": true,
    "lat": 34.429083,
    "lon": 135.450194,
    "route": "和泉中央駅→テクノステージセンター前→グリーンポリス前→和泉中央駅",
    "stop": "テクノステージ口",
    "passTime": "07:06",
    "vehicleType": "南海バス(車椅子・ベビーカー・ノンステップ)",
    "updateTime": "2026/07/22 07:07"
  },
  {
    "vehicleNum": "092483",
    "vehicleCd": "110",
    "vehicleCorpCd": "1",
    "running": true,
    "lat": 34.452278,
    "lon": 135.568278,
    "route": "長野車庫→河内長野駅前",
    "stop": "錦町",
    "passTime": "07:06",
    "vehicleType": "南海バス(車椅子・ベビーカー・ノンステップ)",
    "updateTime": "2026/07/22 07:07"
  },
  {
    "vehicleNum": "092578",
    "vehicleCd": "147",
    "vehicleCorpCd": "1",
    "running": true,
    "lat": 34.4525,
    "lon": 135.566389,
    "route": "旭→天野山→長野",
    "stop": "西代町南",
    "passTime": "07:07",
    "vehicleType": "南海バス(車椅子・ベビーカー・ノンステップ)",
    "updateTime": "2026/07/22 07:07"
  },
  {
    "vehicleNum": "092572",
    "vehicleCd": "313",
    "vehicleCorpCd": "1",
    "running": true,
    "lat": 34.573694,
    "lon": 135.483694,
    "route": "光明池駅→山田→堺東駅前",
    "stop": "一条通",
    "passTime": "07:05",
    "vehicleType": "南海バス(車椅子・ベビーカー・ノンステップ)",
    "updateTime": "2026/07/22 07:07"
  },
  {
    "vehicleNum": "092620",
    "vehicleCd": "311",
    "vehicleCorpCd": "1",
    "running": true,
    "lat": 34.435278,
    "lon": 135.568889,
    "route": "三日→加塩→神納",
    "stop": "加賀田口",
    "passTime": "07:07",
    "vehicleType": "南海バス(車椅子・ベビーカー・ノンステップ)",
    "updateTime": "2026/07/22 07:07"
  },
  {
    "vehicleNum": "092647",
    "vehicleCd": "587",
    "vehicleCorpCd": "1",
    "running": true,
    "lat": 34.421972,
    "lon": 135.536,
    "route": "滝畑ダム→河内長野駅前",
    "stop": "日野口",
    "passTime": "07:06",
    "vehicleType": "南海バス(車椅子・ベビーカー・ノンステップ)",
    "updateTime": "2026/07/22 07:07"
  },
  {
    "vehicleNum": "092623",
    "vehicleCd": "15",
    "vehicleCorpCd": "1",
    "running": true,
    "lat": 34.4645,
    "lon": 135.453778,
    "route": "和泉府中駅前→いぶき野→和泉中央駅",
    "stop": "いぶき野三丁目",
    "passTime": "07:06",
    "vehicleType": "南海バス(車椅子・ベビーカー・ノンステップ)",
    "updateTime": "2026/07/22 07:07"
  },
  {
    "vehicleNum": "092711",
    "vehicleCd": "355",
    "vehicleCorpCd": "1",
    "running": true,
    "lat": 34.479194,
    "lon": 135.423389,
    "route": "和泉中央駅→寺田→泉大津駅前",
    "stop": "柳田",
    "passTime": "07:06",
    "vehicleType": "南海バス(車椅子・ベビーカー・ノンステップ)",
    "updateTime": "2026/07/22 07:07"
  },
  {
    "vehicleNum": "092761",
    "vehicleCd": "23",
    "vehicleCorpCd": "1",
    "running": true,
    "lat": 34.427972,
    "lon": 135.542472,
    "route": "旭ヶ丘→水落→河内長野駅前",
    "stop": "旭ヶ丘（河内長野市）",
    "passTime": "07:07",
    "vehicleType": "南海バス(車椅子・ベビーカー・ノンステップ)",
    "updateTime": "2026/07/22 07:07"
  },
  {
    "vehicleNum": "092734",
    "vehicleCd": "289",
    "vehicleCorpCd": "1",
    "running": true,
    "lat": 34.4165,
    "lon": 135.568583,
    "route": "南青葉台中央→三日市町駅東（前乗り）",
    "stop": "南青葉台口",
    "passTime": "07:07",
    "vehicleType": "南海バス(車椅子・ベビーカー・ノンステップ)",
    "updateTime": "2026/07/22 07:07"
  },
  {
    "vehicleNum": "092757",
    "vehicleCd": "306",
    "vehicleCorpCd": "1",
    "running": true,
    "lat": 34.441583,
    "lon": 135.577583,
    "route": "小吹台→河内長野駅前",
    "stop": "大師町",
    "passTime": "07:07",
    "vehicleType": "南海バス(車椅子・ベビーカー・ノンステップ)",
    "updateTime": "2026/07/22 07:07"
  },
  {
    "vehicleNum": "092762",
    "vehicleCd": "570",
    "vehicleCorpCd": "1",
    "running": true,
    "lat": 34.533,
    "lon": 135.463194,
    "route": "栂・美木多駅→鳳駅前→堺東駅前",
    "stop": "西堺警察署前",
    "passTime": "07:05",
    "vehicleType": "南海バス(車椅子・ベビーカー・ノンステップ)",
    "updateTime": "2026/07/22 07:07"
  },
  {
    "vehicleNum": "092795",
    "vehicleCd": "592",
    "vehicleCorpCd": "1",
    "running": true,
    "lat": 34.514778,
    "lon": 135.464778,
    "route": "光明池駅→山田→堺東駅前",
    "stop": "山田北",
    "passTime": "07:05",
    "vehicleType": "南海バス(車椅子・ベビーカー・ノンステップ)",
    "updateTime": "2026/07/22 07:07"
  },
  {
    "vehicleNum": "092831",
    "vehicleCd": "417",
    "vehicleCorpCd": "1",
    "running": true,
    "lat": 34.446,
    "lon": 135.461972,
    "route": "和泉中央駅→はつが野六丁目→和泉中央駅",
    "stop": "はつが野二丁目",
    "passTime": "07:07",
    "vehicleType": "南海バス(車椅子・ベビーカー・ノンステップ)",
    "updateTime": "2026/07/22 07:07"
  },
  {
    "vehicleNum": "092829",
    "vehicleCd": "488",
    "vehicleCorpCd": "1",
    "running": true,
    "lat": 34.471694,
    "lon": 135.477278,
    "route": "光明池駅→新檜尾台センター→光明池駅",
    "stop": "伏屋東",
    "passTime": "07:03",
    "vehicleType": "南海バス(車椅子・ベビーカー・ノンステップ)",
    "updateTime": "2026/07/22 07:07"
  },
  {
    "vehicleNum": "092856",
    "vehicleCd": "601",
    "vehicleCorpCd": "1",
    "running": true,
    "lat": 34.487278,
    "lon": 135.423778,
    "route": "泉大津駅前→和泉府中駅前→和泉中央駅",
    "stop": "泉大津急性期メディカルセンター前",
    "passTime": "07:04",
    "vehicleType": "南海バス(車椅子・ベビーカー・ノンステップ)",
    "updateTime": "2026/07/22 07:07"
  },
  {
    "vehicleNum": "092857",
    "vehicleCd": "516",
    "vehicleCorpCd": "1",
    "running": true,
    "lat": 34.4705,
    "lon": 135.475694,
    "route": "光明池駅→山田→堺東駅前",
    "stop": "光明池駅",
    "passTime": "07:05",
    "vehicleType": "南海バス(車椅子・ベビーカー・ノンステップ)",
    "updateTime": "2026/07/22 07:07"
  },
  {
    "vehicleNum": "092859",
    "vehicleCd": "32",
    "vehicleCorpCd": "1",
    "running": true,
    "lat": 34.468889,
    "lon": 135.566194,
    "route": "千代→小山田→緑→千代",
    "stop": "南海西友前",
    "passTime": "07:04",
    "vehicleType": "南海バス(車椅子・ベビーカー・ノンステップ)",
    "updateTime": "2026/07/22 07:07"
  },
  {
    "vehicleNum": "092872",
    "vehicleCd": "500",
    "vehicleCorpCd": "1",
    "running": true,
    "lat": 34.549694,
    "lon": 135.464083,
    "route": "光明池駅→山田→堺東駅前",
    "stop": "神石市之町",
    "passTime": "07:06",
    "vehicleType": "南海バス(車椅子・ベビーカー・ノンステップ)",
    "updateTime": "2026/07/22 07:07"
  },
  {
    "vehicleNum": "092873",
    "vehicleCd": "234",
    "vehicleCorpCd": "1",
    "running": true,
    "lat": 34.466278,
    "lon": 135.4485,
    "route": "和泉中央駅→いぶき野→和泉府中駅前",
    "stop": "いぶき野一丁目",
    "passTime": "07:06",
    "vehicleType": "南海バス(車椅子・ベビーカー・ノンステップ)",
    "updateTime": "2026/07/22 07:07"
  },
  {
    "vehicleNum": "092916",
    "vehicleCd": "235",
    "vehicleCorpCd": "1",
    "running": true,
    "lat": 34.489389,
    "lon": 135.418389,
    "route": "和泉青葉台→和泉中央駅→泉大津駅前",
    "stop": "泉大津急性期メディカルセンター前",
    "passTime": "07:06",
    "vehicleType": "南海バス(車椅子・ベビーカー・ノンステップ)",
    "updateTime": "2026/07/22 07:07"
  },
  {
    "vehicleNum": "092918",
    "vehicleCd": "114",
    "vehicleCorpCd": "1",
    "running": true,
    "lat": 34.5255,
    "lon": 135.462083,
    "route": "鳳駅前→草部→栂・美木多駅",
    "stop": "上北",
    "passTime": "07:05",
    "vehicleType": "南海バス(車椅子・ベビーカー・ノンステップ)",
    "updateTime": "2026/07/22 07:07"
  },
  {
    "vehicleNum": "092936",
    "vehicleCd": "322",
    "vehicleCorpCd": "1",
    "running": true,
    "lat": 34.435083,
    "lon": 135.234083,
    "route": "◎T2→ポートターミナル",
    "stop": "第2ターミナル国際線",
    "passTime": "07:05",
    "vehicleType": "南海バス(車椅子・ベビーカー・ノンステップ)",
    "updateTime": "2026/07/22 07:07"
  },
  {
    "vehicleNum": "092937",
    "vehicleCd": "73",
    "vehicleCorpCd": "1",
    "running": true,
    "lat": 34.487694,
    "lon": 135.482083,
    "route": "国分峠東→栂・美木多駅→堺東駅前",
    "stop": "大森",
    "passTime": "07:06",
    "vehicleType": "南海バス(車椅子・ベビーカー・ノンステップ)",
    "updateTime": "2026/07/22 07:07"
  },
  {
    "vehicleNum": "092948",
    "vehicleCd": "606",
    "vehicleCorpCd": "1",
    "running": true,
    "lat": 34.500278,
    "lon": 135.409389,
    "route": "泉大津駅前→和泉府中駅前→和泉中央駅",
    "stop": "旭町",
    "passTime": "07:06",
    "vehicleType": "南海バス(車椅子・ベビーカー・ノンステップ)",
    "updateTime": "2026/07/22 07:07"
  },
  {
    "vehicleNum": "092950",
    "vehicleCd": "257",
    "vehicleCorpCd": "1",
    "running": true,
    "lat": 34.553778,
    "lon": 135.466694,
    "route": "栂・美木多駅→鳳駅前→堺東駅前",
    "stop": "神石橋",
    "passTime": "07:03",
    "vehicleType": "南海バス(車椅子・ベビーカー・ノンステップ)",
    "updateTime": "2026/07/22 07:07"
  },
  {
    "vehicleNum": "092951",
    "vehicleCd": "340",
    "vehicleCorpCd": "1",
    "running": true,
    "lat": 34.459583,
    "lon": 135.455083,
    "route": "はつが野六丁目→和泉中央駅",
    "stop": "万町弘法寺前",
    "passTime": "07:04",
    "vehicleType": "南海バス(車椅子・ベビーカー・ノンステップ)",
    "updateTime": "2026/07/22 07:07"
  },
  {
    "vehicleNum": "092952",
    "vehicleCd": "113",
    "vehicleCorpCd": "1",
    "running": true,
    "lat": 34.47,
    "lon": 135.477,
    "route": "みずき台２丁目西→光明池駅",
    "stop": "東室堂",
    "passTime": "07:07",
    "vehicleType": "南海バス(車椅子・ベビーカー・ノンステップ)",
    "updateTime": "2026/07/22 07:07"
  },
  {
    "vehicleNum": "092953",
    "vehicleCd": "122",
    "vehicleCorpCd": "1",
    "running": true,
    "lat": 34.430194,
    "lon": 135.231694,
    "route": "空港駅→給油地区",
    "stop": "空港駅",
    "passTime": "07:04",
    "vehicleType": "南海バス(車椅子・ベビーカー・ノンステップ)",
    "updateTime": "2026/07/22 07:07"
  },
  {
    "vehicleNum": "092974",
    "vehicleCd": "260",
    "vehicleCorpCd": "1",
    "running": true,
    "lat": 34.482972,
    "lon": 135.426694,
    "route": "和泉中央駅→いぶき野→和泉府中駅前",
    "stop": "府中町南",
    "passTime": "07:05",
    "vehicleType": "南海バス(車椅子・ベビーカー・ノンステップ)",
    "updateTime": "2026/07/22 07:07"
  },
  {
    "vehicleNum": "093003",
    "vehicleCd": "111",
    "vehicleCorpCd": "1",
    "running": true,
    "lat": 34.4505,
    "lon": 135.4635,
    "route": "はつが野六丁目→和泉中央駅",
    "stop": "はつが野口",
    "passTime": "07:05",
    "vehicleType": "南海バス(車椅子・ベビーカー・ノンステップ)",
    "updateTime": "2026/07/22 07:07"
  },
  {
    "vehicleNum": "093011",
    "vehicleCd": "27",
    "vehicleCorpCd": "1",
    "running": true,
    "lat": 34.441083,
    "lon": 135.257694,
    "route": "旅客ターミナル→国内循環→旅客ターミナル",
    "stop": "見学展望ホール",
    "passTime": "07:07",
    "vehicleType": "南海バス(車椅子・ベビーカー・ノンステップ)",
    "updateTime": "2026/07/22 07:07"
  },
  {
    "vehicleNum": "093054",
    "vehicleCd": "396",
    "vehicleCorpCd": "1",
    "running": true,
    "lat": 34.476583,
    "lon": 135.446083,
    "route": "泉大津駅前→和泉府中駅前→和泉中央駅",
    "stop": "阪本",
    "passTime": "07:06",
    "vehicleType": "南海バス(車椅子・ベビーカー・ノンステップ)",
    "updateTime": "2026/07/22 07:07"
  },
  {
    "vehicleNum": "093073",
    "vehicleCd": "370",
    "vehicleCorpCd": "1",
    "running": true,
    "lat": 34.447194,
    "lon": 135.493083,
    "route": "みずき台２丁目西→光明池駅",
    "stop": "みずき台一丁目",
    "passTime": "07:06",
    "vehicleType": "南海バス(車椅子・ベビーカー・ノンステップ)",
    "updateTime": "2026/07/22 07:07"
  },
  {
    "vehicleNum": "093074",
    "vehicleCd": "247",
    "vehicleCorpCd": "1",
    "running": true,
    "lat": 34.469083,
    "lon": 135.469278,
    "route": "堺東駅前→鳳駅前→光明池駅",
    "stop": "変電所前",
    "passTime": "07:06",
    "vehicleType": "南海バス(車椅子・ベビーカー・ノンステップ)",
    "updateTime": "2026/07/22 07:07"
  }
]