[
  {
    "vehicleNum": "070103",
    "vehicleCd": "425",
    "vehicleCorpCd": "1",
    "running": true,
    "lat": 34.495694,
    "lon": 135.514778,
    "route": "金剛駅前→狭山ニュータウンセンター→泉ヶ丘駅",
    "stop": "茶山台２丁",
    "passTime": "06:59",
    "vehicleType": "泉北コミュニティバス(車椅子・ベビーカー・ノンステップ)",
    "updateTime": "2026/07/23 07:01"
  },
  {
    "vehicleNum": "070104",
    "vehicleCd": "402",
    "vehicleCorpCd": "1",
    "running": true,
    "lat": 34.490583,
    "lon": 135.542472,
    "route": "金剛駅前→狭山ニュータウンセンター→泉ヶ丘駅",
    "stop": "西山台北",
    "passTime": "07:01",
    "vehicleType": "泉北コミュニティバス(車椅子・ベビーカー・ノンステップ)",
    "updateTime": "2026/07/23 07:01"
  },
  {
    "vehicleNum": "070189",
    "vehicleCd": "67",
    "vehicleCorpCd": "1",
    "running": true,
    "lat": 34.5935,
    "lon": 135.467972,
    "route": "【急行】阪和堺市駅前→海浜匠町",
    "stop": "阪和堺市駅前",
    "passTime": "06:47",
    "vehicleType": "南海バス(車椅子・ベビーカー・ワンステップ)",
    "updateTime": "2026/07/23 07:01"
  },
  {
    "vehicleNum": "070109",
    "vehicleCd": "407",
    "vehicleCorpCd": "1",
    "running": true,
    "lat": 34.4925,
    "lon": 135.543583,
    "route": "泉ヶ丘駅→狭山ニュータウンセンター→金剛駅前",
    "stop": "今熊",
    "passTime": "07:00",
    "vehicleType": "泉北コミュニティバス(車椅子・ベビーカー・ノンステップ)",
    "updateTime": "2026/07/23 07:01"
  },
  {
    "vehicleNum": "071602",
    "vehicleCd": "109",
    "vehicleCorpCd": "1",
    "running": true,
    "lat": 34.580083,
    "lon": 135.472278,
    "route": "堺駅前→大小路→堺東駅前",
    "stop": "堺駅前",
    "passTime": "07:00",
    "vehicleType": "堺シャトル(車椅子・ベビーカー・ノンステップ)",
    "updateTime": "2026/07/23 07:01"
  },
  {
    "vehicleNum": "071607",
    "vehicleCd": "414",
    "vehicleCorpCd": "1",
    "running": true,
    "lat": 34.578583,
    "lon": 135.4745,
    "route": "堺東駅前→大小路→堺駅前",
    "stop": "大小路",
    "passTime": "07:01",
    "vehicleType": "堺シャトル(車椅子・ベビーカー・ノンステップ)",
    "updateTime": "2026/07/23 07:01"
  },
  {
    "vehicleNum": "071605",
    "vehicleCd": "412",
    "vehicleCorpCd": "1",
    "running": true,
    "lat": 34.5755,
    "lon": 135.484083,
    "route": "堺駅前→大小路→堺東駅前",
    "stop": "熊野小学校前",
    "passTime": "06:56",
    "vehicleType": "堺シャトル(車椅子・ベビーカー・ノンステップ)",
    "updateTime": "2026/07/23 07:01"
  },
  {
    "vehicleNum": "072501",
    "vehicleCd": "598",
    "vehicleCorpCd": "1",
    "running": true,
    "lat": 34.583194,
    "lon": 135.526889,
    "route": "堺東駅前→錦綾町→河内天美駅前",
    "stop": "天美我堂",
    "passTime": "07:00",
    "vehicleType": "南海バス(車椅子・ベビーカー・ノンステップ)",
    "updateTime": "2026/07/23 07:01"
  },
  {
    "vehicleNum": "080180",
    "vehicleCd": "68",
    "vehicleCorpCd": "2",
    "running": true,
    "lat": 34.456194,
    "lon": 135.447889,
    "route": "和泉中央駅→道の駅愛彩ランド",
    "stop": "唐国南",
    "passTime": "07:00",
    "vehicleType": "南海ウイングバス(車椅子・ベビーカー・ワンステップ)",
    "updateTime": "2026/07/23 07:01"
  },
  {
    "vehicleNum": "080134",
    "vehicleCd": "118",
    "vehicleCorpCd": "2",
    "running": true,
    "lat": 34.406,
    "lon": 135.3595,
    "route": "熊取ニュータウン→熊取駅前",
    "stop": "自由が丘",
    "passTime": "07:01",
    "vehicleType": "南海ウイングバス(車椅子・ベビーカー・ワンステップ)",
    "updateTime": "2026/07/23 07:01"
  },
  {
    "vehicleNum": "080184",
    "vehicleCd": "34",
    "vehicleCorpCd": "2",
    "running": true,
    "lat": 34.385583,
    "lon": 135.352389,
    "route": "つばさが丘北口→熊取駅前",
    "stop": "朝代",
    "passTime": "07:01",
    "vehicleType": "南海ウイングバス(車椅子・ベビーカー・ノンステップ)",
    "updateTime": "2026/07/23 07:01"
  },
  {
    "vehicleNum": "080186",
    "vehicleCd": "39",
    "vehicleCorpCd": "2",
    "running": true,
    "lat": 34.405583,
    "lon": 135.341278,
    "route": "熊取ニュータウン→熊取駅前→上瓦屋町→泉佐野駅前",
    "stop": "熊取駅前",
    "passTime": "07:00",
    "vehicleType": "南海ウイングバス(車椅子・ベビーカー・ノンステップ)",
    "updateTime": "2026/07/23 07:01"
  },
  {
    "vehicleNum": "080187",
    "vehicleCd": "66",
    "vehicleCorpCd": "1",
    "running": true,
    "lat": 34.593778,
    "lon": 135.467,
    "route": "堺東駅前→綾の町電停前→匠町",
    "stop": "浅香山通",
    "passTime": "07:00",
    "vehicleType": "南海バス(車椅子・ベビーカー・ノンステップ)",
    "updateTime": "2026/07/23 07:01"
  },
  {
    "vehicleNum": "080315",
    "vehicleCd": "80",
    "vehicleCorpCd": "1",
    "running": true,
    "lat": 34.597194,
    "lon": 135.446389,
    "route": "堺東駅前→堺駅西口→海山通四丁→堺東駅前",
    "stop": "堺浜シーサイドステージ",
    "passTime": "07:01",
    "vehicleType": "南海バス(車椅子・ベビーカー・ワンステップ)",
    "updateTime": "2026/07/23 07:01"
  },
  {
    "vehicleNum": "080322",
    "vehicleCd": "116",
    "vehicleCorpCd": "2",
    "running": true,
    "lat": 34.384889,
    "lon": 135.334083,
    "route": "泉佐野駅前→野々地蔵北→日根野駅前→犬鳴山",
    "stop": "新道出",
    "passTime": "07:01",
    "vehicleType": "南海ウイングバス(車椅子・ワンステップ)",
    "updateTime": "2026/07/23 07:01"
  },
  {
    "vehicleNum": "080319",
    "vehicleCd": "84",
    "vehicleCorpCd": "1",
    "running": true,
    "lat": 34.609,
    "lon": 135.473389,
    "route": "住之江公園駅前→匠町",
    "stop": "住之江公園駅前",
    "passTime": "07:00",
    "vehicleType": "南海バス(車椅子・ベビーカー・ワンステップ)",
    "updateTime": "2026/07/23 07:01"
  },
  {
    "vehicleNum": "080316",
    "vehicleCd": "81",
    "vehicleCorpCd": "1",
    "running": true,
    "lat": 34.565694,
    "lon": 135.492889,
    "route": "地下鉄新金岡駅前→堺駅南口",
    "stop": "三国ヶ丘駅前",
    "passTime": "07:01",
    "vehicleType": "南海バス(車椅子・ベビーカー・ワンステップ)",
    "updateTime": "2026/07/23 07:01"
  },
  {
    "vehicleNum": "080323",
    "vehicleCd": "59",
    "vehicleCorpCd": "2",
    "running": true,
    "lat": 34.394778,
    "lon": 135.435,
    "route": "牛滝温泉→内畑→岸和田駅前",
    "stop": "下大沢",
    "passTime": "07:01",
    "vehicleType": "南海ウイングバス(車椅子・ワンステップ)",
    "updateTime": "2026/07/23 07:01"
  },
  {
    "vehicleNum": "080384",
    "vehicleCd": "444",
    "vehicleCorpCd": "1",
    "running": true,
    "lat": 34.577083,
    "lon": 135.481194,
    "route": "【急行】瓦町公園前→海浜匠町",
    "stop": "瓦町公園前",
    "passTime": "07:00",
    "vehicleType": "南海バス(車椅子・ワンステップ)",
    "updateTime": "2026/07/23 07:01"
  },
  {
    "vehicleNum": "080482",
    "vehicleCd": "156",
    "vehicleCorpCd": "1",
    "running": true,
    "lat": 34.549972,
    "lon": 135.506389,
    "route": "北野田駅前→福町→堺駅南口",
    "stop": "府立大学前",
    "passTime": "07:00",
    "vehicleType": "南海バス(車椅子・ベビーカー・ノンステップ)",
    "updateTime": "2026/07/23 07:01"
  },
  {
    "vehicleNum": "080483",
    "vehicleCd": "157",
    "vehicleCorpCd": "1",
    "running": true,
    "lat": 34.541583,
    "lon": 135.477889,
    "route": "中もず駅前→北条→堺市立総合医療センター前",
    "stop": "北条",
    "passTime": "07:00",
    "vehicleType": "南海バス(車椅子・ベビーカー・ノンステップ)",
    "updateTime": "2026/07/23 07:01"
  },
  {
    "vehicleNum": "080628",
    "vehicleCd": "445",
    "vehicleCorpCd": "1",
    "running": true,
    "lat": 34.566278,
    "lon": 135.516194,
    "route": "地下鉄新金岡駅前→野遠→美原区役所",
    "stop": "地下鉄新金岡駅前",
    "passTime": "07:00",
    "vehicleType": "南海バス(車椅子・ベビーカー・ノンステップ)",
    "updateTime": "2026/07/23 07:01"
  },
  {
    "vehicleNum": "080639",
    "vehicleCd": "132",
    "vehicleCorpCd": "2",
    "running": true,
    "lat": 34.405889,
    "lon": 135.341278,
    "route": "泉佐野駅前→ダンバラ公園前→熊取駅前→大阪体育大学前",
    "stop": "青年会場前",
    "passTime": "06:59",
    "vehicleType": "南海ウイングバス(車椅子・ベビーカー・ノンステップ)",
    "updateTime": "2026/07/23 07:01"
  },
  {
    "vehicleNum": "080670",
    "vehicleCd": "507",
    "vehicleCorpCd": "1",
    "running": true,
    "lat": 34.595778,
    "lon": 135.447583,
    "route": "住之江公園駅前→匠町",
    "stop": "堺浜南",
    "passTime": "07:01",
    "vehicleType": "南海バス(車椅子・ベビーカー・ノンステップ)",
    "updateTime": "2026/07/23 07:01"
  },
  {
    "vehicleNum": "080652",
    "vehicleCd": "456",
    "vehicleCorpCd": "1",
    "running": true,
    "lat": 34.544194,
    "lon": 135.5335,
    "route": "美原区役所→初芝駅前→美原区役所",
    "stop": "初芝東",
    "passTime": "07:01",
    "vehicleType": "南海バス",
    "updateTime": "2026/07/23 07:01"
  },
  {
    "vehicleNum": "080671",
    "vehicleCd": "465",
    "vehicleCorpCd": "1",
    "running": true,
    "lat": 34.578583,
    "lon": 135.468194,
    "route": "堺駅前→堺東駅前→河内松原駅前",
    "stop": "堺駅前",
    "passTime": "06:59",
    "vehicleType": "南海バス(車椅子・ベビーカー・ノンステップ)",
    "updateTime": "2026/07/23 07:01"
  },
  {
    "vehicleNum": "080705",
    "vehicleCd": "542",
    "vehicleCorpCd": "1",
    "running": true,
    "lat": 34.592389,
    "lon": 135.468278,
    "route": "【急行】堺駅西口→海浜匠町",
    "stop": "堺駅西口",
    "passTime": "06:53",
    "vehicleType": "南海バス(車椅子・ベビーカー・ノンステップ)",
    "updateTime": "2026/07/23 07:01"
  },
  {
    "vehicleNum": "080706",
    "vehicleCd": "543",
    "vehicleCorpCd": "1",
    "running": true,
    "lat": 34.5655,
    "lon": 135.492889,
    "route": "堺駅南口→地下鉄新金岡駅前",
    "stop": "細池橋",
    "passTime": "06:58",
    "vehicleType": "南海バス(車椅子・ベビーカー・ノンステップ)",
    "updateTime": "2026/07/23 07:01"
  },
  {
    "vehicleNum": "080703",
    "vehicleCd": "219",
    "vehicleCorpCd": "1",
    "running": true,
    "lat": 34.569278,
    "lon": 135.515583,
    "route": "阪和堺市駅前→堺駅南口",
    "stop": "郵便局前（堺市）",
    "passTime": "07:01",
    "vehicleType": "南海バス(車椅子・ベビーカー・ノンステップ)",
    "updateTime": "2026/07/23 07:01"
  },
  {
    "vehicleNum": "080709",
    "vehicleCd": "5",
    "vehicleCorpCd": "2",
    "running": true,
    "lat": 34.458,
    "lon": 135.381194,
    "route": "岸和田駅前→天神山・一の宮循環　右回り→岸和田駅前",
    "stop": "岸和田駅前",
    "passTime": "07:00",
    "vehicleType": "南海ウイングバス(車椅子・ベビーカー・ノンステップ)",
    "updateTime": "2026/07/23 07:01"
  },
  {
    "vehicleNum": "080744",
    "vehicleCd": "550",
    "vehicleCorpCd": "1",
    "running": true,
    "lat": 34.464889,
    "lon": 135.499083,
    "route": "栂・美木多駅→御池台回り→栂・美木多駅",
    "stop": "御池台１丁",
    "passTime": "07:01",
    "vehicleType": "南海バス(車椅子・ベビーカー・ノンステップ)",
    "updateTime": "2026/07/23 07:01"
  },
  {
    "vehicleNum": "080746",
    "vehicleCd": "395",
    "vehicleCorpCd": "1",
    "running": true,
    "lat": 34.493472,
    "lon": 135.569194,
    "route": "金剛駅前→寺池台小学校前→金剛駅前",
    "stop": "寺池台一丁目",
    "passTime": "07:01",
    "vehicleType": "南海バス(車椅子・ベビーカー・ノンステップ)",
    "updateTime": "2026/07/23 07:01"
  },
  {
    "vehicleNum": "080747",
    "vehicleCd": "161",
    "vehicleCorpCd": "1",
    "running": true,
    "lat": 34.560694,
    "lon": 135.469694,
    "route": "堺駅南口→堺駅前",
    "stop": "協和町",
    "passTime": "07:01",
    "vehicleType": "南海バス(車椅子・ベビーカー・ノンステップ)",
    "updateTime": "2026/07/23 07:01"
  },
  {
    "vehicleNum": "080750",
    "vehicleCd": "103",
    "vehicleCorpCd": "1",
    "running": true,
    "lat": 34.5855,
    "lon": 135.490083,
    "route": "河内天美駅前→天美我堂→堺東駅前",
    "stop": "香ヶ丘",
    "passTime": "06:57",
    "vehicleType": "南海バス(車椅子・ベビーカー・ノンステップ)",
    "updateTime": "2026/07/23 07:01"
  },
  {
    "vehicleNum": "080751",
    "vehicleCd": "551",
    "vehicleCorpCd": "1",
    "running": true,
    "lat": 34.575194,
    "lon": 135.526194,
    "route": "河内松原駅前→阪和堺市駅前→堺駅前",
    "stop": "南花田町東",
    "passTime": "07:00",
    "vehicleType": "南海バス(車椅子・ベビーカー・ノンステップ)",
    "updateTime": "2026/07/23 07:01"
  },
  {
    "vehicleNum": "080758",
    "vehicleCd": "511",
    "vehicleCorpCd": "1",
    "running": true,
    "lat": 34.495389,
    "lon": 135.517889,
    "route": "泉ヶ丘駅→晴美台右回り→泉ヶ丘駅",
    "stop": "泉ヶ丘駅（南側）",
    "passTime": "07:00",
    "vehicleType": "南海バス(車椅子・ベビーカー・ノンステップ)",
    "updateTime": "2026/07/23 07:01"
  },
  {
    "vehicleNum": "080757",
    "vehicleCd": "182",
    "vehicleCorpCd": "1",
    "running": true,
    "lat": 34.501194,
    "lon": 135.5745,
    "route": "中央センター前→向陽・藤沢回り→金剛駅前",
    "stop": "金剛高校前",
    "passTime": "07:00",
    "vehicleType": "南海バス(車椅子・ベビーカー・ノンステップ)",
    "updateTime": "2026/07/23 07:01"
  },
  {
    "vehicleNum": "080760",
    "vehicleCd": "559",
    "vehicleCorpCd": "1",
    "running": true,
    "lat": 34.5775,
    "lon": 135.484694,
    "route": "堺東駅前→錦綾町→河内天美駅前",
    "stop": "堺東駅前",
    "passTime": "07:00",
    "vehicleType": "南海バス(車椅子・ベビーカー・ノンステップ)",
    "updateTime": "2026/07/23 07:01"
  },
  {
    "vehicleNum": "080762",
    "vehicleCd": "561",
    "vehicleCorpCd": "1",
    "running": true,
    "lat": 34.574889,
    "lon": 135.549583,
    "route": "堺駅前→堺東駅前→河内松原駅前",
    "stop": "高見の里駅前",
    "passTime": "06:59",
    "vehicleType": "南海バス(車椅子・ベビーカー・ノンステップ)",
    "updateTime": "2026/07/23 07:01"
  },
  {
    "vehicleNum": "080764",
    "vehicleCd": "563",
    "vehicleCorpCd": "1",
    "running": true,
    "lat": 34.528194,
    "lon": 135.471889,
    "route": "津久野駅前→鈴の宮団地センター→深井駅",
    "stop": "毛穴南",
    "passTime": "07:00",
    "vehicleType": "南海バス(車椅子・ベビーカー・ノンステップ)",
    "updateTime": "2026/07/23 07:01"
  },
  {
    "vehicleNum": "080767",
    "vehicleCd": "566",
    "vehicleCorpCd": "1",
    "running": true,
    "lat": 34.574583,
    "lon": 135.4735,
    "route": "下出口→大の芝→堺駅南口",
    "stop": "大寺南門山之口前",
    "passTime": "07:01",
    "vehicleType": "南海バス(車椅子・ベビーカー・ノンステップ)",
    "updateTime": "2026/07/23 07:01"
  },
  {
    "vehicleNum": "080790",
    "vehicleCd": "106",
    "vehicleCorpCd": "1",
    "running": true,
    "lat": 34.5775,
    "lon": 135.469583,
    "route": "堺駅南口→堺駅前",
    "stop": "川尻",
    "passTime": "07:01",
    "vehicleType": "南海バス(車椅子・ベビーカー・ノンステップ)",
    "updateTime": "2026/07/23 07:01"
  },
  {
    "vehicleNum": "080788",
    "vehicleCd": "299",
    "vehicleCorpCd": "1",
    "running": true,
    "lat": 34.551889,
    "lon": 135.517889,
    "route": "三国ヶ丘駅前→白鷺駅前→堺東駅前（循環）",
    "stop": "金岡町",
    "passTime": "07:00",
    "vehicleType": "南海バス(車椅子・ベビーカー・ノンステップ)",
    "updateTime": "2026/07/23 07:01"
  },
  {
    "vehicleNum": "080794",
    "vehicleCd": "344",
    "vehicleCorpCd": "1",
    "running": true,
    "lat": 34.576083,
    "lon": 135.496194,
    "route": "堺駅前→堺東駅前→河内松原駅前",
    "stop": "阪和堺市駅前",
    "passTime": "06:59",
    "vehicleType": "南海バス(車椅子・ベビーカー・ノンステップ)",
    "updateTime": "2026/07/23 07:01"
  },
  {
    "vehicleNum": "080809",
    "vehicleCd": "215",
    "vehicleCorpCd": "1",
    "running": true,
    "lat": 34.594778,
    "lon": 135.443583,
    "route": "【急行】堺駅西口→海浜匠町",
    "stop": "堺駅西口",
    "passTime": "06:47",
    "vehicleType": "南海バス(車椅子・ベビーカー・ノンステップ)",
    "updateTime": "2026/07/23 07:01"
  },
  {
    "vehicleNum": "080815",
    "vehicleCd": "575",
    "vehicleCorpCd": "1",
    "running": true,
    "lat": 34.502389,
    "lon": 135.491389,
    "route": "泉ヶ丘駅→泉北２号線→津久野駅前",
    "stop": "宮山台小学校前",
    "passTime": "06:59",
    "vehicleType": "南海バス(車椅子・ベビーカー・ノンステップ)",
    "updateTime": "2026/07/23 07:01"
  },
  {
    "vehicleNum": "080813",
    "vehicleCd": "269",
    "vehicleCorpCd": "1",
    "running": true,
    "lat": 34.576889,
    "lon": 135.497389,
    "route": "【急行】阪和堺市駅前→海浜匠町",
    "stop": "阪和堺市駅前",
    "passTime": "07:00",
    "vehicleType": "南海バス(車椅子・ベビーカー・ノンステップ)",
    "updateTime": "2026/07/23 07:01"
  },
  {
    "vehicleNum": "080822",
    "vehicleCd": "576",
    "vehicleCorpCd": "1",
    "running": true,
    "lat": 34.575,
    "lon": 135.484,
    "route": "泉ヶ丘駅→宮山台中学校前→堺東駅前",
    "stop": "一条通",
    "passTime": "06:58",
    "vehicleType": "南海バス(車椅子・ベビーカー・ノンステップ)",
    "updateTime": "2026/07/23 07:01"
  },
  {
    "vehicleNum": "080825",
    "vehicleCd": "261",
    "vehicleCorpCd": "1",
    "running": true,
    "lat": 34.560694,
    "lon": 135.494,
    "route": "北野田駅前→西口園→堺駅南口",
    "stop": "梅北町",
    "passTime": "07:00",
    "vehicleType": "南海バス(車椅子・ベビーカー・ノンステップ)",
    "updateTime": "2026/07/23 07:01"
  },
  {
    "vehicleNum": "080835",
    "vehicleCd": "310",
    "vehicleCorpCd": "1",
    "running": true,
    "lat": 34.497583,
    "lon": 135.582694,
    "route": "金剛駅前→高辺台小学校前→金剛駅前",
    "stop": "小金台２丁目",
    "passTime": "07:01",
    "vehicleType": "南海バス(車椅子・ベビーカー・ノンステップ)",
    "updateTime": "2026/07/23 07:01"
  },
  {
    "vehicleNum": "080836",
    "vehicleCd": "268",
    "vehicleCorpCd": "1",
    "running": true,
    "lat": 34.58,
    "lon": 135.469278,
    "route": "堺駅前→塩穴通",
    "stop": "堺駅前",
    "passTime": "07:00",
    "vehicleType": "南海バス(車椅子・ベビーカー・ノンステップ)",
    "updateTime": "2026/07/23 07:01"
  },
  {
    "vehicleNum": "080844",
    "vehicleCd": "581",
    "vehicleCorpCd": "1",
    "running": true,
    "lat": 34.506194,
    "lon": 135.571194,
    "route": "金剛駅前→向陽・藤沢回り→金剛駅前",
    "stop": "藤沢台５丁目",
    "passTime": "07:01",
    "vehicleType": "南海バス(車椅子・ベビーカー・ノンステップ)",
    "updateTime": "2026/07/23 07:01"
  },
  {
    "vehicleNum": "080845",
    "vehicleCd": "319",
    "vehicleCorpCd": "1",
    "running": true,
    "lat": 34.536889,
    "lon": 135.458194,
    "route": "石津川駅前→浜寺公園駅前通→鳳駅前→堺市立総合医療センター前",
    "stop": "大鳥神社前",
    "passTime": "07:01",
    "vehicleType": "南海バス(車椅子・ベビーカー・ノンステップ)",
    "updateTime": "2026/07/23 07:01"
  },
  {
    "vehicleNum": "080846",
    "vehicleCd": "224",
    "vehicleCorpCd": "1",
    "running": true,
    "lat": 34.503972,
    "lon": 135.582583,
    "route": "金剛駅前→向陽・藤沢回り→金剛駅前",
    "stop": "富田林病院前",
    "passTime": "07:00",
    "vehicleType": "南海バス(車椅子・ベビーカー・ノンステップ)",
    "updateTime": "2026/07/23 07:01"
  },
  {
    "vehicleNum": "080856",
    "vehicleCd": "358",
    "vehicleCorpCd": "1",
    "running": true,
    "lat": 34.496083,
    "lon": 135.565,
    "route": "中央センター前→向陽・藤沢回り→金剛駅前",
    "stop": "久野喜台二丁目",
    "passTime": "07:01",
    "vehicleType": "南海バス(車椅子・ベビーカー・ワンステップ)",
    "updateTime": "2026/07/23 07:01"
  },
  {
    "vehicleNum": "080868",
    "vehicleCd": "237",
    "vehicleCorpCd": "1",
    "running": true,
    "lat": 34.494972,
    "lon": 135.510778,
    "route": "泉ヶ丘駅→槙塚台右回り→泉ヶ丘駅",
    "stop": "泉ヶ丘駅（南側）",
    "passTime": "07:00",
    "vehicleType": "南海バス(車椅子・ベビーカー・ノンステップ)",
    "updateTime": "2026/07/23 07:01"
  },
  {
    "vehicleNum": "080869",
    "vehicleCd": "316",
    "vehicleCorpCd": "1",
    "running": true,
    "lat": 34.484694,
    "lon": 135.537389,
    "route": "泉ヶ丘駅→狭山ニュータウンセンター→金剛駅前",
    "stop": "槙塚台東",
    "passTime": "07:00",
    "vehicleType": "南海バス(車椅子・ベビーカー・ノンステップ)",
    "updateTime": "2026/07/23 07:01"
  },
  {
    "vehicleNum": "080875",
    "vehicleCd": "485",
    "vehicleCorpCd": "1",
    "running": true,
    "lat": 34.497,
    "lon": 135.517778,
    "route": "泉ヶ丘駅→スマ・エコタウン晴美台→高倉台右回り→泉ヶ丘駅",
    "stop": "泉ヶ丘駅（南側）",
    "passTime": "06:59",
    "vehicleType": "南海バス(車椅子・ベビーカー・ノンステップ)",
    "updateTime": "2026/07/23 07:01"
  },
  {
    "vehicleNum": "080879",
    "vehicleCd": "359",
    "vehicleCorpCd": "1",
    "running": true,
    "lat": 34.528278,
    "lon": 135.490194,
    "route": "深井駅→八田荘団地→津久野駅前",
    "stop": "深井駅（西側）",
    "passTime": "06:59",
    "vehicleType": "南海バス(車椅子・ベビーカー・ノンステップ)",
    "updateTime": "2026/07/23 07:01"
  },
  {
    "vehicleNum": "080878",
    "vehicleCd": "368",
    "vehicleCorpCd": "1",
    "running": true,
    "lat": 34.522083,
    "lon": 135.528389,
    "route": "北野田駅前→福町→深井駅",
    "stop": "福町",
    "passTime": "07:01",
    "vehicleType": "南海バス(車椅子・ベビーカー・ノンステップ)",
    "updateTime": "2026/07/23 07:01"
  },
  {
    "vehicleNum": "080877",
    "vehicleCd": "588",
    "vehicleCorpCd": "1",
    "running": true,
    "lat": 34.523778,
    "lon": 135.541278,
    "route": "北野田駅前→福町→堺駅南口",
    "stop": "北野田駅前",
    "passTime": "07:00",
    "vehicleType": "南海バス(車椅子・ベビーカー・ノンステップ)",
    "updateTime": "2026/07/23 07:01"
  },
  {
    "vehicleNum": "080797",
    "vehicleCd": "349",
    "vehicleCorpCd": "1",
    "running": true,
    "lat": 34.588194,
    "lon": 135.536583,
    "route": "河内天美駅前→天美我堂→堺東駅前",
    "stop": "河内天美駅前",
    "passTime": "07:00",
    "vehicleType": "南海バス(車椅子・ベビーカー・ノンステップ)",
    "updateTime": "2026/07/23 07:01"
  },
  {
    "vehicleNum": "080899",
    "vehicleCd": "498",
    "vehicleCorpCd": "1",
    "running": true,
    "lat": 34.587,
    "lon": 135.469583,
    "route": "【急行】堺駅西口→海浜匠町",
    "stop": "堺駅西口",
    "passTime": "06:58",
    "vehicleType": "南海バス(車椅子・ベビーカー・ワンステップ)",
    "updateTime": "2026/07/23 07:01"
  },
  {
    "vehicleNum": "080904",
    "vehicleCd": "362",
    "vehicleCorpCd": "1",
    "running": true,
    "lat": 34.542778,
    "lon": 135.5265,
    "route": "平尾→初芝駅前→中もず駅前",
    "stop": "初芝駅前",
    "passTime": "07:01",
    "vehicleType": "南海バス(車椅子・ベビーカー・ノンステップ)",
    "updateTime": "2026/07/23 07:01"
  },
  {
    "vehicleNum": "080907",
    "vehicleCd": "499",
    "vehicleCorpCd": "1",
    "running": true,
    "lat": 34.512389,
    "lon": 135.494778,
    "route": "津久野駅前→堺市立総合医療センター前→八田荘団地→泉ヶ丘駅",
    "stop": "天の橋",
    "passTime": "07:00",
    "vehicleType": "南海バス(車椅子・ベビーカー・ノンステップ)",
    "updateTime": "2026/07/23 07:01"
  },
  {
    "vehicleNum": "080912",
    "vehicleCd": "372",
    "vehicleCorpCd": "1",
    "running": true,
    "lat": 34.5875,
    "lon": 135.469389,
    "route": "阪和堺市駅前→堺駅西口→匠町",
    "stop": "三宝公園前",
    "passTime": "07:00",
    "vehicleType": "南海バス(車椅子・ベビーカー・ノンステップ)",
    "updateTime": "2026/07/23 07:01"
  },
  {
    "vehicleNum": "080918",
    "vehicleCd": "419",
    "vehicleCorpCd": "1",
    "running": true,
    "lat": 34.572694,
    "lon": 135.483389,
    "route": "堺東駅前→緑ヶ丘",
    "stop": "堺東駅前",
    "passTime": "07:00",
    "vehicleType": "南海バス(車椅子・ベビーカー・ノンステップ)",
    "updateTime": "2026/07/23 07:01"
  },
  {
    "vehicleNum": "080913",
    "vehicleCd": "128",
    "vehicleCorpCd": "1",
    "running": true,
    "lat": 34.574,
    "lon": 135.483778,
    "route": "堺駅前→堺駅南口",
    "stop": "一条通",
    "passTime": "06:59",
    "vehicleType": "南海バス(車椅子・ベビーカー・ノンステップ)",
    "updateTime": "2026/07/23 07:01"
  },
  {
    "vehicleNum": "080927",
    "vehicleCd": "79",
    "vehicleCorpCd": "1",
    "running": true,
    "lat": 34.504778,
    "lon": 135.497278,
    "route": "津久野駅前→堺市立総合医療センター前→泉北２号線→泉ヶ丘駅",
    "stop": "宮山台小学校前",
    "passTime": "07:00",
    "vehicleType": "南海バス(車椅子・ベビーカー・ノンステップ)",
    "updateTime": "2026/07/23 07:01"
  },
  {
    "vehicleNum": "080937",
    "vehicleCd": "595",
    "vehicleCorpCd": "1",
    "running": true,
    "lat": 34.577389,
    "lon": 135.469694,
    "route": "堺駅南口→三国ヶ丘駅前→北野田駅前",
    "stop": "川尻",
    "passTime": "07:01",
    "vehicleType": "南海バス(車椅子・ベビーカー・ノンステップ)",
    "updateTime": "2026/07/23 07:01"
  },
  {
    "vehicleNum": "080935",
    "vehicleCd": "593",
    "vehicleCorpCd": "1",
    "running": true,
    "lat": 34.574583,
    "lon": 135.481778,
    "route": "河内松原駅前→阪和堺市駅前→堺駅前",
    "stop": "瓦町公園前",
    "passTime": "06:59",
    "vehicleType": "南海バス(車椅子・ベビーカー・ノンステップ)",
    "updateTime": "2026/07/23 07:01"
  },
  {
    "vehicleNum": "080956",
    "vehicleCd": "71",
    "vehicleCorpCd": "1",
    "running": true,
    "lat": 34.6385,
    "lon": 135.420083,
    "route": "堺東駅前→ＡＴＣ／フェリー→堺東駅前",
    "stop": "コスモタワー",
    "passTime": "07:00",
    "vehicleType": "南海バス",
    "updateTime": "2026/07/23 07:02"
  },
  {
    "vehicleNum": "080966",
    "vehicleCd": "387",
    "vehicleCorpCd": "1",
    "running": true,
    "lat": 34.500194,
    "lon": 135.513694,
    "route": "東山車庫前→田園→泉ヶ丘駅",
    "stop": "三原台北",
    "passTime": "07:00",
    "vehicleType": "南海バス(車椅子・ベビーカー・ノンステップ)",
    "updateTime": "2026/07/23 07:02"
  },
  {
    "vehicleNum": "080967",
    "vehicleCd": "605",
    "vehicleCorpCd": "1",
    "running": true,
    "lat": 34.537889,
    "lon": 135.544083,
    "route": "初芝駅前→平尾→中もず駅前",
    "stop": "余部西口",
    "passTime": "07:00",
    "vehicleType": "南海バス(車椅子・ベビーカー・ノンステップ)",
    "updateTime": "2026/07/23 07:02"
  },
  {
    "vehicleNum": "080977",
    "vehicleCd": "388",
    "vehicleCorpCd": "1",
    "running": true,
    "lat": 34.530083,
    "lon": 135.497583,
    "route": "堺東駅前→もず駅前→深井駅→あみだ池",
    "stop": "深井駅",
    "passTime": "07:01",
    "vehicleType": "南海バス(車椅子・ベビーカー・ノンステップ)",
    "updateTime": "2026/07/23 07:02"
  },
  {
    "vehicleNum": "080978",
    "vehicleCd": "431",
    "vehicleCorpCd": "1",
    "running": true,
    "lat": 34.554694,
    "lon": 135.500694,
    "route": "堺駅南口→三国ヶ丘駅前→北野田駅前",
    "stop": "中もず駅前（南側）",
    "passTime": "06:58",
    "vehicleType": "南海バス(車椅子・ベビーカー・ノンステップ)",
    "updateTime": "2026/07/23 07:02"
  },
  {
    "vehicleNum": "080989",
    "vehicleCd": "259",
    "vehicleCorpCd": "1",
    "running": true,
    "lat": 34.540083,
    "lon": 135.471778,
    "route": "堺東駅前→堀上緑町１丁→堺東駅前",
    "stop": "津久野中学校前",
    "passTime": "07:00",
    "vehicleType": "南海バス(車椅子・ベビーカー・ノンステップ)",
    "updateTime": "2026/07/23 07:02"
  },
  {
    "vehicleNum": "080994",
    "vehicleCd": "130",
    "vehicleCorpCd": "1",
    "running": true,
    "lat": 34.499778,
    "lon": 135.5135,
    "route": "泉ヶ丘駅→三原台左回り→泉ヶ丘駅",
    "stop": "泉ヶ丘駅（北側）",
    "passTime": "06:59",
    "vehicleType": "南海バス(車椅子・ベビーカー・ノンステップ)",
    "updateTime": "2026/07/23 07:02"
  },
  {
    "vehicleNum": "080995",
    "vehicleCd": "118",
    "vehicleCorpCd": "1",
    "running": true,
    "lat": 34.483389,
    "lon": 135.517083,
    "route": "泉ヶ丘駅→槙塚台右回り→泉ヶ丘駅",
    "stop": "槙塚台２丁北",
    "passTime": "07:01",
    "vehicleType": "南海バス(車椅子・ベビーカー・ノンステップ)",
    "updateTime": "2026/07/23 07:02"
  },
  {
    "vehicleNum": "080996",
    "vehicleCd": "191",
    "vehicleCorpCd": "1",
    "running": true,
    "lat": 34.536278,
    "lon": 135.561083,
    "route": "初芝駅前→平尾→初芝駅前",
    "stop": "船戸下",
    "passTime": "07:01",
    "vehicleType": "南海バス(車椅子・ベビーカー・ノンステップ)",
    "updateTime": "2026/07/23 07:02"
  },
  {
    "vehicleNum": "080999",
    "vehicleCd": "493",
    "vehicleCorpCd": "1",
    "running": true,
    "lat": 34.536472,
    "lon": 135.519583,
    "route": "北野田駅前→西口園→堺駅南口",
    "stop": "関茶屋",
    "passTime": "07:01",
    "vehicleType": "南海バス(車椅子・ベビーカー・ノンステップ)",
    "updateTime": "2026/07/23 07:02"
  },
  {
    "vehicleNum": "081007",
    "vehicleCd": "127",
    "vehicleCorpCd": "1",
    "running": true,
    "lat": 34.542,
    "lon": 135.468278,
    "route": "堀上緑町１丁→堺東駅前",
    "stop": "津久野駅前",
    "passTime": "07:01",
    "vehicleType": "南海バス(車椅子・ベビーカー・ノンステップ)",
    "updateTime": "2026/07/23 07:02"
  },
  {
    "vehicleNum": "081006",
    "vehicleCd": "54",
    "vehicleCorpCd": "1",
    "running": true,
    "lat": 34.541583,
    "lon": 135.5,
    "route": "あみだ池→深井駅→もず駅前→堺東駅前",
    "stop": "土師",
    "passTime": "07:01",
    "vehicleType": "南海バス(車椅子・ベビーカー・ノンステップ)",
    "updateTime": "2026/07/23 07:02"
  },
  {
    "vehicleNum": "081005",
    "vehicleCd": "272",
    "vehicleCorpCd": "1",
    "running": true,
    "lat": 34.5145,
    "lon": 135.494083,
    "route": "泉ヶ丘駅→宮山台中学校前→堺東駅前",
    "stop": "伏尾",
    "passTime": "06:59",
    "vehicleType": "南海バス(車椅子・ベビーカー・ノンステップ)",
    "updateTime": "2026/07/23 07:02"
  },
  {
    "vehicleNum": "081008",
    "vehicleCd": "47",
    "vehicleCorpCd": "1",
    "running": true,
    "lat": 34.521278,
    "lon": 135.520194,
    "route": "東山車庫前→北野田駅前",
    "stop": "西山",
    "passTime": "07:00",
    "vehicleType": "南海バス(車椅子・ベビーカー・ノンステップ)",
    "updateTime": "2026/07/23 07:02"
  },
  {
    "vehicleNum": "081013",
    "vehicleCd": "554",
    "vehicleCorpCd": "1",
    "running": true,
    "lat": 34.570083,
    "lon": 135.481083,
    "route": "堀上緑町１丁→堺東駅前",
    "stop": "一条通",
    "passTime": "07:00",
    "vehicleType": "南海バス(車椅子・ベビーカー・ノンステップ)",
    "updateTime": "2026/07/23 07:02"
  },
  {
    "vehicleNum": "081016",
    "vehicleCd": "239",
    "vehicleCorpCd": "1",
    "running": true,
    "lat": 34.490278,
    "lon": 135.507,
    "route": "明正→鉢ヶ峯→泉ヶ丘駅",
    "stop": "若松台センター",
    "passTime": "07:01",
    "vehicleType": "南海バス(車椅子・ベビーカー・ノンステップ)",
    "updateTime": "2026/07/23 07:02"
  },
  {
    "vehicleNum": "081017",
    "vehicleCd": "135",
    "vehicleCorpCd": "1",
    "running": true,
    "lat": 34.4685,
    "lon": 135.501694,
    "route": "栂・美木多駅→庭代台右回り→栂・美木多駅",
    "stop": "庭代台中学校前",
    "passTime": "07:02",
    "vehicleType": "南海バス(車椅子・ベビーカー・ノンステップ)",
    "updateTime": "2026/07/23 07:02"
  },
  {
    "vehicleNum": "081020",
    "vehicleCd": "163",
    "vehicleCorpCd": "1",
    "running": true,
    "lat": 34.497389,
    "lon": 135.509083,
    "route": "八田荘団地→泉ヶ丘駅",
    "stop": "竹城台２丁",
    "passTime": "07:00",
    "vehicleType": "南海バス(車椅子・ベビーカー・ノンステップ)",
    "updateTime": "2026/07/23 07:02"
  },
  {
    "vehicleNum": "081018",
    "vehicleCd": "263",
    "vehicleCorpCd": "1",
    "running": true,
    "lat": 34.557083,
    "lon": 135.506583,
    "route": "中もず駅前→平尾→初芝駅前",
    "stop": "中もず駅前（北側）",
    "passTime": "06:58",
    "vehicleType": "南海バス(車椅子・ベビーカー・ノンステップ)",
    "updateTime": "2026/07/23 07:02"
  },
  {
    "vehicleNum": "081019",
    "vehicleCd": "267",
    "vehicleCorpCd": "1",
    "running": true,
    "lat": 34.559778,
    "lon": 135.472583,
    "route": "堺東駅前→上野芝→泉ヶ丘駅",
    "stop": "旭ヶ丘北町",
    "passTime": "07:01",
    "vehicleType": "南海バス(車椅子・ベビーカー・ノンステップ)",
    "updateTime": "2026/07/23 07:02"
  },
  {
    "vehicleNum": "081021",
    "vehicleCd": "243",
    "vehicleCorpCd": "1",
    "running": true,
    "lat": 34.516694,
    "lon": 135.491972,
    "route": "中もず駅前→北条→伏尾",
    "stop": "天の橋",
    "passTime": "07:01",
    "vehicleType": "南海バス(車椅子・ベビーカー・ノンステップ)",
    "updateTime": "2026/07/23 07:02"
  },
  {
    "vehicleNum": "081023",
    "vehicleCd": "264",
    "vehicleCorpCd": "1",
    "running": true,
    "lat": 34.523194,
    "lon": 135.5375,
    "route": "堺駅南口→福町→北野田駅前",
    "stop": "大美野噴水前",
    "passTime": "07:02",
    "vehicleType": "南海バス(車椅子・ベビーカー・ノンステップ)",
    "updateTime": "2026/07/23 07:02"
  },
  {
    "vehicleNum": "081034",
    "vehicleCd": "120",
    "vehicleCorpCd": "1",
    "running": true,
    "lat": 34.4855,
    "lon": 135.503278,
    "route": "畑→片蔵→泉ヶ丘駅",
    "stop": "片蔵",
    "passTime": "07:01",
    "vehicleType": "南海バス(車椅子・ベビーカー・ノンステップ)",
    "updateTime": "2026/07/23 07:02"
  },
  {
    "vehicleNum": "081024",
    "vehicleCd": "270",
    "vehicleCorpCd": "1",
    "running": true,
    "lat": 34.554583,
    "lon": 135.469194,
    "route": "東山車庫前→小阪→堺東駅前",
    "stop": "南陵通１丁",
    "passTime": "06:59",
    "vehicleType": "南海バス(車椅子・ベビーカー・ノンステップ)",
    "updateTime": "2026/07/23 07:02"
  },
  {
    "vehicleNum": "081036",
    "vehicleCd": "293",
    "vehicleCorpCd": "1",
    "running": true,
    "lat": 34.470694,
    "lon": 135.494,
    "route": "栂・美木多駅→御池台回り→栂・美木多駅",
    "stop": "庭代台１丁",
    "passTime": "07:01",
    "vehicleType": "南海バス(車椅子・ベビーカー・ノンステップ)",
    "updateTime": "2026/07/23 07:02"
  },
  {
    "vehicleNum": "081037",
    "vehicleCd": "236",
    "vehicleCorpCd": "1",
    "running": true,
    "lat": 34.490472,
    "lon": 135.532194,
    "route": "泉ヶ丘駅→晴美台右回り→泉ヶ丘駅",
    "stop": "はるみ小学校前",
    "passTime": "07:01",
    "vehicleType": "南海バス(車椅子・ベビーカー・ノンステップ)",
    "updateTime": "2026/07/23 07:02"
  },
  {
    "vehicleNum": "081040",
    "vehicleCd": "248",
    "vehicleCorpCd": "1",
    "running": true,
    "lat": 34.491278,
    "lon": 135.527889,
    "route": "泉ヶ丘駅→スマ・エコタウン晴美台→高倉台右回り→泉ヶ丘駅",
    "stop": "高倉台４丁",
    "passTime": "07:02",
    "vehicleType": "南海バス(車椅子・ベビーカー・ノンステップ)",
    "updateTime": "2026/07/23 07:02"
  },
  {
    "vehicleNum": "081043",
    "vehicleCd": "612",
    "vehicleCorpCd": "1",
    "running": true,
    "lat": 34.534972,
    "lon": 135.480278,
    "route": "泉ヶ丘駅→深阪→津久野駅前",
    "stop": "深井西口",
    "passTime": "07:02",
    "vehicleType": "南海バス(車椅子・ベビーカー・ノンステップ)",
    "updateTime": "2026/07/23 07:02"
  },
  {
    "vehicleNum": "090035",
    "vehicleCd": "242",
    "vehicleCorpCd": "1",
    "running": true,
    "lat": 34.505194,
    "lon": 135.448389,
    "route": "北信太駅筋→鶴山台団地→北信太駅筋",
    "stop": "信太中学校前",
    "passTime": "07:02",
    "vehicleType": "南海バス(車椅子・ベビーカー・ワンステップ)",
    "updateTime": "2026/07/23 07:02"
  },
  {
    "vehicleNum": "090144",
    "vehicleCd": "82",
    "vehicleCorpCd": "2",
    "running": true,
    "lat": 34.462278,
    "lon": 135.441583,
    "route": "岸和田駅前→荒木町→和泉中央駅",
    "stop": "東ヶ丘町",
    "passTime": "07:00",
    "vehicleType": "南海ウイングバス(車椅子・ベビーカー・ワンステップ)",
    "updateTime": "2026/07/23 07:02"
  },
  {
    "vehicleNum": "090170",
    "vehicleCd": "117",
    "vehicleCorpCd": "2",
    "running": true,
    "lat": 34.466694,
    "lon": 135.406889,
    "route": "和泉中央駅→荒木町→岸和田駅前",
    "stop": "久米田駅前",
    "passTime": "07:01",
    "vehicleType": "南海ウイングバス",
    "updateTime": "2026/07/23 07:02"
  },
  {
    "vehicleNum": "090491",
    "vehicleCd": "50",
    "vehicleCorpCd": "2",
    "running": true,
    "lat": 34.429583,
    "lon": 135.429389,
    "route": "岸和田駅前→岸和田警察署前→道の駅愛彩ランド",
    "stop": "蜻蛉池公園前",
    "passTime": "06:59",
    "vehicleType": "南海ウイングバス(車椅子・ワンステップ)",
    "updateTime": "2026/07/23 07:02"
  },
  {
    "vehicleNum": "091107",
    "vehicleCd": "23",
    "vehicleCorpCd": "2",
    "running": true,
    "lat": 34.454389,
    "lon": 135.385778,
    "route": "白原車庫→内畑→岸和田駅前",
    "stop": "市民病院前",
    "passTime": "07:02",
    "vehicleType": "南海ウイングバス(車椅子・ワンステップ)",
    "updateTime": "2026/07/23 07:02"
  },
  {
    "vehicleNum": "091146",
    "vehicleCd": "17",
    "vehicleCorpCd": "2",
    "running": true,
    "lat": 34.444889,
    "lon": 135.434389,
    "route": "白原車庫→内畑→岸和田駅前",
    "stop": "包近",
    "passTime": "07:01",
    "vehicleType": "南海ウイングバス(車椅子・ベビーカー・ワンステップ)",
    "updateTime": "2026/07/23 07:02"
  },
  {
    "vehicleNum": "091381",
    "vehicleCd": "330",
    "vehicleCorpCd": "1",
    "running": true,
    "lat": 34.540972,
    "lon": 135.463389,
    "route": "栂・美木多駅→鳳駅前→堺東駅前",
    "stop": "鳳北口",
    "passTime": "07:01",
    "vehicleType": "南海バス(車椅子・ベビーカー・ワンステップ)",
    "updateTime": "2026/07/23 07:02"
  },
  {
    "vehicleNum": "091580",
    "vehicleCd": "85",
    "vehicleCorpCd": "2",
    "running": true,
    "lat": 34.368472,
    "lon": 135.298083,
    "route": "泉南市コミュニティバス 朝 新家回り",
    "stop": "新家公民館",
    "passTime": "07:01",
    "vehicleType": "南海ウイングバス(車椅子・ベビーカー・ノンステップ)",
    "updateTime": "2026/07/23 07:02"
  },
  {
    "vehicleNum": "091737",
    "vehicleCd": "48",
    "vehicleCorpCd": "2",
    "running": true,
    "lat": 34.4495,
    "lon": 135.435389,
    "route": "道の駅愛彩ランド→包近→和泉中央駅",
    "stop": "包近",
    "passTime": "06:59",
    "vehicleType": "南海ウイングバス(車椅子・ベビーカー・ワンステップ)",
    "updateTime": "2026/07/23 07:02"
  },
  {
    "vehicleNum": "091736",
    "vehicleCd": "65",
    "vehicleCorpCd": "2",
    "running": true,
    "lat": 34.405583,
    "lon": 135.3415,
    "route": "大阪体育大学前→熊取駅前→ダンバラ公園前→泉佐野駅前",
    "stop": "熊取駅前",
    "passTime": "07:01",
    "vehicleType": "南海ウイングバス(車椅子・ワンステップ)",
    "updateTime": "2026/07/23 07:02"
  },
  {
    "vehicleNum": "091738",
    "vehicleCd": "12",
    "vehicleCorpCd": "2",
    "running": true,
    "lat": 34.403778,
    "lon": 135.340583,
    "route": "山の手台→小谷→熊取駅前→泉陽ヶ丘→泉佐野駅前",
    "stop": "熊取駅口",
    "passTime": "07:01",
    "vehicleType": "南海ウイングバス(車椅子・ワンステップ)",
    "updateTime": "2026/07/23 07:02"
  },
  {
    "vehicleNum": "091745",
    "vehicleCd": "103",
    "vehicleCorpCd": "2",
    "running": true,
    "lat": 34.458,
    "lon": 135.381278,
    "route": "岸和田駅前→内畑→牛滝温泉",
    "stop": "岸和田駅前",
    "passTime": "07:00",
    "vehicleType": "南海ウイングバス",
    "updateTime": "2026/07/23 07:02"
  },
  {
    "vehicleNum": "091740",
    "vehicleCd": "105",
    "vehicleCorpCd": "2",
    "running": true,
    "lat": 34.4305,
    "lon": 135.394694,
    "route": "岸和田駅前→天神山・一の宮循環　右回り→岸和田駅前",
    "stop": "天神山町１丁目",
    "passTime": "07:01",
    "vehicleType": "南海ウイングバス(車椅子・ベビーカー・ワンステップ)",
    "updateTime": "2026/07/23 07:02"
  },
  {
    "vehicleNum": "091748",
    "vehicleCd": "74",
    "vehicleCorpCd": "2",
    "running": true,
    "lat": 34.406694,
    "lon": 135.420194,
    "route": "白原車庫→河合→岸和田警察署前→岸和田駅前",
    "stop": "神於",
    "passTime": "07:02",
    "vehicleType": "南海ウイングバス(車椅子・ワンステップ)",
    "updateTime": "2026/07/23 07:02"
  },
  {
    "vehicleNum": "091792",
    "vehicleCd": "59",
    "vehicleCorpCd": "1",
    "running": true,
    "lat": 34.425083,
    "lon": 135.230583,
    "route": "空港駅→給油地区",
    "stop": "JAL輸出ビル前",
    "passTime": "07:02",
    "vehicleType": "南海バス(車椅子・ノンステップ)",
    "updateTime": "2026/07/23 07:02"
  },
  {
    "vehicleNum": "091746",
    "vehicleCd": "8",
    "vehicleCorpCd": "2",
    "running": true,
    "lat": 34.446278,
    "lon": 135.386194,
    "route": "岸和田駅前→岸和田警察署前→塔原",
    "stop": "東岸和田駅前",
    "passTime": "06:59",
    "vehicleType": "南海ウイングバス(車椅子・ベビーカー・ワンステップ)",
    "updateTime": "2026/07/23 07:02"
  },
  {
    "vehicleNum": "091895",
    "vehicleCd": "4",
    "vehicleCorpCd": "2",
    "running": true,
    "lat": 34.362694,
    "lon": 135.277694,
    "route": "泉南市コミュニティバス 朝 一丘回り",
    "stop": "砂川駅前通り",
    "passTime": "07:01",
    "vehicleType": "泉南市コミュニティバス(ピンク)",
    "updateTime": "2026/07/23 07:02"
  },
  {
    "vehicleNum": "092135",
    "vehicleCd": "525",
    "vehicleCorpCd": "1",
    "running": true,
    "lat": 34.438,
    "lon": 135.232778,
    "route": "エアロプラザ→第２ターミナル(国内線・国際線)→エアロプラザ",
    "stop": "第2ターミナル国際線",
    "passTime": "07:02",
    "vehicleType": "南海バス",
    "updateTime": "2026/07/23 07:02"
  },
  {
    "vehicleNum": "092140",
    "vehicleCd": "526",
    "vehicleCorpCd": "1",
    "running": true,
    "lat": 34.583194,
    "lon": 135.459,
    "route": "堺東駅前→ＡＴＣ→堺東駅前",
    "stop": "堺駅前",
    "passTime": "06:53",
    "vehicleType": "南海バス",
    "updateTime": "2026/07/23 07:02"
  },
  {
    "vehicleNum": "092205",
    "vehicleCd": "25",
    "vehicleCorpCd": "1",
    "running": true,
    "lat": 34.449194,
    "lon": 135.544389,
    "route": "千代→小山田→緑→千代",
    "stop": "小山田南",
    "passTime": "07:00",
    "vehicleType": "南海バス(車椅子・ベビーカー・ノンステップ)",
    "updateTime": "2026/07/23 07:02"
  },
  {
    "vehicleNum": "092234",
    "vehicleCd": "534",
    "vehicleCorpCd": "1",
    "running": true,
    "lat": 34.454083,
    "lon": 135.445083,
    "route": "グリーンポリス→和泉中央駅",
    "stop": "グリーンポリス前",
    "passTime": "07:00",
    "vehicleType": "南海バス(車椅子・ベビーカー・ノンステップ)",
    "updateTime": "2026/07/23 07:02"
  },
  {
    "vehicleNum": "092372",
    "vehicleCd": "159",
    "vehicleCorpCd": "1",
    "running": true,
    "lat": 34.491,
    "lon": 135.466389,
    "route": "堺東駅前→鳳駅前→光明池駅",
    "stop": "自動車検査場前",
    "passTime": "07:00",
    "vehicleType": "南海バス(車椅子・ベビーカー・ノンステップ)",
    "updateTime": "2026/07/23 07:02"
  },
  {
    "vehicleNum": "092382",
    "vehicleCd": "556",
    "vehicleCorpCd": "1",
    "running": true,
    "lat": 34.472083,
    "lon": 135.452889,
    "route": "光明池駅→光明池車庫→泉大津駅前",
    "stop": "鳥池",
    "passTime": "07:02",
    "vehicleType": "南海バス(車椅子・ベビーカー・ノンステップ)",
    "updateTime": "2026/07/23 07:02"
  },
  {
    "vehicleNum": "092373",
    "vehicleCd": "553",
    "vehicleCorpCd": "1",
    "running": true,
    "lat": 34.474389,
    "lon": 135.4865,
    "route": "光明池駅→城山台２丁→光明池駅",
    "stop": "美木多中学校前",
    "passTime": "06:59",
    "vehicleType": "南海バス(車椅子・ベビーカー・ノンステップ)",
    "updateTime": "2026/07/23 07:02"
  },
  {
    "vehicleNum": "092398",
    "vehicleCd": "41",
    "vehicleCorpCd": "1",
    "running": true,
    "lat": 34.434083,
    "lon": 135.237889,
    "route": "エアロプラザ→第２ターミナル(国内線・国際線)→エアロプラザ",
    "stop": "エアロプラザ",
    "passTime": "07:00",
    "vehicleType": "南海バス(車椅子・ノンステップ)",
    "updateTime": "2026/07/23 07:02"
  },
  {
    "vehicleNum": "092467",
    "vehicleCd": "50",
    "vehicleCorpCd": "1",
    "running": true,
    "lat": 34.428694,
    "lon": 135.555389,
    "route": "南ヶ丘→南花台４丁目→三日市町駅前（前乗り）",
    "stop": "南花台３丁目南",
    "passTime": "07:01",
    "vehicleType": "南海バス(車椅子・ベビーカー・ノンステップ)",
    "updateTime": "2026/07/23 07:02"
  },
  {
    "vehicleNum": "092454",
    "vehicleCd": "125",
    "vehicleCorpCd": "2",
    "running": true,
    "lat": 34.392194,
    "lon": 135.283694,
    "route": "泉南市コミュニティバス 朝 西信回り",
    "stop": "吉見岡田住宅",
    "passTime": "07:00",
    "vehicleType": "泉南市コミュニティバス(橙)",
    "updateTime": "2026/07/23 07:02"
  },
  {
    "vehicleNum": "092469",
    "vehicleCd": "220",
    "vehicleCorpCd": "1",
    "running": true,
    "lat": 34.459083,
    "lon": 135.559778,
    "route": "千代田駅前→赤峯→荘園町",
    "stop": "千代田台",
    "passTime": "07:01",
    "vehicleType": "南海バス(車椅子・ベビーカー・ノンステップ)",
    "updateTime": "2026/07/23 07:02"
  },
  {
    "vehicleNum": "092468",
    "vehicleCd": "51",
    "vehicleCorpCd": "1",
    "running": true,
    "lat": 34.418778,
    "lon": 135.558889,
    "route": "大矢船西町→三日市町駅前（前乗り）",
    "stop": "大矢船西町",
    "passTime": "07:00",
    "vehicleType": "南海バス(車椅子・ベビーカー・ノンステップ)",
    "updateTime": "2026/07/23 07:02"
  },
  {
    "vehicleNum": "092482",
    "vehicleCd": "528",
    "vehicleCorpCd": "1",
    "running": true,
    "lat": 34.436278,
    "lon": 135.580083,
    "route": "三日市町駅前→清見台回り→三日市町駅前（前乗り）",
    "stop": "清見台１丁目",
    "passTime": "07:01",
    "vehicleType": "南海バス(車椅子・ベビーカー・ノンステップ)",
    "updateTime": "2026/07/23 07:02"
  },
  {
    "vehicleNum": "092498",
    "vehicleCd": "8",
    "vehicleCorpCd": "1",
    "running": true,
    "lat": 34.438889,
    "lon": 135.449889,
    "route": "和泉中央駅→テクノステージセンター前→グリーンポリス前→和泉中央駅",
    "stop": "大阪技術研前",
    "passTime": "06:58",
    "vehicleType": "南海バス(車椅子・ベビーカー・ノンステップ)",
    "updateTime": "2026/07/23 07:02"
  },
  {
    "vehicleNum": "092570",
    "vehicleCd": "577",
    "vehicleCorpCd": "1",
    "running": true,
    "lat": 34.460583,
    "lon": 135.455083,
    "route": "泉大津駅前→和泉府中駅前→和泉中央駅",
    "stop": "唐国南",
    "passTime": "07:00",
    "vehicleType": "南海バス(車椅子・ベビーカー・ノンステップ)",
    "updateTime": "2026/07/23 07:02"
  },
  {
    "vehicleNum": "092571",
    "vehicleCd": "314",
    "vehicleCorpCd": "1",
    "running": true,
    "lat": 34.458889,
    "lon": 135.559778,
    "route": "千代→小山田→緑→千代",
    "stop": "千代田台",
    "passTime": "07:01",
    "vehicleType": "南海バス(車椅子・ベビーカー・ノンステップ)",
    "updateTime": "2026/07/23 07:02"
  },
  {
    "vehicleNum": "092572",
    "vehicleCd": "313",
    "vehicleCorpCd": "1",
    "running": true,
    "lat": 34.562278,
    "lon": 135.4745,
    "route": "光明池駅→山田→堺東駅前",
    "stop": "旭ヶ丘北町",
    "passTime": "07:01",
    "vehicleType": "南海バス(車椅子・ベビーカー・ノンステップ)",
    "updateTime": "2026/07/23 07:02"
  },
  {
    "vehicleNum": "092578",
    "vehicleCd": "147",
    "vehicleCorpCd": "1",
    "running": true,
    "lat": 34.442778,
    "lon": 135.549694,
    "route": "旭→天野山→長野",
    "stop": "水落",
    "passTime": "07:02",
    "vehicleType": "南海バス(車椅子・ベビーカー・ノンステップ)",
    "updateTime": "2026/07/23 07:02"
  },
  {
    "vehicleNum": "092579",
    "vehicleCd": "579",
    "vehicleCorpCd": "1",
    "running": true,
    "lat": 34.427889,
    "lon": 135.586194,
    "route": "美加の台駅前→美加の台口→美加の台駅前（前乗り）",
    "stop": "美加の台小学校前",
    "passTime": "07:01",
    "vehicleType": "南海バス(車椅子・ベビーカー・ノンステップ)",
    "updateTime": "2026/07/23 07:02"
  },
  {
    "vehicleNum": "092580",
    "vehicleCd": "377",
    "vehicleCorpCd": "1",
    "running": true,
    "lat": 34.483194,
    "lon": 135.427278,
    "route": "泉大津駅前→和泉府中駅前→和泉中央駅",
    "stop": "府中町南",
    "passTime": "07:02",
    "vehicleType": "南海バス(車椅子・ベビーカー・ノンステップ)",
    "updateTime": "2026/07/23 07:02"
  },
  {
    "vehicleNum": "092620",
    "vehicleCd": "311",
    "vehicleCorpCd": "1",
    "running": true,
    "lat": 34.427972,
    "lon": 135.575389,
    "route": "美加の台駅前→美加の台西→美加の台駅前（前乗り）",
    "stop": "美加の台西",
    "passTime": "07:02",
    "vehicleType": "南海バス(車椅子・ベビーカー・ノンステップ)",
    "updateTime": "2026/07/23 07:02"
  },
  {
    "vehicleNum": "092623",
    "vehicleCd": "15",
    "vehicleCorpCd": "1",
    "running": true,
    "lat": 34.466389,
    "lon": 135.448694,
    "route": "和泉府中駅前→いぶき野→和泉中央駅",
    "stop": "いぶき野一丁目",
    "passTime": "07:02",
    "vehicleType": "南海バス(車椅子・ベビーカー・ノンステップ)",
    "updateTime": "2026/07/23 07:02"
  },
  {
    "vehicleNum": "092647",
    "vehicleCd": "587",
    "vehicleCorpCd": "1",
    "running": true,
    "lat": 34.412972,
    "lon": 135.532083,
    "route": "滝畑ダム→河内長野駅前",
    "stop": "清掃工場前",
    "passTime": "06:59",
    "vehicleType": "南海バス(車椅子・ベビーカー・ノンステップ)",
    "updateTime": "2026/07/23 07:02"
  },
  {
    "vehicleNum": "092711",
    "vehicleCd": "355",
    "vehicleCorpCd": "1",
    "running": true,
    "lat": 34.473083,
    "lon": 135.4315,
    "route": "和泉中央駅→寺田→泉大津駅前",
    "stop": "寺門",
    "passTime": "07:01",
    "vehicleType": "南海バス(車椅子・ベビーカー・ノンステップ)",
    "updateTime": "2026/07/23 07:02"
  },
  {
    "vehicleNum": "092734",
    "vehicleCd": "289",
    "vehicleCorpCd": "1",
    "running": true,
    "lat": 34.414194,
    "lon": 135.571583,
    "route": "南青葉台中央→三日市町駅東（前乗り）",
    "stop": "南青葉台中央",
    "passTime": "07:02",
    "vehicleType": "南海バス(車椅子・ベビーカー・ノンステップ)",
    "updateTime": "2026/07/23 07:02"
  },
  {
    "vehicleNum": "092757",
    "vehicleCd": "306",
    "vehicleCorpCd": "1",
    "running": true,
    "lat": 34.438194,
    "lon": 135.588694,
    "route": "小吹台→河内長野駅前",
    "stop": "葛の口",
    "passTime": "07:02",
    "vehicleType": "南海バス(車椅子・ベビーカー・ノンステップ)",
    "updateTime": "2026/07/23 07:02"
  },
  {
    "vehicleNum": "092762",
    "vehicleCd": "570",
    "vehicleCorpCd": "1",
    "running": true,
    "lat": 34.524194,
    "lon": 135.462278,
    "route": "栂・美木多駅→鳳駅前→堺東駅前",
    "stop": "上",
    "passTime": "07:02",
    "vehicleType": "南海バス(車椅子・ベビーカー・ノンステップ)",
    "updateTime": "2026/07/23 07:02"
  },
  {
    "vehicleNum": "092795",
    "vehicleCd": "592",
    "vehicleCorpCd": "1",
    "running": true,
    "lat": 34.505694,
    "lon": 135.466278,
    "route": "光明池駅→山田→堺東駅前",
    "stop": "南山田",
    "passTime": "07:02",
    "vehicleType": "南海バス(車椅子・ベビーカー・ノンステップ)",
    "updateTime": "2026/07/23 07:02"
  },
  {
    "vehicleNum": "092829",
    "vehicleCd": "488",
    "vehicleCorpCd": "1",
    "running": true,
    "lat": 34.483389,
    "lon": 135.474583,
    "route": "光明池駅→新檜尾台センター→光明池駅",
    "stop": "赤坂台三丁",
    "passTime": "07:01",
    "vehicleType": "南海バス(車椅子・ベビーカー・ノンステップ)",
    "updateTime": "2026/07/23 07:02"
  },
  {
    "vehicleNum": "092831",
    "vehicleCd": "417",
    "vehicleCorpCd": "1",
    "running": true,
    "lat": 34.439972,
    "lon": 135.462778,
    "route": "和泉中央駅→はつが野六丁目→和泉中央駅",
    "stop": "はつが野三丁目",
    "passTime": "07:00",
    "vehicleType": "南海バス(車椅子・ベビーカー・ノンステップ)",
    "updateTime": "2026/07/23 07:02"
  },
  {
    "vehicleNum": "092856",
    "vehicleCd": "601",
    "vehicleCorpCd": "1",
    "running": true,
    "lat": 34.490583,
    "lon": 135.416889,
    "route": "泉大津駅前→和泉府中駅前→和泉中央駅",
    "stop": "我孫子",
    "passTime": "07:01",
    "vehicleType": "南海バス(車椅子・ベビーカー・ノンステップ)",
    "updateTime": "2026/07/23 07:02"
  },
  {
    "vehicleNum": "092858",
    "vehicleCd": "320",
    "vehicleCorpCd": "1",
    "running": true,
    "lat": 34.465889,
    "lon": 135.465694,
    "route": "和泉青葉台→和泉中央駅",
    "stop": "室堂",
    "passTime": "07:01",
    "vehicleType": "南海バス(車椅子・ベビーカー・ノンステップ)",
    "updateTime": "2026/07/23 07:02"
  },
  {
    "vehicleNum": "092863",
    "vehicleCd": "371",
    "vehicleCorpCd": "1",
    "running": true,
    "lat": 34.553778,
    "lon": 135.466778,
    "route": "堺東駅前→鳳駅前→光明池駅",
    "stop": "霞ヶ丘",
    "passTime": "07:02",
    "vehicleType": "南海バス(車椅子・ベビーカー・ノンステップ)",
    "updateTime": "2026/07/23 07:02"
  },
  {
    "vehicleNum": "092873",
    "vehicleCd": "234",
    "vehicleCorpCd": "1",
    "running": true,
    "lat": 34.46,
    "lon": 135.455,
    "route": "和泉中央駅→いぶき野→和泉府中駅前",
    "stop": "和泉中央駅",
    "passTime": "07:01",
    "vehicleType": "南海バス(車椅子・ベビーカー・ノンステップ)",
    "updateTime": "2026/07/23 07:02"
  },
  {
    "vehicleNum": "092915",
    "vehicleCd": "346",
    "vehicleCorpCd": "1",
    "running": true,
    "lat": 34.450694,
    "lon": 135.572,
    "route": "河内長野駅前→河内長野市役所前",
    "stop": "河内長野駅前",
    "passTime": "07:01",
    "vehicleType": "南海バス(車椅子・ベビーカー・ノンステップ)",
    "updateTime": "2026/07/23 07:02"
  },
  {
    "vehicleNum": "092918",
    "vehicleCd": "114",
    "vehicleCorpCd": "1",
    "running": true,
    "lat": 34.532694,
    "lon": 135.4605,
    "route": "鳳駅前→草部→栂・美木多駅",
    "stop": "鳳駅前",
    "passTime": "07:01",
    "vehicleType": "南海バス(車椅子・ベビーカー・ノンステップ)",
    "updateTime": "2026/07/23 07:02"
  },
  {
    "vehicleNum": "092916",
    "vehicleCd": "235",
    "vehicleCorpCd": "1",
    "running": true,
    "lat": 34.486194,
    "lon": 135.425,
    "route": "和泉青葉台→和泉中央駅→泉大津駅前",
    "stop": "和泉府中駅前",
    "passTime": "06:59",
    "vehicleType": "南海バス(車椅子・ベビーカー・ノンステップ)",
    "updateTime": "2026/07/23 07:02"
  },
  {
    "vehicleNum": "092936",
    "vehicleCd": "322",
    "vehicleCorpCd": "1",
    "running": true,
    "lat": 34.424694,
    "lon": 135.225583,
    "route": "空港駅→給油地区",
    "stop": "浄化センター前",
    "passTime": "07:01",
    "vehicleType": "南海バス(車椅子・ベビーカー・ノンステップ)",
    "updateTime": "2026/07/23 07:02"
  },
  {
    "vehicleNum": "092937",
    "vehicleCd": "73",
    "vehicleCorpCd": "1",
    "running": true,
    "lat": 34.484472,
    "lon": 135.491389,
    "route": "国分峠東→栂・美木多駅→堺東駅前",
    "stop": "栂・美木多駅",
    "passTime": "07:02",
    "vehicleType": "南海バス(車椅子・ベビーカー・ノンステップ)",
    "updateTime": "2026/07/23 07:02"
  },
  {
    "vehicleNum": "092948",
    "vehicleCd": "606",
    "vehicleCorpCd": "1",
    "running": true,
    "lat": 34.499694,
    "lon": 135.410278,
    "route": "和泉中央駅→寺田→泉大津駅前",
    "stop": "旭町",
    "passTime": "07:01",
    "vehicleType": "南海バス(車椅子・ベビーカー・ノンステップ)",
    "updateTime": "2026/07/23 07:02"
  },
  {
    "vehicleNum": "092951",
    "vehicleCd": "340",
    "vehicleCorpCd": "1",
    "running": true,
    "lat": 34.450278,
    "lon": 135.463389,
    "route": "はつが野六丁目→和泉中央駅",
    "stop": "はつが野口",
    "passTime": "07:00",
    "vehicleType": "南海バス(車椅子・ベビーカー・ノンステップ)",
    "updateTime": "2026/07/23 07:02"
  },
  {
    "vehicleNum": "092950",
    "vehicleCd": "257",
    "vehicleCorpCd": "1",
    "running": true,
    "lat": 34.537389,
    "lon": 135.463389,
    "route": "光明池駅→山田→堺東駅前",
    "stop": "鳳北口",
    "passTime": "07:01",
    "vehicleType": "南海バス(車椅子・ベビーカー・ノンステップ)",
    "updateTime": "2026/07/23 07:02"
  },
  {
    "vehicleNum": "092952",
    "vehicleCd": "113",
    "vehicleCorpCd": "1",
    "running": true,
    "lat": 34.458583,
    "lon": 135.489194,
    "route": "みずき台２丁目西→光明池駅",
    "stop": "光明台一丁目",
    "passTime": "07:02",
    "vehicleType": "南海バス(車椅子・ベビーカー・ノンステップ)",
    "updateTime": "2026/07/23 07:02"
  },
  {
    "vehicleNum": "092974",
    "vehicleCd": "260",
    "vehicleCorpCd": "1",
    "running": true,
    "lat": 34.478472,
    "lon": 135.432194,
    "route": "和泉中央駅→いぶき野→和泉府中駅前",
    "stop": "和泉市立総合医療センター前",
    "passTime": "07:01",
    "vehicleType": "南海バス(車椅子・ベビーカー・ノンステップ)",
    "updateTime": "2026/07/23 07:02"
  },
  {
    "vehicleNum": "092977",
    "vehicleCd": "608",
    "vehicleCorpCd": "1",
    "running": true,
    "lat": 34.499694,
    "lon": 135.410194,
    "route": "和泉青葉台→和泉中央駅→泉大津駅前",
    "stop": "旭町",
    "passTime": "07:01",
    "vehicleType": "南海バス(車椅子・ベビーカー・ノンステップ)",
    "updateTime": "2026/07/23 07:02"
  },
  {
    "vehicleNum": "093003",
    "vehicleCd": "111",
    "vehicleCorpCd": "1",
    "running": true,
    "lat": 34.439778,
    "lon": 135.462694,
    "route": "はつが野六丁目→和泉中央駅",
    "stop": "南松尾はつが野学園前",
    "passTime": "06:59",
    "vehicleType": "南海バス(車椅子・ベビーカー・ノンステップ)",
    "updateTime": "2026/07/23 07:02"
  },
  {
    "vehicleNum": "093011",
    "vehicleCd": "27",
    "vehicleCorpCd": "1",
    "running": true,
    "lat": 34.439972,
    "lon": 135.246389,
    "route": "旅客ターミナル→国内循環→旅客ターミナル",
    "stop": "旅客ターミナル",
    "passTime": "07:00",
    "vehicleType": "南海バス(車椅子・ベビーカー・ノンステップ)",
    "updateTime": "2026/07/23 07:02"
  },
  {
    "vehicleNum": "093032",
    "vehicleCd": "231",
    "vehicleCorpCd": "1",
    "running": true,
    "lat": 34.436278,
    "lon": 135.240778,
    "route": "エアロプラザ→第２ターミナル(国内線・国際線)→エアロプラザ",
    "stop": "第2ターミナル国際線",
    "passTime": "06:58",
    "vehicleType": "南海バス",
    "updateTime": "2026/07/23 07:02"
  },
  {
    "vehicleNum": "093074",
    "vehicleCd": "247",
    "vehicleCorpCd": "1",
    "running": true,
    "lat": 34.4465,
    "lon": 135.474278,
    "route": "和泉青葉台→和泉中央駅→泉大津駅前",
    "stop": "納花",
    "passTime": "07:01",
    "vehicleType": "南海バス(車椅子・ベビーカー・ノンステップ)",
    "updateTime": "2026/07/23 07:02"
  }
]