[
  {
    "vehicleNum": "070101",
    "vehicleCd": "400",
    "vehicleCorpCd": "1",
    "running": true,
    "lat": 34.485194,
    "lon": 135.530472,
    "route": "金剛駅前→狭山ニュータウンセンター→泉ヶ丘駅",
    "stop": "槙塚台３丁",
    "passTime": "16:56",
    "vehicleType": "泉北コミュニティバス(車椅子・ベビーカー・ノンステップ)",
    "updateTime": "2026/07/20 16:56"
  },
  {
    "vehicleNum": "070108",
    "vehicleCd": "406",
    "vehicleCorpCd": "1",
    "running": true,
    "lat": 34.492583,
    "lon": 135.543583,
    "route": "金剛駅前→狭山ニュータウンセンター→泉ヶ丘駅",
    "stop": "今熊",
    "passTime": "16:56",
    "vehicleType": "泉北コミュニティバス(車椅子・ベビーカー・ノンステップ)",
    "updateTime": "2026/07/20 16:56"
  },
  {
    "vehicleNum": "070104",
    "vehicleCd": "402",
    "vehicleCorpCd": "1",
    "running": true,
    "lat": 34.475083,
    "lon": 135.546194,
    "route": "泉ヶ丘駅→狭山ニュータウンセンター→金剛駅前",
    "stop": "大野口",
    "passTime": "16:56",
    "vehicleType": "泉北コミュニティバス(車椅子・ベビーカー・ノンステップ)",
    "updateTime": "2026/07/20 16:56"
  },
  {
    "vehicleNum": "071602",
    "vehicleCd": "109",
    "vehicleCorpCd": "1",
    "running": true,
    "lat": 34.580889,
    "lon": 135.470778,
    "route": "堺東駅前→大小路→堺駅前",
    "stop": "市小学校前",
    "passTime": "16:55",
    "vehicleType": "堺シャトル(車椅子・ベビーカー・ノンステップ)",
    "updateTime": "2026/07/20 16:56"
  },
  {
    "vehicleNum": "080137",
    "vehicleCd": "459",
    "vehicleCorpCd": "1",
    "running": true,
    "lat": 34.559889,
    "lon": 135.485972,
    "route": "堺旧港・ポルトマーレ→利晶→古墳→堺旧港・ポルトマーレ",
    "stop": "百舌鳥古墳群ビジターセンター",
    "passTime": "16:55",
    "vehicleType": "南海バス",
    "updateTime": "2026/07/20 16:56"
  },
  {
    "vehicleNum": "080178",
    "vehicleCd": "56",
    "vehicleCorpCd": "2",
    "running": true,
    "lat": 34.466778,
    "lon": 135.406778,
    "route": "岸和田駅前→荒木町→和泉中央駅",
    "stop": "久米田駅前",
    "passTime": "16:56",
    "vehicleType": "南海ウイングバス(車椅子・ベビーカー・ワンステップ)",
    "updateTime": "2026/07/20 16:56"
  },
  {
    "vehicleNum": "080291",
    "vehicleCd": "134",
    "vehicleCorpCd": "2",
    "running": true,
    "lat": 34.377889,
    "lon": 135.278083,
    "route": "泉南市コミュニティバス 岡田Ｂ回り",
    "stop": "氏の松団地前",
    "passTime": "16:54",
    "vehicleType": "南海ウイングバス(車椅子・ベビーカー・ノンステップ)",
    "updateTime": "2026/07/20 16:56"
  },
  {
    "vehicleNum": "080463",
    "vehicleCd": "36",
    "vehicleCorpCd": "2",
    "running": true,
    "lat": 34.401389,
    "lon": 135.357583,
    "route": "熊取ニュータウン→熊取駅前→上瓦屋町→泉佐野駅前（フリー乗降）",
    "stop": "大原口",
    "passTime": "16:55",
    "vehicleType": "南海ウイングバス(車椅子・ベビーカー・ノンステップ)",
    "updateTime": "2026/07/20 16:56"
  },
  {
    "vehicleNum": "080629",
    "vehicleCd": "447",
    "vehicleCorpCd": "1",
    "running": true,
    "lat": 34.563389,
    "lon": 135.518889,
    "route": "美原区役所→野遠→地下鉄新金岡駅前",
    "stop": "大泉緑地前",
    "passTime": "16:54",
    "vehicleType": "南海バス(車椅子・ベビーカー・ノンステップ)",
    "updateTime": "2026/07/20 16:56"
  },
  {
    "vehicleNum": "080652",
    "vehicleCd": "456",
    "vehicleCorpCd": "1",
    "running": true,
    "lat": 34.528583,
    "lon": 135.536583,
    "route": "北野田駅前→多治井北（循環）→北野田駅前",
    "stop": "高松",
    "passTime": "16:55",
    "vehicleType": "南海バス",
    "updateTime": "2026/07/20 16:56"
  },
  {
    "vehicleNum": "080671",
    "vehicleCd": "465",
    "vehicleCorpCd": "1",
    "running": true,
    "lat": 34.583194,
    "lon": 135.527083,
    "route": "河内天美駅前→天美我堂→堺東駅前",
    "stop": "天美我堂",
    "passTime": "16:56",
    "vehicleType": "南海バス(車椅子・ベビーカー・ノンステップ)",
    "updateTime": "2026/07/20 16:56"
  },
  {
    "vehicleNum": "080734",
    "vehicleCd": "415",
    "vehicleCorpCd": "1",
    "running": true,
    "lat": 34.543972,
    "lon": 135.550278,
    "route": "地下鉄新金岡駅前→野遠→美原区役所",
    "stop": "太井",
    "passTime": "16:55",
    "vehicleType": "南海バス",
    "updateTime": "2026/07/20 16:56"
  },
  {
    "vehicleNum": "080703",
    "vehicleCd": "219",
    "vehicleCorpCd": "1",
    "running": true,
    "lat": 34.582778,
    "lon": 135.516083,
    "route": "堺東駅前→錦綾町→河内天美駅前",
    "stop": "地下鉄北花田駅前",
    "passTime": "16:53",
    "vehicleType": "南海バス(車椅子・ベビーカー・ノンステップ)",
    "updateTime": "2026/07/20 16:56"
  },
  {
    "vehicleNum": "080740",
    "vehicleCd": "181",
    "vehicleCorpCd": "1",
    "running": true,
    "lat": 34.549778,
    "lon": 135.498194,
    "route": "堺東駅前→もず駅前→深井駅→あみだ池",
    "stop": "もず八幡前",
    "passTime": "16:53",
    "vehicleType": "南海バス(車椅子・ベビーカー・ノンステップ)",
    "updateTime": "2026/07/20 16:56"
  },
  {
    "vehicleNum": "080747",
    "vehicleCd": "161",
    "vehicleCorpCd": "1",
    "running": true,
    "lat": 34.574694,
    "lon": 135.501694,
    "route": "地下鉄北花田駅前→蔵前西→ＪＲ堺市駅前→地下鉄北花田駅前",
    "stop": "長尾町",
    "passTime": "16:55",
    "vehicleType": "南海バス(車椅子・ベビーカー・ノンステップ)",
    "updateTime": "2026/07/20 16:56"
  },
  {
    "vehicleNum": "080746",
    "vehicleCd": "395",
    "vehicleCorpCd": "1",
    "running": true,
    "lat": 34.497194,
    "lon": 135.569583,
    "route": "金剛駅前→向陽・藤沢回り→金剛駅前",
    "stop": "高辺台三丁目",
    "passTime": "16:56",
    "vehicleType": "南海バス(車椅子・ベビーカー・ノンステップ)",
    "updateTime": "2026/07/20 16:56"
  },
  {
    "vehicleNum": "080751",
    "vehicleCd": "551",
    "vehicleCorpCd": "1",
    "running": true,
    "lat": 34.584583,
    "lon": 135.496889,
    "route": "地下鉄北花田駅前→香ヶ丘→イオンモール堺鉄砲町",
    "stop": "愛泉学園前",
    "passTime": "16:56",
    "vehicleType": "南海バス(車椅子・ベビーカー・ノンステップ)",
    "updateTime": "2026/07/20 16:56"
  },
  {
    "vehicleNum": "080757",
    "vehicleCd": "182",
    "vehicleCorpCd": "1",
    "running": true,
    "lat": 34.494389,
    "lon": 135.562694,
    "route": "金剛駅前→寺池台小学校前→金剛駅前",
    "stop": "金剛駅前（東側）",
    "passTime": "16:54",
    "vehicleType": "南海バス(車椅子・ベビーカー・ノンステップ)",
    "updateTime": "2026/07/20 16:56"
  },
  {
    "vehicleNum": "080758",
    "vehicleCd": "511",
    "vehicleCorpCd": "1",
    "running": true,
    "lat": 34.523778,
    "lon": 135.488,
    "route": "津久野駅前→堺市立総合医療センター前→八田荘団地→泉ヶ丘駅",
    "stop": "八田荘",
    "passTime": "16:56",
    "vehicleType": "南海バス(車椅子・ベビーカー・ノンステップ)",
    "updateTime": "2026/07/20 16:56"
  },
  {
    "vehicleNum": "080760",
    "vehicleCd": "559",
    "vehicleCorpCd": "1",
    "running": true,
    "lat": 34.565583,
    "lon": 135.493389,
    "route": "堺駅南口→地下鉄新金岡駅前",
    "stop": "細池橋",
    "passTime": "16:53",
    "vehicleType": "南海バス(車椅子・ベビーカー・ノンステップ)",
    "updateTime": "2026/07/20 16:56"
  },
  {
    "vehicleNum": "080761",
    "vehicleCd": "560",
    "vehicleCorpCd": "1",
    "running": true,
    "lat": 34.538083,
    "lon": 135.543583,
    "route": "美原区役所前→船戸下→初芝駅前→中もず駅前",
    "stop": "北余部",
    "passTime": "16:55",
    "vehicleType": "南海バス(車椅子・ベビーカー・ノンステップ)",
    "updateTime": "2026/07/20 16:56"
  },
  {
    "vehicleNum": "080762",
    "vehicleCd": "561",
    "vehicleCorpCd": "1",
    "running": true,
    "lat": 34.565778,
    "lon": 135.514889,
    "route": "阪和堺市駅前→堺駅南口",
    "stop": "地下鉄新金岡駅前",
    "passTime": "16:56",
    "vehicleType": "南海バス(車椅子・ベビーカー・ノンステップ)",
    "updateTime": "2026/07/20 16:56"
  },
  {
    "vehicleNum": "080764",
    "vehicleCd": "563",
    "vehicleCorpCd": "1",
    "running": true,
    "lat": 34.547778,
    "lon": 135.484278,
    "route": "堺東駅前→上野芝→泉ヶ丘駅",
    "stop": "向ヶ丘",
    "passTime": "16:56",
    "vehicleType": "南海バス(車椅子・ベビーカー・ノンステップ)",
    "updateTime": "2026/07/20 16:56"
  },
  {
    "vehicleNum": "080765",
    "vehicleCd": "564",
    "vehicleCorpCd": "1",
    "running": true,
    "lat": 34.522083,
    "lon": 135.528389,
    "route": "北野田駅前→福町→深井駅",
    "stop": "福町",
    "passTime": "16:55",
    "vehicleType": "南海バス(車椅子・ベビーカー・ノンステップ)",
    "updateTime": "2026/07/20 16:56"
  },
  {
    "vehicleNum": "080767",
    "vehicleCd": "566",
    "vehicleCorpCd": "1",
    "running": true,
    "lat": 34.541083,
    "lon": 135.533389,
    "route": "初芝駅前→平尾→中もず駅前",
    "stop": "日置荘小学校前",
    "passTime": "16:56",
    "vehicleType": "南海バス(車椅子・ベビーカー・ノンステップ)",
    "updateTime": "2026/07/20 16:56"
  },
  {
    "vehicleNum": "080787",
    "vehicleCd": "301",
    "vehicleCorpCd": "1",
    "running": true,
    "lat": 34.572889,
    "lon": 135.476889,
    "route": "堺駅前→堺東駅前→河内松原駅前",
    "stop": "安井町",
    "passTime": "16:56",
    "vehicleType": "南海バス(車椅子・ベビーカー・ノンステップ)",
    "updateTime": "2026/07/20 16:56"
  },
  {
    "vehicleNum": "080792",
    "vehicleCd": "302",
    "vehicleCorpCd": "1",
    "running": true,
    "lat": 34.578,
    "lon": 135.481694,
    "route": "河内松原駅前→阪和堺市駅前→堺駅前",
    "stop": "方違神社前",
    "passTime": "16:54",
    "vehicleType": "南海バス(車椅子・ベビーカー・ノンステップ)",
    "updateTime": "2026/07/20 16:56"
  },
  {
    "vehicleNum": "080794",
    "vehicleCd": "344",
    "vehicleCorpCd": "1",
    "running": true,
    "lat": 34.593083,
    "lon": 135.4685,
    "route": "堺駅西口→錦綾町→堺東駅前",
    "stop": "三宝",
    "passTime": "16:54",
    "vehicleType": "南海バス(車椅子・ベビーカー・ノンステップ)",
    "updateTime": "2026/07/20 16:56"
  },
  {
    "vehicleNum": "080796",
    "vehicleCd": "108",
    "vehicleCorpCd": "1",
    "running": true,
    "lat": 34.585278,
    "lon": 135.469694,
    "route": "海浜匠町→匠町→堺駅西口→堺東駅前→阪和堺市駅前",
    "stop": "三宝公園前",
    "passTime": "16:54",
    "vehicleType": "南海バス(車椅子・ベビーカー・ノンステップ)",
    "updateTime": "2026/07/20 16:56"
  },
  {
    "vehicleNum": "080795",
    "vehicleCd": "43",
    "vehicleCorpCd": "1",
    "running": true,
    "lat": 34.609,
    "lon": 135.473389,
    "route": "堺東→住之江公園→堺東",
    "stop": "住之江公園駅前",
    "passTime": "16:55",
    "vehicleType": "南海バス(車椅子・ベビーカー・ノンステップ)",
    "updateTime": "2026/07/20 16:56"
  },
  {
    "vehicleNum": "080798",
    "vehicleCd": "107",
    "vehicleCorpCd": "1",
    "running": true,
    "lat": 34.574778,
    "lon": 135.513583,
    "route": "堺駅前→堺東駅前→河内松原駅前",
    "stop": "蔵前西",
    "passTime": "16:55",
    "vehicleType": "南海バス(車椅子・ベビーカー・ノンステップ)",
    "updateTime": "2026/07/20 16:56"
  },
  {
    "vehicleNum": "080800",
    "vehicleCd": "304",
    "vehicleCorpCd": "1",
    "running": true,
    "lat": 34.601583,
    "lon": 135.472,
    "route": "匠町→住之江公園駅前→匠町",
    "stop": "住之江公園駅前",
    "passTime": "16:52",
    "vehicleType": "南海バス(車椅子・ベビーカー・ノンステップ)",
    "updateTime": "2026/07/20 16:56"
  },
  {
    "vehicleNum": "080808",
    "vehicleCd": "216",
    "vehicleCorpCd": "1",
    "running": true,
    "lat": 34.574778,
    "lon": 135.537389,
    "route": "河内松原駅前→阪和堺市駅前→堺駅前",
    "stop": "南新町１丁目",
    "passTime": "16:55",
    "vehicleType": "南海バス(車椅子・ベビーカー・ノンステップ)",
    "updateTime": "2026/07/20 16:56"
  },
  {
    "vehicleNum": "080814",
    "vehicleCd": "193",
    "vehicleCorpCd": "1",
    "running": true,
    "lat": 34.499472,
    "lon": 135.525889,
    "route": "泉ヶ丘駅→三原台左回り→泉ヶ丘駅",
    "stop": "三原台中学校前",
    "passTime": "16:55",
    "vehicleType": "南海バス(車椅子・ベビーカー・ノンステップ)",
    "updateTime": "2026/07/20 16:56"
  },
  {
    "vehicleNum": "080836",
    "vehicleCd": "268",
    "vehicleCorpCd": "1",
    "running": true,
    "lat": 34.601694,
    "lon": 135.461972,
    "route": "Ｊグリーン堺クラブハウス前→住之江公園駅前",
    "stop": "Jグリーン堺クラブハウス前",
    "passTime": "16:50",
    "vehicleType": "南海バス(車椅子・ベビーカー・ノンステップ)",
    "updateTime": "2026/07/20 16:56"
  },
  {
    "vehicleNum": "080837",
    "vehicleCd": "351",
    "vehicleCorpCd": "1",
    "running": true,
    "lat": 34.529778,
    "lon": 135.499778,
    "route": "あみだ池→深井駅→もず駅前→堺東駅前",
    "stop": "畑山",
    "passTime": "16:54",
    "vehicleType": "南海バス(車椅子・ベビーカー・ノンステップ)",
    "updateTime": "2026/07/20 16:56"
  },
  {
    "vehicleNum": "080825",
    "vehicleCd": "261",
    "vehicleCorpCd": "1",
    "running": true,
    "lat": 34.540083,
    "lon": 135.470278,
    "route": "堺東駅前→堀上緑町１丁→堺東駅前",
    "stop": "津久野駅前",
    "passTime": "16:55",
    "vehicleType": "南海バス(車椅子・ベビーカー・ノンステップ)",
    "updateTime": "2026/07/20 16:56"
  },
  {
    "vehicleNum": "080827",
    "vehicleCd": "317",
    "vehicleCorpCd": "1",
    "running": true,
    "lat": 34.554583,
    "lon": 135.511,
    "route": "美原区役所前→船戸下→初芝駅前→中もず駅前",
    "stop": "蟻ヶ池",
    "passTime": "16:55",
    "vehicleType": "南海バス(車椅子・ベビーカー・ノンステップ)",
    "updateTime": "2026/07/20 16:56"
  },
  {
    "vehicleNum": "080844",
    "vehicleCd": "581",
    "vehicleCorpCd": "1",
    "running": true,
    "lat": 34.496194,
    "lon": 135.512889,
    "route": "泉ヶ丘駅→晴美台右回り→泉ヶ丘駅",
    "stop": "茶山台２丁",
    "passTime": "16:53",
    "vehicleType": "南海バス(車椅子・ベビーカー・ノンステップ)",
    "updateTime": "2026/07/20 16:56"
  },
  {
    "vehicleNum": "080846",
    "vehicleCd": "224",
    "vehicleCorpCd": "1",
    "running": true,
    "lat": 34.496083,
    "lon": 135.564194,
    "route": "金剛駅前→向陽・藤沢回り→金剛駅前",
    "stop": "久野喜台二丁目",
    "passTime": "16:55",
    "vehicleType": "南海バス(車椅子・ベビーカー・ノンステップ)",
    "updateTime": "2026/07/20 16:56"
  },
  {
    "vehicleNum": "080850",
    "vehicleCd": "24",
    "vehicleCorpCd": "1",
    "running": true,
    "lat": 34.484694,
    "lon": 135.527389,
    "route": "泉ヶ丘駅→槙塚台左回り→泉ヶ丘駅",
    "stop": "槙塚台センター",
    "passTime": "16:56",
    "vehicleType": "南海バス(車椅子・ベビーカー・ノンステップ)",
    "updateTime": "2026/07/20 16:56"
  },
  {
    "vehicleNum": "080854",
    "vehicleCd": "17",
    "vehicleCorpCd": "1",
    "running": true,
    "lat": 34.5855,
    "lon": 135.469778,
    "route": "堺東駅前→錦綾町→堺駅西口",
    "stop": "三宝公園前",
    "passTime": "16:54",
    "vehicleType": "南海バス(車椅子・ベビーカー・ノンステップ)",
    "updateTime": "2026/07/20 16:56"
  },
  {
    "vehicleNum": "080863",
    "vehicleCd": "249",
    "vehicleCorpCd": "1",
    "running": true,
    "lat": 34.582778,
    "lon": 135.486278,
    "route": "堺東駅前→錦綾町→堺駅西口",
    "stop": "北庄町",
    "passTime": "16:56",
    "vehicleType": "南海バス(車椅子・ベビーカー・ノンステップ)",
    "updateTime": "2026/07/20 16:56"
  },
  {
    "vehicleNum": "080866",
    "vehicleCd": "497",
    "vehicleCorpCd": "1",
    "running": true,
    "lat": 34.500083,
    "lon": 135.582583,
    "route": "金剛駅前→高辺台小学校前→金剛駅前",
    "stop": "小金台２丁目東",
    "passTime": "16:56",
    "vehicleType": "南海バス(車椅子・ベビーカー・ノンステップ)",
    "updateTime": "2026/07/20 16:56"
  },
  {
    "vehicleNum": "080867",
    "vehicleCd": "364",
    "vehicleCorpCd": "1",
    "running": true,
    "lat": 34.498389,
    "lon": 135.546194,
    "route": "泉ヶ丘駅→帝塚山学院泉ヶ丘校前→金剛駅前",
    "stop": "狭山西小学校前",
    "passTime": "16:54",
    "vehicleType": "南海バス(車椅子・ベビーカー・ノンステップ)",
    "updateTime": "2026/07/20 16:56"
  },
  {
    "vehicleNum": "080873",
    "vehicleCd": "144",
    "vehicleCorpCd": "1",
    "running": true,
    "lat": 34.537583,
    "lon": 135.471194,
    "route": "泉ヶ丘駅→深阪→津久野駅前",
    "stop": "文珠前",
    "passTime": "16:55",
    "vehicleType": "南海バス(車椅子・ベビーカー・ノンステップ)",
    "updateTime": "2026/07/20 16:56"
  },
  {
    "vehicleNum": "080874",
    "vehicleCd": "352",
    "vehicleCorpCd": "1",
    "running": true,
    "lat": 34.4865,
    "lon": 135.5235,
    "route": "泉ヶ丘駅→狭山ニュータウンセンター→金剛駅前",
    "stop": "茶山台南口",
    "passTime": "16:56",
    "vehicleType": "南海バス(車椅子・ベビーカー・ノンステップ)",
    "updateTime": "2026/07/20 16:56"
  },
  {
    "vehicleNum": "080876",
    "vehicleCd": "390",
    "vehicleCorpCd": "1",
    "running": true,
    "lat": 34.5225,
    "lon": 135.526778,
    "route": "堺駅南口→福町→北野田駅前",
    "stop": "下出口",
    "passTime": "16:55",
    "vehicleType": "南海バス(車椅子・ベビーカー・ノンステップ)",
    "updateTime": "2026/07/20 16:56"
  },
  {
    "vehicleNum": "080877",
    "vehicleCd": "588",
    "vehicleCorpCd": "1",
    "running": true,
    "lat": 34.505389,
    "lon": 135.497389,
    "route": "堺東駅前→上野芝→泉ヶ丘駅",
    "stop": "宮山台小学校前",
    "passTime": "16:56",
    "vehicleType": "南海バス(車椅子・ベビーカー・ノンステップ)",
    "updateTime": "2026/07/20 16:56"
  },
  {
    "vehicleNum": "080878",
    "vehicleCd": "368",
    "vehicleCorpCd": "1",
    "running": true,
    "lat": 34.572889,
    "lon": 135.476472,
    "route": "北野田駅前→西口園→堺駅南口",
    "stop": "安井町",
    "passTime": "16:55",
    "vehicleType": "南海バス(車椅子・ベビーカー・ノンステップ)",
    "updateTime": "2026/07/20 16:56"
  },
  {
    "vehicleNum": "080879",
    "vehicleCd": "359",
    "vehicleCorpCd": "1",
    "running": true,
    "lat": 34.566694,
    "lon": 135.490583,
    "route": "堺駅南口→福町→北野田駅前",
    "stop": "永山園",
    "passTime": "16:55",
    "vehicleType": "南海バス(車椅子・ベビーカー・ノンステップ)",
    "updateTime": "2026/07/20 16:56"
  },
  {
    "vehicleNum": "080895",
    "vehicleCd": "167",
    "vehicleCorpCd": "1",
    "running": true,
    "lat": 34.5445,
    "lon": 135.544,
    "route": "美原区役所→初芝駅前→美原区役所",
    "stop": "大饗",
    "passTime": "16:56",
    "vehicleType": "南海バス(車椅子・ベビーカー・ノンステップ)",
    "updateTime": "2026/07/20 16:56"
  },
  {
    "vehicleNum": "080905",
    "vehicleCd": "353",
    "vehicleCorpCd": "1",
    "running": true,
    "lat": 34.495278,
    "lon": 135.5105,
    "route": "泉ヶ丘駅→御池台回り→栂・美木多駅",
    "stop": "泉ヶ丘駅（南側）",
    "passTime": "16:54",
    "vehicleType": "南海バス(車椅子・ベビーカー・ノンステップ)",
    "updateTime": "2026/07/20 16:56"
  },
  {
    "vehicleNum": "080911",
    "vehicleCd": "240",
    "vehicleCorpCd": "1",
    "running": true,
    "lat": 34.579694,
    "lon": 135.485389,
    "route": "堺駅西口→錦綾町→堺東駅前",
    "stop": "中向陽町",
    "passTime": "16:55",
    "vehicleType": "南海バス(車椅子・ベビーカー・ノンステップ)",
    "updateTime": "2026/07/20 16:56"
  },
  {
    "vehicleNum": "080920",
    "vehicleCd": "327",
    "vehicleCorpCd": "1",
    "running": true,
    "lat": 34.487889,
    "lon": 135.509583,
    "route": "泉ヶ丘駅→若松台右回り→泉ヶ丘駅",
    "stop": "若松台３丁",
    "passTime": "16:56",
    "vehicleType": "南海バス(車椅子・ベビーカー・ノンステップ)",
    "updateTime": "2026/07/20 16:56"
  },
  {
    "vehicleNum": "080950",
    "vehicleCd": "513",
    "vehicleCorpCd": "1",
    "running": true,
    "lat": 34.550778,
    "lon": 135.5135,
    "route": "堺東駅前→白鷺駅前→堺東駅前（循環）",
    "stop": "中もず団地前",
    "passTime": "16:55",
    "vehicleType": "南海バス(車椅子・ベビーカー・ノンステップ)",
    "updateTime": "2026/07/20 16:56"
  },
  {
    "vehicleNum": "080951",
    "vehicleCd": "597",
    "vehicleCorpCd": "1",
    "running": true,
    "lat": 34.499083,
    "lon": 135.525583,
    "route": "泉ヶ丘駅→スマ・エコタウン晴美台→高倉台左回り→泉ヶ丘駅",
    "stop": "三原台中学校前",
    "passTime": "16:56",
    "vehicleType": "南海バス(車椅子・ベビーカー・ノンステップ)",
    "updateTime": "2026/07/20 16:56"
  },
  {
    "vehicleNum": "080948",
    "vehicleCd": "276",
    "vehicleCorpCd": "1",
    "running": true,
    "lat": 34.576889,
    "lon": 135.495778,
    "route": "阪和堺市駅前→堺東駅前→堺駅西口→匠町→海浜匠町",
    "stop": "阪和堺市駅前",
    "passTime": "16:55",
    "vehicleType": "南海バス(車椅子・ベビーカー・ノンステップ)",
    "updateTime": "2026/07/20 16:56"
  },
  {
    "vehicleNum": "080967",
    "vehicleCd": "605",
    "vehicleCorpCd": "1",
    "running": true,
    "lat": 34.545083,
    "lon": 135.489778,
    "route": "中もず駅前→北条→堺市立総合医療センター前",
    "stop": "もず陵南町西",
    "passTime": "16:56",
    "vehicleType": "南海バス(車椅子・ベビーカー・ノンステップ)",
    "updateTime": "2026/07/20 16:56"
  },
  {
    "vehicleNum": "080978",
    "vehicleCd": "431",
    "vehicleCorpCd": "1",
    "running": true,
    "lat": 34.555778,
    "lon": 135.5015,
    "route": "北野田駅前→福町→堺駅南口",
    "stop": "中もず駅前通",
    "passTime": "16:54",
    "vehicleType": "南海バス(車椅子・ベビーカー・ノンステップ)",
    "updateTime": "2026/07/20 16:56"
  },
  {
    "vehicleNum": "080977",
    "vehicleCd": "388",
    "vehicleCorpCd": "1",
    "running": true,
    "lat": 34.527889,
    "lon": 135.474083,
    "route": "深井駅→鈴の宮団地→堺市立総合医療センター前→津久野駅前",
    "stop": "毛穴なかよし橋",
    "passTime": "16:56",
    "vehicleType": "南海バス(車椅子・ベビーカー・ノンステップ)",
    "updateTime": "2026/07/20 16:56"
  },
  {
    "vehicleNum": "080989",
    "vehicleCd": "259",
    "vehicleCorpCd": "1",
    "running": true,
    "lat": 34.533778,
    "lon": 135.487778,
    "route": "中もず駅前→北条→伏尾",
    "stop": "中深井南",
    "passTime": "16:55",
    "vehicleType": "南海バス(車椅子・ベビーカー・ノンステップ)",
    "updateTime": "2026/07/20 16:56"
  },
  {
    "vehicleNum": "080995",
    "vehicleCd": "118",
    "vehicleCorpCd": "1",
    "running": true,
    "lat": 34.484694,
    "lon": 135.527278,
    "route": "金剛駅前→帝塚山学院泉ヶ丘校前→泉ヶ丘駅前",
    "stop": "槙塚台センター",
    "passTime": "16:56",
    "vehicleType": "南海バス(車椅子・ベビーカー・ノンステップ)",
    "updateTime": "2026/07/20 16:56"
  },
  {
    "vehicleNum": "080994",
    "vehicleCd": "130",
    "vehicleCorpCd": "1",
    "running": true,
    "lat": 34.477194,
    "lon": 135.491778,
    "route": "泉ヶ丘駅→庭代台左回り→栂・美木多駅",
    "stop": "原山台３丁",
    "passTime": "16:56",
    "vehicleType": "南海バス(車椅子・ベビーカー・ノンステップ)",
    "updateTime": "2026/07/20 16:56"
  },
  {
    "vehicleNum": "080999",
    "vehicleCd": "493",
    "vehicleCorpCd": "1",
    "running": true,
    "lat": 34.530083,
    "lon": 135.497583,
    "route": "深井駅→東山車庫前→北野田駅前",
    "stop": "深井駅",
    "passTime": "16:56",
    "vehicleType": "南海バス(車椅子・ベビーカー・ノンステップ)",
    "updateTime": "2026/07/20 16:56"
  },
  {
    "vehicleNum": "081001",
    "vehicleCd": "238",
    "vehicleCorpCd": "1",
    "running": true,
    "lat": 34.564083,
    "lon": 135.476083,
    "route": "泉ヶ丘駅→宮山台中学校前→堺東駅前",
    "stop": "旭ヶ丘北町",
    "passTime": "16:55",
    "vehicleType": "南海バス(車椅子・ベビーカー・ノンステップ)",
    "updateTime": "2026/07/20 16:56"
  },
  {
    "vehicleNum": "081005",
    "vehicleCd": "272",
    "vehicleCorpCd": "1",
    "running": true,
    "lat": 34.508083,
    "lon": 135.513083,
    "route": "深井駅→田園→泉ヶ丘駅",
    "stop": "田園南",
    "passTime": "16:56",
    "vehicleType": "南海バス(車椅子・ベビーカー・ノンステップ)",
    "updateTime": "2026/07/20 16:56"
  },
  {
    "vehicleNum": "081004",
    "vehicleCd": "271",
    "vehicleCorpCd": "1",
    "running": true,
    "lat": 34.533389,
    "lon": 135.522694,
    "route": "北野田駅前→西口園→堺駅南口",
    "stop": "西口園",
    "passTime": "16:54",
    "vehicleType": "南海バス(車椅子・ベビーカー・ノンステップ)",
    "updateTime": "2026/07/20 16:56"
  },
  {
    "vehicleNum": "081007",
    "vehicleCd": "127",
    "vehicleCorpCd": "1",
    "running": true,
    "lat": 34.524778,
    "lon": 135.487778,
    "route": "泉ヶ丘駅→宮山台中学校前→堺東駅前",
    "stop": "八田荘",
    "passTime": "16:56",
    "vehicleType": "南海バス(車椅子・ベビーカー・ノンステップ)",
    "updateTime": "2026/07/20 16:56"
  },
  {
    "vehicleNum": "081006",
    "vehicleCd": "54",
    "vehicleCorpCd": "1",
    "running": true,
    "lat": 34.5495,
    "lon": 135.507083,
    "route": "堺駅南口→三国ヶ丘駅前→北野田駅前",
    "stop": "中もず駅前通",
    "passTime": "16:55",
    "vehicleType": "南海バス(車椅子・ベビーカー・ノンステップ)",
    "updateTime": "2026/07/20 16:56"
  },
  {
    "vehicleNum": "081016",
    "vehicleCd": "239",
    "vehicleCorpCd": "1",
    "running": true,
    "lat": 34.500194,
    "lon": 135.542694,
    "route": "金剛駅前→泉ヶ丘駅→近大キャンパス前→金剛駅前",
    "stop": "金剛駅前（西側）",
    "passTime": "16:52",
    "vehicleType": "南海バス(車椅子・ベビーカー・ノンステップ)",
    "updateTime": "2026/07/20 16:56"
  },
  {
    "vehicleNum": "081034",
    "vehicleCd": "120",
    "vehicleCorpCd": "1",
    "running": true,
    "lat": 34.460278,
    "lon": 135.5055,
    "route": "泉ヶ丘駅→御池台回り→泉ヶ丘駅",
    "stop": "御池台４丁南",
    "passTime": "16:55",
    "vehicleType": "南海バス(車椅子・ベビーカー・ノンステップ)",
    "updateTime": "2026/07/20 16:56"
  },
  {
    "vehicleNum": "081035",
    "vehicleCd": "491",
    "vehicleCorpCd": "1",
    "running": true,
    "lat": 34.496194,
    "lon": 135.509972,
    "route": "泉ヶ丘駅→庭代台左回り→泉ヶ丘駅",
    "stop": "栂・美木多駅",
    "passTime": "16:49",
    "vehicleType": "南海バス(車椅子・ベビーカー・ノンステップ)",
    "updateTime": "2026/07/20 16:56"
  },
  {
    "vehicleNum": "081036",
    "vehicleCd": "293",
    "vehicleCorpCd": "1",
    "running": true,
    "lat": 34.4895,
    "lon": 135.526,
    "route": "泉ヶ丘駅→晴美台右回り→泉ヶ丘駅",
    "stop": "晴美台２丁",
    "passTime": "16:56",
    "vehicleType": "南海バス(車椅子・ベビーカー・ノンステップ)",
    "updateTime": "2026/07/20 16:56"
  },
  {
    "vehicleNum": "090144",
    "vehicleCd": "82",
    "vehicleCorpCd": "2",
    "running": true,
    "lat": 34.427194,
    "lon": 135.429472,
    "route": "道の駅愛彩ランド→和泉大宮駅前→岸和田駅前",
    "stop": "職業能力開発大学",
    "passTime": "16:56",
    "vehicleType": "南海ウイングバス(車椅子・ベビーカー・ワンステップ)",
    "updateTime": "2026/07/20 16:56"
  },
  {
    "vehicleNum": "090170",
    "vehicleCd": "117",
    "vehicleCorpCd": "2",
    "running": true,
    "lat": 34.397083,
    "lon": 135.345694,
    "route": "大阪体育大学前→熊取駅前",
    "stop": "熊取西小学校前",
    "passTime": "16:56",
    "vehicleType": "南海ウイングバス",
    "updateTime": "2026/07/20 16:56"
  },
  {
    "vehicleNum": "090176",
    "vehicleCd": "101",
    "vehicleCorpCd": "2",
    "running": true,
    "lat": 34.405389,
    "lon": 135.2955,
    "route": "イオンモール→ワシントンホテル→イオンモールりんくう泉南",
    "stop": "りんくう往来南３番",
    "passTime": "16:56",
    "vehicleType": "南海ウイングバス",
    "updateTime": "2026/07/20 16:56"
  },
  {
    "vehicleNum": "091381",
    "vehicleCd": "330",
    "vehicleCorpCd": "1",
    "running": true,
    "lat": 34.480194,
    "lon": 135.430194,
    "route": "桃山学院大学→和泉府中駅前→泉大津 ※登校日のみ運行（ご不明な点は担当営業所までお問い合わせください）",
    "stop": "桃山学院大学",
    "passTime": "16:43",
    "vehicleType": "南海バス(車椅子・ベビーカー・ワンステップ)",
    "updateTime": "2026/07/20 16:56"
  },
  {
    "vehicleNum": "091580",
    "vehicleCd": "85",
    "vehicleCorpCd": "2",
    "running": true,
    "lat": 34.372389,
    "lon": 135.304694,
    "route": "泉南市コミュニティバス 新家回り",
    "stop": "サングリーン団地",
    "passTime": "16:53",
    "vehicleType": "南海ウイングバス(車椅子・ベビーカー・ノンステップ)",
    "updateTime": "2026/07/20 16:56"
  },
  {
    "vehicleNum": "091658",
    "vehicleCd": "203",
    "vehicleCorpCd": "1",
    "running": true,
    "lat": 34.432389,
    "lon": 135.235,
    "route": "空港駅→給油地区",
    "stop": "空港駅",
    "passTime": "16:54",
    "vehicleType": "南海バス(車椅子・ノンステップ)",
    "updateTime": "2026/07/20 16:56"
  },
  {
    "vehicleNum": "091740",
    "vehicleCd": "105",
    "vehicleCorpCd": "2",
    "running": true,
    "lat": 34.463694,
    "lon": 135.432778,
    "route": "和泉中央駅→荒木町→岸和田駅前",
    "stop": "摩湯",
    "passTime": "16:55",
    "vehicleType": "南海ウイングバス(車椅子・ベビーカー・ワンステップ)",
    "updateTime": "2026/07/20 16:57"
  },
  {
    "vehicleNum": "091744",
    "vehicleCd": "148",
    "vehicleCorpCd": "2",
    "running": true,
    "lat": 34.443694,
    "lon": 135.390083,
    "route": "岸和田駅前→天神山・一の宮循環　右回り→岸和田駅前",
    "stop": "土生",
    "passTime": "16:56",
    "vehicleType": "南海ウイングバス(車椅子・ベビーカー・ワンステップ)",
    "updateTime": "2026/07/20 16:57"
  },
  {
    "vehicleNum": "091748",
    "vehicleCd": "74",
    "vehicleCorpCd": "2",
    "running": true,
    "lat": 34.457083,
    "lon": 135.4245,
    "route": "白原車庫→内畑→岸和田駅前",
    "stop": "岡山",
    "passTime": "16:56",
    "vehicleType": "南海ウイングバス(車椅子・ワンステップ)",
    "updateTime": "2026/07/20 16:57"
  },
  {
    "vehicleNum": "091750",
    "vehicleCd": "335",
    "vehicleCorpCd": "1",
    "running": true,
    "lat": 34.419583,
    "lon": 135.569278,
    "route": "三日市町駅前→南青葉台→三日市町駅前",
    "stop": "青葉台会館前",
    "passTime": "16:56",
    "vehicleType": "南海バス(車椅子・ベビーカー・ワンステップ)",
    "updateTime": "2026/07/20 16:57"
  },
  {
    "vehicleNum": "091784",
    "vehicleCd": "119",
    "vehicleCorpCd": "2",
    "running": true,
    "lat": 34.378972,
    "lon": 135.375278,
    "route": "熊取町　自然公園方面循環コース",
    "stop": "永楽ゆめの森公園前",
    "passTime": "16:54",
    "vehicleType": "熊取町コミュニティバス(ジャンプ君号)",
    "updateTime": "2026/07/20 16:57"
  },
  {
    "vehicleNum": "091785",
    "vehicleCd": "120",
    "vehicleCorpCd": "2",
    "running": true,
    "lat": 34.415583,
    "lon": 135.356778,
    "route": "熊取町　七山方面循環コース",
    "stop": "七山西",
    "passTime": "16:55",
    "vehicleType": "熊取町コミュニティバス(メジーナちゃん号)",
    "updateTime": "2026/07/20 16:57"
  },
  {
    "vehicleNum": "091791",
    "vehicleCd": "206",
    "vehicleCorpCd": "1",
    "running": true,
    "lat": 34.422778,
    "lon": 135.225278,
    "route": "空港駅→ＦｅｄＥｘ→給油地区",
    "stop": "ANA車輌整備工場前",
    "passTime": "16:56",
    "vehicleType": "南海バス(車椅子・ノンステップ)",
    "updateTime": "2026/07/20 16:57"
  },
  {
    "vehicleNum": "091837",
    "vehicleCd": "209",
    "vehicleCorpCd": "1",
    "running": true,
    "lat": 34.591389,
    "lon": 135.463583,
    "route": "堺東駅前→ＡＴＣ→海遊館→堺東駅前",
    "stop": "海遊館",
    "passTime": "16:45",
    "vehicleType": "南海バス",
    "updateTime": "2026/07/20 16:57"
  },
  {
    "vehicleNum": "091894",
    "vehicleCd": "3",
    "vehicleCorpCd": "2",
    "running": true,
    "lat": 34.381194,
    "lon": 135.266278,
    "route": "泉南市コミュニティバス 一丘Ａ回り",
    "stop": "イオンモールりんくう泉南",
    "passTime": "16:55",
    "vehicleType": "泉南市コミュニティバス(紫)",
    "updateTime": "2026/07/20 16:57"
  },
  {
    "vehicleNum": "092045",
    "vehicleCd": "463",
    "vehicleCorpCd": "1",
    "running": true,
    "lat": 34.455278,
    "lon": 135.569278,
    "route": "ﾓｯｸﾙ 美加～木戸東町～美加",
    "stop": "本多町",
    "passTime": "16:57",
    "vehicleType": "南海バス(車椅子・ベビーカー・ノンステップ)",
    "updateTime": "2026/07/20 16:57"
  },
  {
    "vehicleNum": "092204",
    "vehicleCd": "416",
    "vehicleCorpCd": "1",
    "running": true,
    "lat": 34.439278,
    "lon": 135.604083,
    "route": "小吹台→河内長野駅前",
    "stop": "小吹台西口",
    "passTime": "16:57",
    "vehicleType": "南海バス",
    "updateTime": "2026/07/20 16:57"
  },
  {
    "vehicleNum": "092234",
    "vehicleCd": "534",
    "vehicleCorpCd": "1",
    "running": true,
    "lat": 34.463,
    "lon": 135.456194,
    "route": "桃山学院大学→和泉府中駅前→泉大津 ※登校日のみ運行（ご不明な点は担当営業所までお問い合わせください）",
    "stop": "桃山学院大学",
    "passTime": "16:50",
    "vehicleType": "南海バス(車椅子・ベビーカー・ノンステップ)",
    "updateTime": "2026/07/20 16:57"
  },
  {
    "vehicleNum": "092373",
    "vehicleCd": "553",
    "vehicleCorpCd": "1",
    "running": true,
    "lat": 34.499,
    "lon": 135.450194,
    "route": "北信太駅筋→鶴山台団地→北信太駅筋",
    "stop": "鶴山台南小学校前",
    "passTime": "16:56",
    "vehicleType": "南海バス(車椅子・ベビーカー・ノンステップ)",
    "updateTime": "2026/07/20 16:57"
  },
  {
    "vehicleNum": "092383",
    "vehicleCd": "44",
    "vehicleCorpCd": "1",
    "running": true,
    "lat": 34.473778,
    "lon": 135.477083,
    "route": "光明池駅→光明池車庫→和泉中央駅→泉大津駅前",
    "stop": "光明池駅",
    "passTime": "16:55",
    "vehicleType": "南海バス(車椅子・ベビーカー・ワンステップ)",
    "updateTime": "2026/07/20 16:57"
  },
  {
    "vehicleNum": "092398",
    "vehicleCd": "41",
    "vehicleCorpCd": "1",
    "running": true,
    "lat": 34.434083,
    "lon": 135.237583,
    "route": "エアロプラザ→第２ターミナル(国内線・国際線)→エアロプラザ",
    "stop": "第2ターミナル国際線",
    "passTime": "16:52",
    "vehicleType": "南海バス(車椅子・ノンステップ)",
    "updateTime": "2026/07/20 16:57"
  },
  {
    "vehicleNum": "092454",
    "vehicleCd": "125",
    "vehicleCorpCd": "2",
    "running": true,
    "lat": 34.3545,
    "lon": 135.280694,
    "route": "泉南市コミュニティバス 南Ａ回り",
    "stop": "府立支援学校前（裏門）",
    "passTime": "16:55",
    "vehicleType": "泉南市コミュニティバス(橙)",
    "updateTime": "2026/07/20 16:57"
  },
  {
    "vehicleNum": "081041",
    "vehicleCd": "611",
    "vehicleCorpCd": "1",
    "running": true,
    "lat": 34.494889,
    "lon": 135.510889,
    "route": "ハーベストの丘→別所→泉ヶ丘駅",
    "stop": "御池台南",
    "passTime": "16:42",
    "vehicleType": "南海バス(車椅子・ベビーカー・ノンステップ)",
    "updateTime": "2026/07/20 16:57"
  },
  {
    "vehicleNum": "090104",
    "vehicleCd": "53",
    "vehicleCorpCd": "2",
    "running": true,
    "lat": 34.426083,
    "lon": 135.439083,
    "route": "岸和田駅前→内畑→牛滝温泉",
    "stop": "積川神社前",
    "passTime": "16:56",
    "vehicleType": "南海ウイングバス(車椅子・ベビーカー・ワンステップ)",
    "updateTime": "2026/07/20 16:57"
  },
  {
    "vehicleNum": "081045",
    "vehicleCd": "188",
    "vehicleCorpCd": "1",
    "running": true,
    "lat": 34.526,
    "lon": 135.483083,
    "route": "津久野駅前→鈴の宮団地センター→深井駅",
    "stop": "八田北町",
    "passTime": "16:56",
    "vehicleType": "南海バス(車椅子・ベビーカー・ノンステップ)",
    "updateTime": "2026/07/20 16:57"
  },
  {
    "vehicleNum": "092468",
    "vehicleCd": "51",
    "vehicleCorpCd": "1",
    "running": true,
    "lat": 34.4245,
    "lon": 135.578389,
    "route": "美加の台駅前→美加の台口→美加の台駅前",
    "stop": "美加の台西",
    "passTime": "16:54",
    "vehicleType": "南海バス(車椅子・ベビーカー・ノンステップ)",
    "updateTime": "2026/07/20 16:57"
  },
  {
    "vehicleNum": "092498",
    "vehicleCd": "8",
    "vehicleCorpCd": "1",
    "running": true,
    "lat": 34.552,
    "lon": 135.465083,
    "route": "国分峠東→栂・美木多駅→堺東駅前",
    "stop": "神石橋",
    "passTime": "16:57",
    "vehicleType": "南海バス(車椅子・ベビーカー・ノンステップ)",
    "updateTime": "2026/07/20 16:57"
  },
  {
    "vehicleNum": "092533",
    "vehicleCd": "288",
    "vehicleCorpCd": "1",
    "running": true,
    "lat": 34.487889,
    "lon": 135.424194,
    "route": "和泉府中駅前→いぶき野→和泉中央駅",
    "stop": "和泉府中駅前",
    "passTime": "16:57",
    "vehicleType": "南海バス(車椅子・ベビーカー・ノンステップ)",
    "updateTime": "2026/07/20 16:57"
  },
  {
    "vehicleNum": "092534",
    "vehicleCd": "265",
    "vehicleCorpCd": "1",
    "running": true,
    "lat": 34.4515,
    "lon": 135.492194,
    "route": "光明池駅→城山台５丁→みずき台２丁目西",
    "stop": "光明台三丁目",
    "passTime": "16:56",
    "vehicleType": "南海バス(車椅子・ベビーカー・ノンステップ)",
    "updateTime": "2026/07/20 16:57"
  },
  {
    "vehicleNum": "092577",
    "vehicleCd": "578",
    "vehicleCorpCd": "1",
    "running": true,
    "lat": 34.455389,
    "lon": 135.5575,
    "route": "千代田駅前→赤峯→緑ヶ丘北町",
    "stop": "配水池前",
    "passTime": "16:56",
    "vehicleType": "南海バス(車椅子・ベビーカー・ノンステップ)",
    "updateTime": "2026/07/20 16:57"
  },
  {
    "vehicleNum": "092587",
    "vehicleCd": "124",
    "vehicleCorpCd": "1",
    "running": true,
    "lat": 34.401583,
    "lon": 135.530083,
    "route": "河内長野駅前→滝畑ダム",
    "stop": "滝尻口",
    "passTime": "16:56",
    "vehicleType": "南海バス(車椅子・ベビーカー・ノンステップ)",
    "updateTime": "2026/07/20 16:57"
  },
  {
    "vehicleNum": "092711",
    "vehicleCd": "355",
    "vehicleCorpCd": "1",
    "running": true,
    "lat": 34.45,
    "lon": 135.4445,
    "route": "和泉中央駅→テクノステージセンター前→グリーンポリス前→和泉中央駅",
    "stop": "グリーンポリス前",
    "passTime": "16:57",
    "vehicleType": "南海バス(車椅子・ベビーカー・ノンステップ)",
    "updateTime": "2026/07/20 16:57"
  },
  {
    "vehicleNum": "092856",
    "vehicleCd": "601",
    "vehicleCorpCd": "1",
    "running": true,
    "lat": 34.460694,
    "lon": 135.455583,
    "route": "和泉中央駅→いぶき野→和泉府中駅前",
    "stop": "和泉中央駅",
    "passTime": "16:57",
    "vehicleType": "南海バス(車椅子・ベビーカー・ノンステップ)",
    "updateTime": "2026/07/20 16:57"
  },
  {
    "vehicleNum": "092763",
    "vehicleCd": "520",
    "vehicleCorpCd": "1",
    "running": true,
    "lat": 34.464,
    "lon": 135.4425,
    "route": "和泉中央駅→寺田→泉大津駅前",
    "stop": "箕形",
    "passTime": "16:55",
    "vehicleType": "南海バス(車椅子・ベビーカー・ノンステップ)",
    "updateTime": "2026/07/20 16:57"
  },
  {
    "vehicleNum": "092830",
    "vehicleCd": "367",
    "vehicleCorpCd": "1",
    "running": true,
    "lat": 34.479694,
    "lon": 135.441278,
    "route": "泉大津駅前→和泉府中駅前→和泉中央駅",
    "stop": "芦部",
    "passTime": "16:57",
    "vehicleType": "南海バス(車椅子・ベビーカー・ノンステップ)",
    "updateTime": "2026/07/20 16:57"
  },
  {
    "vehicleNum": "092829",
    "vehicleCd": "488",
    "vehicleCorpCd": "1",
    "running": true,
    "lat": 34.510194,
    "lon": 135.465778,
    "route": "堺東駅前→鳳駅前→光明池駅",
    "stop": "福泉中学校前",
    "passTime": "16:56",
    "vehicleType": "南海バス(車椅子・ベビーカー・ノンステップ)",
    "updateTime": "2026/07/20 16:57"
  },
  {
    "vehicleNum": "092859",
    "vehicleCd": "32",
    "vehicleCorpCd": "1",
    "running": true,
    "lat": 34.436889,
    "lon": 135.5495,
    "route": "滝畑ダム→奥河内くろまろの郷→河内長野駅前",
    "stop": "奥河内くろまろの郷",
    "passTime": "16:55",
    "vehicleType": "南海バス(車椅子・ベビーカー・ノンステップ)",
    "updateTime": "2026/07/20 16:57"
  },
  {
    "vehicleNum": "092872",
    "vehicleCd": "500",
    "vehicleCorpCd": "1",
    "running": true,
    "lat": 34.532278,
    "lon": 135.463083,
    "route": "光明池駅→山田→堺東駅前",
    "stop": "西堺警察署前",
    "passTime": "16:56",
    "vehicleType": "南海バス(車椅子・ベビーカー・ノンステップ)",
    "updateTime": "2026/07/20 16:57"
  },
  {
    "vehicleNum": "092913",
    "vehicleCd": "154",
    "vehicleCorpCd": "1",
    "running": true,
    "lat": 34.452389,
    "lon": 135.504389,
    "route": "国分峠東→栂・美木多駅→堺東駅前",
    "stop": "下別所",
    "passTime": "16:57",
    "vehicleType": "南海バス(車椅子・ベビーカー・ノンステップ)",
    "updateTime": "2026/07/20 16:57"
  },
  {
    "vehicleNum": "092936",
    "vehicleCd": "322",
    "vehicleCorpCd": "1",
    "running": true,
    "lat": 34.435083,
    "lon": 135.243389,
    "route": "関空展望ホール→旅客ターミナル→関空展望ホール",
    "stop": "関空展望ホール",
    "passTime": "16:50",
    "vehicleType": "南海バス(車椅子・ベビーカー・ノンステップ)",
    "updateTime": "2026/07/20 16:57"
  },
  {
    "vehicleNum": "092937",
    "vehicleCd": "73",
    "vehicleCorpCd": "1",
    "running": true,
    "lat": 34.471778,
    "lon": 135.477583,
    "route": "光明池駅→城山台２丁→光明池駅",
    "stop": "光明池駅",
    "passTime": "16:55",
    "vehicleType": "南海バス(車椅子・ベビーカー・ノンステップ)",
    "updateTime": "2026/07/20 16:57"
  },
  {
    "vehicleNum": "092948",
    "vehicleCd": "606",
    "vehicleCorpCd": "1",
    "running": true,
    "lat": 34.484083,
    "lon": 135.489083,
    "route": "堺東駅前→鳳駅前→国分峠東",
    "stop": "高橋",
    "passTime": "16:55",
    "vehicleType": "南海バス(車椅子・ベビーカー・ノンステップ)",
    "updateTime": "2026/07/20 16:57"
  },
  {
    "vehicleNum": "092975",
    "vehicleCd": "115",
    "vehicleCorpCd": "1",
    "running": true,
    "lat": 34.4495,
    "lon": 135.457778,
    "route": "和泉中央駅→のぞみ野南→美術館",
    "stop": "緑ヶ丘団地",
    "passTime": "16:57",
    "vehicleType": "南海バス(車椅子・ベビーカー・ノンステップ)",
    "updateTime": "2026/07/20 16:57"
  },
  {
    "vehicleNum": "092952",
    "vehicleCd": "113",
    "vehicleCorpCd": "1",
    "running": true,
    "lat": 34.492194,
    "lon": 135.414889,
    "route": "光明池駅→光明池車庫→和泉中央駅→泉大津駅前",
    "stop": "我孫子",
    "passTime": "16:56",
    "vehicleType": "南海バス(車椅子・ベビーカー・ノンステップ)",
    "updateTime": "2026/07/20 16:57"
  },
  {
    "vehicleNum": "092977",
    "vehicleCd": "608",
    "vehicleCorpCd": "1",
    "running": true,
    "lat": 34.532083,
    "lon": 135.459472,
    "route": "堺東駅前→鳳駅前→国分峠東",
    "stop": "鳳駅前",
    "passTime": "16:56",
    "vehicleType": "南海バス(車椅子・ベビーカー・ノンステップ)",
    "updateTime": "2026/07/20 16:57"
  },
  {
    "vehicleNum": "093003",
    "vehicleCd": "111",
    "vehicleCorpCd": "1",
    "running": true,
    "lat": 34.515778,
    "lon": 135.472389,
    "route": "栂・美木多駅→鳳駅前→堺東駅前",
    "stop": "万崎",
    "passTime": "16:56",
    "vehicleType": "南海バス(車椅子・ベビーカー・ノンステップ)",
    "updateTime": "2026/07/20 16:57"
  },
  {
    "vehicleNum": "093011",
    "vehicleCd": "27",
    "vehicleCorpCd": "1",
    "running": true,
    "lat": 34.437583,
    "lon": 135.231278,
    "route": "エアロプラザ→第２ターミナル(国内線・国際線)→エアロプラザ",
    "stop": "エアロプラザ",
    "passTime": "16:52",
    "vehicleType": "南海バス(車椅子・ベビーカー・ノンステップ)",
    "updateTime": "2026/07/20 16:57"
  },
  {
    "vehicleNum": "093032",
    "vehicleCd": "231",
    "vehicleCorpCd": "1",
    "running": true,
    "lat": 34.437583,
    "lon": 135.233,
    "route": "エアロプラザ→第２ターミナル(国内線・国際線)→エアロプラザ",
    "stop": "第2ターミナル国際線",
    "passTime": "16:56",
    "vehicleType": "南海バス",
    "updateTime": "2026/07/20 16:57"
  },
  {
    "vehicleNum": "093054",
    "vehicleCd": "396",
    "vehicleCorpCd": "1",
    "running": true,
    "lat": 34.453583,
    "lon": 135.490194,
    "route": "泉大津駅前→和泉府中駅前→和泉中央駅→光明池駅",
    "stop": "光明台センター",
    "passTime": "16:56",
    "vehicleType": "南海バス(車椅子・ベビーカー・ノンステップ)",
    "updateTime": "2026/07/20 16:57"
  },
  {
    "vehicleNum": "093046",
    "vehicleCd": "246",
    "vehicleCorpCd": "1",
    "running": true,
    "lat": 34.486389,
    "lon": 135.474889,
    "route": "光明池駅→新檜尾台センター→光明池駅",
    "stop": "赤坂台小学校前",
    "passTime": "16:56",
    "vehicleType": "南海バス(車椅子・ベビーカー・ノンステップ)",
    "updateTime": "2026/07/20 16:57"
  }
]