[
  {
    "vehicleNum": "070101",
    "vehicleCd": "400",
    "vehicleCorpCd": "1",
    "running": true,
    "lat": 34.487083,
    "lon": 135.523,
    "route": "泉ヶ丘駅→狭山ニュータウンセンター→金剛駅前",
    "stop": "茶山台南口",
    "passTime": "20:22",
    "vehicleType": "泉北コミュニティバス(車椅子・ベビーカー・ノンステップ)",
    "updateTime": "2026/07/22 20:23"
  },
  {
    "vehicleNum": "070107",
    "vehicleCd": "405",
    "vehicleCorpCd": "1",
    "running": true,
    "lat": 34.4925,
    "lon": 135.543583,
    "route": "金剛駅前→狭山ニュータウンセンター→泉ヶ丘駅",
    "stop": "今熊",
    "passTime": "20:22",
    "vehicleType": "泉北コミュニティバス(車椅子・ベビーカー・ノンステップ)",
    "updateTime": "2026/07/22 20:23"
  },
  {
    "vehicleNum": "070106",
    "vehicleCd": "404",
    "vehicleCorpCd": "1",
    "running": true,
    "lat": 34.498694,
    "lon": 135.556194,
    "route": "金剛駅前→狭山ニュータウンセンター→泉ヶ丘駅",
    "stop": "半田",
    "passTime": "20:21",
    "vehicleType": "泉北コミュニティバス(車椅子・ベビーカー・ノンステップ)",
    "updateTime": "2026/07/22 20:23"
  },
  {
    "vehicleNum": "071606",
    "vehicleCd": "413",
    "vehicleCorpCd": "1",
    "running": true,
    "lat": 34.574583,
    "lon": 135.482694,
    "route": "堺東駅前→大小路→堺駅前",
    "stop": "堺市役所前",
    "passTime": "20:22",
    "vehicleType": "堺シャトル(車椅子・ベビーカー・ノンステップ)",
    "updateTime": "2026/07/22 20:23"
  },
  {
    "vehicleNum": "072501",
    "vehicleCd": "598",
    "vehicleCorpCd": "1",
    "running": true,
    "lat": 34.579778,
    "lon": 135.472778,
    "route": "堺駅前→大小路→堺東駅前",
    "stop": "市小学校前",
    "passTime": "20:21",
    "vehicleType": "南海バス(車椅子・ベビーカー・ノンステップ)",
    "updateTime": "2026/07/22 20:23"
  },
  {
    "vehicleNum": "080105",
    "vehicleCd": "127",
    "vehicleCorpCd": "2",
    "running": true,
    "lat": 34.458194,
    "lon": 135.380889,
    "route": "白原車庫→内畑→岸和田駅前",
    "stop": "岸和田警察署前",
    "passTime": "20:21",
    "vehicleType": "南海ウイングバス(車椅子・ベビーカー・ワンステップ)",
    "updateTime": "2026/07/22 20:23"
  },
  {
    "vehicleNum": "080179",
    "vehicleCd": "66",
    "vehicleCorpCd": "2",
    "running": true,
    "lat": 34.454694,
    "lon": 135.4015,
    "route": "岸和田駅前→下松駅前→道の駅愛彩ランド",
    "stop": "桜ヶ丘",
    "passTime": "20:22",
    "vehicleType": "南海ウイングバス(車椅子・ワンステップ)",
    "updateTime": "2026/07/22 20:23"
  },
  {
    "vehicleNum": "080146",
    "vehicleCd": "6",
    "vehicleCorpCd": "2",
    "running": true,
    "lat": 34.404278,
    "lon": 135.334278,
    "route": "大阪体育大学前→熊取駅前→ダンバラ公園前→泉佐野駅前",
    "stop": "佐野台口",
    "passTime": "20:20",
    "vehicleType": "南海ウイングバス(車椅子・ワンステップ)",
    "updateTime": "2026/07/22 20:23"
  },
  {
    "vehicleNum": "080322",
    "vehicleCd": "116",
    "vehicleCorpCd": "2",
    "running": true,
    "lat": 34.398389,
    "lon": 135.285083,
    "route": "イオンモール→ポート→イオンモールりんくう泉南",
    "stop": "りんくうポート北",
    "passTime": "20:17",
    "vehicleType": "南海ウイングバス(車椅子・ワンステップ)",
    "updateTime": "2026/07/22 20:23"
  },
  {
    "vehicleNum": "080321",
    "vehicleCd": "14",
    "vehicleCorpCd": "2",
    "running": true,
    "lat": 34.403778,
    "lon": 135.330278,
    "route": "泉佐野駅前→ダンバラ公園前→熊取駅前→大阪体育大学前",
    "stop": "泉佐野市役所前",
    "passTime": "20:21",
    "vehicleType": "南海ウイングバス(車椅子・ワンステップ)",
    "updateTime": "2026/07/22 20:23"
  },
  {
    "vehicleNum": "080323",
    "vehicleCd": "59",
    "vehicleCorpCd": "2",
    "running": true,
    "lat": 34.459889,
    "lon": 135.379194,
    "route": "和泉中央駅→荒木町→岸和田駅前",
    "stop": "沼町",
    "passTime": "20:20",
    "vehicleType": "南海ウイングバス(車椅子・ワンステップ)",
    "updateTime": "2026/07/22 20:23"
  },
  {
    "vehicleNum": "080340",
    "vehicleCd": "131",
    "vehicleCorpCd": "2",
    "running": true,
    "lat": 34.448194,
    "lon": 135.384278,
    "route": "岸和田駅前→天神山・一の宮循環　左回り→岸和田駅前",
    "stop": "東岸和田駅前",
    "passTime": "20:20",
    "vehicleType": "南海ウイングバス(車椅子・ベビーカー・ワンステップ)",
    "updateTime": "2026/07/22 20:23"
  },
  {
    "vehicleNum": "080482",
    "vehicleCd": "156",
    "vehicleCorpCd": "1",
    "running": true,
    "lat": 34.532778,
    "lon": 135.460583,
    "route": "堺市立総合医療センター前→鳳駅前→石津川駅前",
    "stop": "鳳駅前",
    "passTime": "20:21",
    "vehicleType": "南海バス(車椅子・ベビーカー・ノンステップ)",
    "updateTime": "2026/07/22 20:23"
  },
  {
    "vehicleNum": "080483",
    "vehicleCd": "157",
    "vehicleCorpCd": "1",
    "running": true,
    "lat": 34.541194,
    "lon": 135.475583,
    "route": "堺市立総合医療センター前→北条→中もず駅前",
    "stop": "津久野中学校前",
    "passTime": "20:22",
    "vehicleType": "南海バス(車椅子・ベビーカー・ノンステップ)",
    "updateTime": "2026/07/22 20:23"
  },
  {
    "vehicleNum": "080652",
    "vehicleCd": "456",
    "vehicleCorpCd": "1",
    "running": true,
    "lat": 34.544278,
    "lon": 135.556889,
    "route": "北野田駅前→多治井北（循環）→北野田駅前",
    "stop": "太井南",
    "passTime": "20:20",
    "vehicleType": "南海バス",
    "updateTime": "2026/07/22 20:23"
  },
  {
    "vehicleNum": "080703",
    "vehicleCd": "219",
    "vehicleCorpCd": "1",
    "running": true,
    "lat": 34.566472,
    "lon": 135.464583,
    "route": "堺駅前→堺駅南口",
    "stop": "東湊３丁",
    "passTime": "20:23",
    "vehicleType": "南海バス(車椅子・ベビーカー・ノンステップ)",
    "updateTime": "2026/07/22 20:23"
  },
  {
    "vehicleNum": "080705",
    "vehicleCd": "542",
    "vehicleCorpCd": "1",
    "running": true,
    "lat": 34.567278,
    "lon": 135.505778,
    "route": "阪和堺市駅前→堺駅南口",
    "stop": "金岡公園前",
    "passTime": "20:23",
    "vehicleType": "南海バス(車椅子・ベビーカー・ノンステップ)",
    "updateTime": "2026/07/22 20:23"
  },
  {
    "vehicleNum": "080706",
    "vehicleCd": "543",
    "vehicleCorpCd": "1",
    "running": true,
    "lat": 34.582889,
    "lon": 135.512694,
    "route": "堺東駅前→錦綾町→河内天美駅前",
    "stop": "奥本町",
    "passTime": "20:22",
    "vehicleType": "南海バス(車椅子・ベビーカー・ノンステップ)",
    "updateTime": "2026/07/22 20:23"
  },
  {
    "vehicleNum": "080708",
    "vehicleCd": "537",
    "vehicleCorpCd": "1",
    "running": true,
    "lat": 34.491278,
    "lon": 135.527889,
    "route": "泉ヶ丘駅→晴美台右回り→泉ヶ丘駅",
    "stop": "高倉台４丁",
    "passTime": "20:23",
    "vehicleType": "南海バス(車椅子・ベビーカー・ノンステップ)",
    "updateTime": "2026/07/22 20:23"
  },
  {
    "vehicleNum": "080734",
    "vehicleCd": "415",
    "vehicleCorpCd": "1",
    "running": true,
    "lat": 34.552,
    "lon": 135.541889,
    "route": "美原区役所→初芝駅前→美原区役所",
    "stop": "石原",
    "passTime": "20:23",
    "vehicleType": "南海バス",
    "updateTime": "2026/07/22 20:23"
  },
  {
    "vehicleNum": "080741",
    "vehicleCd": "549",
    "vehicleCorpCd": "1",
    "running": true,
    "lat": 34.530583,
    "lon": 135.497389,
    "route": "深井駅→八田荘団地→津久野駅前",
    "stop": "深井駅（西側）",
    "passTime": "20:23",
    "vehicleType": "南海バス(車椅子・ベビーカー・ノンステップ)",
    "updateTime": "2026/07/22 20:23"
  },
  {
    "vehicleNum": "080746",
    "vehicleCd": "395",
    "vehicleCorpCd": "1",
    "running": true,
    "lat": 34.497194,
    "lon": 135.569583,
    "route": "金剛駅前→向陽・藤沢回り→金剛駅前",
    "stop": "高辺台三丁目",
    "passTime": "20:22",
    "vehicleType": "南海バス(車椅子・ベビーカー・ノンステップ)",
    "updateTime": "2026/07/22 20:23"
  },
  {
    "vehicleNum": "080750",
    "vehicleCd": "103",
    "vehicleCorpCd": "1",
    "running": true,
    "lat": 34.585583,
    "lon": 135.469889,
    "route": "匠町→堺駅西口→堺東駅前→阪和堺市駅前",
    "stop": "三宝公園前",
    "passTime": "20:20",
    "vehicleType": "南海バス(車椅子・ベビーカー・ノンステップ)",
    "updateTime": "2026/07/22 20:23"
  },
  {
    "vehicleNum": "080756",
    "vehicleCd": "315",
    "vehicleCorpCd": "1",
    "running": true,
    "lat": 34.501583,
    "lon": 135.5225,
    "route": "泉ヶ丘駅→三原台左回り→泉ヶ丘駅",
    "stop": "三原台センター",
    "passTime": "20:23",
    "vehicleType": "南海バス(車椅子・ベビーカー・ノンステップ)",
    "updateTime": "2026/07/22 20:23"
  },
  {
    "vehicleNum": "080757",
    "vehicleCd": "182",
    "vehicleCorpCd": "1",
    "running": true,
    "lat": 34.499694,
    "lon": 135.563889,
    "route": "金剛駅前→高辺台小学校前→金剛駅前",
    "stop": "金剛駅前（東側）",
    "passTime": "20:20",
    "vehicleType": "南海バス(車椅子・ベビーカー・ノンステップ)",
    "updateTime": "2026/07/22 20:23"
  },
  {
    "vehicleNum": "080787",
    "vehicleCd": "301",
    "vehicleCorpCd": "1",
    "running": true,
    "lat": 34.594194,
    "lon": 135.446,
    "route": "【急行】海浜匠町→堺駅西口",
    "stop": "海浜匠町",
    "passTime": "20:17",
    "vehicleType": "南海バス(車椅子・ベビーカー・ノンステップ)",
    "updateTime": "2026/07/22 20:23"
  },
  {
    "vehicleNum": "080765",
    "vehicleCd": "564",
    "vehicleCorpCd": "1",
    "running": true,
    "lat": 34.554583,
    "lon": 135.500694,
    "route": "堺駅南口→福町→北野田駅前",
    "stop": "中もず駅前（南側）",
    "passTime": "20:20",
    "vehicleType": "南海バス(車椅子・ベビーカー・ノンステップ)",
    "updateTime": "2026/07/22 20:23"
  },
  {
    "vehicleNum": "080788",
    "vehicleCd": "299",
    "vehicleCorpCd": "1",
    "running": true,
    "lat": 34.567389,
    "lon": 135.478889,
    "route": "堺東駅前→塩穴通→鳳駅前",
    "stop": "賑町",
    "passTime": "20:22",
    "vehicleType": "南海バス(車椅子・ベビーカー・ノンステップ)",
    "updateTime": "2026/07/22 20:23"
  },
  {
    "vehicleNum": "080792",
    "vehicleCd": "302",
    "vehicleCorpCd": "1",
    "running": true,
    "lat": 34.591889,
    "lon": 135.472889,
    "route": "【急行】海浜匠町→堺東駅前→阪和堺市駅前",
    "stop": "海浜匠町",
    "passTime": "20:12",
    "vehicleType": "南海バス(車椅子・ベビーカー・ノンステップ)",
    "updateTime": "2026/07/22 20:23"
  },
  {
    "vehicleNum": "080795",
    "vehicleCd": "43",
    "vehicleCorpCd": "1",
    "running": true,
    "lat": 34.553083,
    "lon": 135.512389,
    "route": "堺東駅前→白鷺駅前→堺東駅前（循環）",
    "stop": "白鷺駅前",
    "passTime": "20:21",
    "vehicleType": "南海バス(車椅子・ベビーカー・ノンステップ)",
    "updateTime": "2026/07/22 20:23"
  },
  {
    "vehicleNum": "080794",
    "vehicleCd": "344",
    "vehicleCorpCd": "1",
    "running": true,
    "lat": 34.586583,
    "lon": 135.527278,
    "route": "河内天美駅前→天美我堂→堺東駅前",
    "stop": "天美西",
    "passTime": "20:20",
    "vehicleType": "南海バス(車椅子・ベビーカー・ノンステップ)",
    "updateTime": "2026/07/22 20:23"
  },
  {
    "vehicleNum": "080807",
    "vehicleCd": "223",
    "vehicleCorpCd": "1",
    "running": true,
    "lat": 34.589889,
    "lon": 135.479194,
    "route": "堺東駅前→材木町→堺駅西口",
    "stop": "内川橋",
    "passTime": "20:22",
    "vehicleType": "南海バス(車椅子・ベビーカー・ノンステップ)",
    "updateTime": "2026/07/22 20:23"
  },
  {
    "vehicleNum": "080808",
    "vehicleCd": "216",
    "vehicleCorpCd": "1",
    "running": true,
    "lat": 34.575194,
    "lon": 135.473083,
    "route": "堺駅前→堺東駅前→河内松原駅前",
    "stop": "大寺南門山之口前",
    "passTime": "20:22",
    "vehicleType": "南海バス(車椅子・ベビーカー・ノンステップ)",
    "updateTime": "2026/07/22 20:23"
  },
  {
    "vehicleNum": "080814",
    "vehicleCd": "193",
    "vehicleCorpCd": "1",
    "running": true,
    "lat": 34.541778,
    "lon": 135.468778,
    "route": "津久野駅前→堺市立総合医療センター前→泉北２号線→泉ヶ丘駅",
    "stop": "津久野駅前",
    "passTime": "20:22",
    "vehicleType": "南海バス(車椅子・ベビーカー・ノンステップ)",
    "updateTime": "2026/07/22 20:23"
  },
  {
    "vehicleNum": "080809",
    "vehicleCd": "215",
    "vehicleCorpCd": "1",
    "running": true,
    "lat": 34.578583,
    "lon": 135.4745,
    "route": "堺駅西口→南島町→堺東駅前",
    "stop": "大小路",
    "passTime": "20:22",
    "vehicleType": "南海バス(車椅子・ベビーカー・ノンステップ)",
    "updateTime": "2026/07/22 20:23"
  },
  {
    "vehicleNum": "080815",
    "vehicleCd": "575",
    "vehicleCorpCd": "1",
    "running": true,
    "lat": 34.475694,
    "lon": 135.491972,
    "route": "栂・美木多駅→御池台回り→栂・美木多駅",
    "stop": "原山台３丁",
    "passTime": "20:21",
    "vehicleType": "南海バス(車椅子・ベビーカー・ノンステップ)",
    "updateTime": "2026/07/22 20:23"
  },
  {
    "vehicleNum": "080825",
    "vehicleCd": "261",
    "vehicleCorpCd": "1",
    "running": true,
    "lat": 34.576278,
    "lon": 135.471278,
    "route": "堺駅南口→三国ヶ丘駅前→北野田駅前",
    "stop": "宿院",
    "passTime": "20:22",
    "vehicleType": "南海バス(車椅子・ベビーカー・ノンステップ)",
    "updateTime": "2026/07/22 20:23"
  },
  {
    "vehicleNum": "080826",
    "vehicleCd": "152",
    "vehicleCorpCd": "1",
    "running": true,
    "lat": 34.515083,
    "lon": 135.511,
    "route": "深井駅→田園→あみだ池",
    "stop": "東中学校前（堺市）",
    "passTime": "20:21",
    "vehicleType": "南海バス(車椅子・ベビーカー・ノンステップ)",
    "updateTime": "2026/07/22 20:23"
  },
  {
    "vehicleNum": "080835",
    "vehicleCd": "310",
    "vehicleCorpCd": "1",
    "running": true,
    "lat": 34.497778,
    "lon": 135.571194,
    "route": "金剛駅前→向陽・藤沢回り→金剛駅前",
    "stop": "公園前",
    "passTime": "20:21",
    "vehicleType": "南海バス(車椅子・ベビーカー・ノンステップ)",
    "updateTime": "2026/07/22 20:23"
  },
  {
    "vehicleNum": "080836",
    "vehicleCd": "268",
    "vehicleCorpCd": "1",
    "running": true,
    "lat": 34.5745,
    "lon": 135.499583,
    "route": "河内松原駅前→阪和堺市駅前→堺東駅前",
    "stop": "阪和堺市駅筋",
    "passTime": "20:22",
    "vehicleType": "南海バス(車椅子・ベビーカー・ノンステップ)",
    "updateTime": "2026/07/22 20:23"
  },
  {
    "vehicleNum": "080846",
    "vehicleCd": "224",
    "vehicleCorpCd": "1",
    "running": true,
    "lat": 34.497694,
    "lon": 135.582694,
    "route": "金剛駅前→高辺台小学校前→金剛駅前",
    "stop": "小金台２丁目",
    "passTime": "20:22",
    "vehicleType": "南海バス(車椅子・ベビーカー・ノンステップ)",
    "updateTime": "2026/07/22 20:23"
  },
  {
    "vehicleNum": "080847",
    "vehicleCd": "583",
    "vehicleCorpCd": "1",
    "running": true,
    "lat": 34.508389,
    "lon": 135.499694,
    "route": "泉ヶ丘駅→深阪→津久野駅前",
    "stop": "深阪",
    "passTime": "20:21",
    "vehicleType": "南海バス(車椅子・ベビーカー・ノンステップ)",
    "updateTime": "2026/07/22 20:23"
  },
  {
    "vehicleNum": "080850",
    "vehicleCd": "24",
    "vehicleCorpCd": "1",
    "running": true,
    "lat": 34.491194,
    "lon": 135.524778,
    "route": "泉ヶ丘駅→スマ・エコタウン晴美台→高倉台左回り→泉ヶ丘駅",
    "stop": "高倉台３丁",
    "passTime": "20:22",
    "vehicleType": "南海バス(車椅子・ベビーカー・ノンステップ)",
    "updateTime": "2026/07/22 20:23"
  },
  {
    "vehicleNum": "080858",
    "vehicleCd": "225",
    "vehicleCorpCd": "1",
    "running": true,
    "lat": 34.574583,
    "lon": 135.4735,
    "route": "河内松原駅前→阪和堺市駅前→堺駅前",
    "stop": "大寺南門山之口前",
    "passTime": "20:23",
    "vehicleType": "南海バス(車椅子・ベビーカー・ノンステップ)",
    "updateTime": "2026/07/22 20:23"
  },
  {
    "vehicleNum": "080864",
    "vehicleCd": "146",
    "vehicleCorpCd": "1",
    "running": true,
    "lat": 34.570194,
    "lon": 135.472778,
    "route": "堺駅南口→堺駅前",
    "stop": "大仙西町団地前",
    "passTime": "20:21",
    "vehicleType": "南海バス(車椅子・ベビーカー・ノンステップ)",
    "updateTime": "2026/07/22 20:23"
  },
  {
    "vehicleNum": "080876",
    "vehicleCd": "390",
    "vehicleCorpCd": "1",
    "running": true,
    "lat": 34.530194,
    "lon": 135.497583,
    "route": "深井駅→東山車庫前→北野田駅前",
    "stop": "深井駅",
    "passTime": "20:23",
    "vehicleType": "南海バス(車椅子・ベビーカー・ノンステップ)",
    "updateTime": "2026/07/22 20:23"
  },
  {
    "vehicleNum": "080884",
    "vehicleCd": "116",
    "vehicleCorpCd": "1",
    "running": true,
    "lat": 34.486778,
    "lon": 135.519194,
    "route": "泉ヶ丘駅→槙塚台左回り→泉ヶ丘駅",
    "stop": "茶山台３丁",
    "passTime": "20:23",
    "vehicleType": "南海バス(車椅子・ベビーカー・ノンステップ)",
    "updateTime": "2026/07/22 20:23"
  },
  {
    "vehicleNum": "080901",
    "vehicleCd": "347",
    "vehicleCorpCd": "1",
    "running": true,
    "lat": 34.578389,
    "lon": 135.484194,
    "route": "【急行】海浜匠町→堺東駅前→阪和堺市駅前",
    "stop": "瓦町公園前",
    "passTime": "20:24",
    "vehicleType": "南海バス(車椅子・ベビーカー・ワンステップ)",
    "updateTime": "2026/07/22 20:23"
  },
  {
    "vehicleNum": "080905",
    "vehicleCd": "353",
    "vehicleCorpCd": "1",
    "running": true,
    "lat": 34.496,
    "lon": 135.512,
    "route": "泉ヶ丘駅→若松台左回り→泉ヶ丘駅",
    "stop": "茶山台",
    "passTime": "20:20",
    "vehicleType": "南海バス(車椅子・ベビーカー・ノンステップ)",
    "updateTime": "2026/07/22 20:23"
  },
  {
    "vehicleNum": "080907",
    "vehicleCd": "499",
    "vehicleCorpCd": "1",
    "running": true,
    "lat": 34.498583,
    "lon": 135.545389,
    "route": "泉ヶ丘駅→狭山ニュータウンセンター→金剛駅前",
    "stop": "狭山西小学校前",
    "passTime": "20:21",
    "vehicleType": "南海バス(車椅子・ベビーカー・ノンステップ)",
    "updateTime": "2026/07/22 20:23"
  },
  {
    "vehicleNum": "080912",
    "vehicleCd": "372",
    "vehicleCorpCd": "1",
    "running": true,
    "lat": 34.575389,
    "lon": 135.524,
    "route": "堺駅前→堺東駅前→河内松原駅前",
    "stop": "南花田町",
    "passTime": "20:21",
    "vehicleType": "南海バス(車椅子・ベビーカー・ノンステップ)",
    "updateTime": "2026/07/22 20:23"
  },
  {
    "vehicleNum": "080911",
    "vehicleCd": "240",
    "vehicleCorpCd": "1",
    "running": true,
    "lat": 34.565083,
    "lon": 135.5175,
    "route": "堺駅南口→地下鉄新金岡駅前",
    "stop": "北区役所前",
    "passTime": "20:22",
    "vehicleType": "南海バス(車椅子・ベビーカー・ノンステップ)",
    "updateTime": "2026/07/22 20:23"
  },
  {
    "vehicleNum": "080913",
    "vehicleCd": "128",
    "vehicleCorpCd": "1",
    "running": true,
    "lat": 34.574389,
    "lon": 135.484194,
    "route": "阪和堺市駅前→堺東駅前→堺駅西口→匠町→海浜匠町",
    "stop": "瓦町公園前",
    "passTime": "20:17",
    "vehicleType": "南海バス(車椅子・ベビーカー・ノンステップ)",
    "updateTime": "2026/07/22 20:23"
  },
  {
    "vehicleNum": "080920",
    "vehicleCd": "327",
    "vehicleCorpCd": "1",
    "running": true,
    "lat": 34.487,
    "lon": 135.519083,
    "route": "泉ヶ丘駅→槙塚台左回り→泉ヶ丘駅",
    "stop": "茶山台３丁",
    "passTime": "20:22",
    "vehicleType": "南海バス(車椅子・ベビーカー・ノンステップ)",
    "updateTime": "2026/07/22 20:23"
  },
  {
    "vehicleNum": "080927",
    "vehicleCd": "79",
    "vehicleCorpCd": "1",
    "running": true,
    "lat": 34.475583,
    "lon": 135.492389,
    "route": "栂・美木多駅→庭代台左回り→栂・美木多駅",
    "stop": "原山台３丁",
    "passTime": "20:21",
    "vehicleType": "南海バス(車椅子・ベビーカー・ノンステップ)",
    "updateTime": "2026/07/22 20:23"
  },
  {
    "vehicleNum": "080921",
    "vehicleCd": "143",
    "vehicleCorpCd": "1",
    "running": true,
    "lat": 34.500278,
    "lon": 135.499889,
    "route": "泉ヶ丘駅→泉北２号線→津久野駅前",
    "stop": "竹城台口",
    "passTime": "20:22",
    "vehicleType": "南海バス(車椅子・ベビーカー・ノンステップ)",
    "updateTime": "2026/07/22 20:23"
  },
  {
    "vehicleNum": "080935",
    "vehicleCd": "593",
    "vehicleCorpCd": "1",
    "running": true,
    "lat": 34.599278,
    "lon": 135.469,
    "route": "匠町→住之江公園駅前→匠町",
    "stop": "松屋大和川通３丁",
    "passTime": "20:23",
    "vehicleType": "南海バス(車椅子・ベビーカー・ノンステップ)",
    "updateTime": "2026/07/22 20:23"
  },
  {
    "vehicleNum": "080956",
    "vehicleCd": "71",
    "vehicleCorpCd": "1",
    "running": true,
    "lat": 34.615278,
    "lon": 135.436278,
    "route": "堺東駅前→ＡＴＣ",
    "stop": "堺駅前",
    "passTime": "20:13",
    "vehicleType": "南海バス",
    "updateTime": "2026/07/22 20:23"
  },
  {
    "vehicleNum": "080958",
    "vehicleCd": "603",
    "vehicleCorpCd": "1",
    "running": true,
    "lat": 34.621194,
    "lon": 135.4345,
    "route": "ＡＴＣ→堺東駅前",
    "stop": "ポートタウン東",
    "passTime": "20:20",
    "vehicleType": "南海バス",
    "updateTime": "2026/07/22 20:23"
  },
  {
    "vehicleNum": "080968",
    "vehicleCd": "424",
    "vehicleCorpCd": "1",
    "running": true,
    "lat": 34.523194,
    "lon": 135.542083,
    "route": "北野田駅前→福町→深井駅",
    "stop": "北野田駅前",
    "passTime": "20:22",
    "vehicleType": "南海バス(車椅子・ベビーカー・ノンステップ)",
    "updateTime": "2026/07/22 20:23"
  },
  {
    "vehicleNum": "080951",
    "vehicleCd": "597",
    "vehicleCorpCd": "1",
    "running": true,
    "lat": 34.463583,
    "lon": 135.501694,
    "route": "栂・美木多駅→御池台回り→栂・美木多駅",
    "stop": "御池台センター",
    "passTime": "20:23",
    "vehicleType": "南海バス(車椅子・ベビーカー・ノンステップ)",
    "updateTime": "2026/07/22 20:23"
  },
  {
    "vehicleNum": "080967",
    "vehicleCd": "605",
    "vehicleCorpCd": "1",
    "running": true,
    "lat": 34.531889,
    "lon": 135.569583,
    "route": "中もず駅前→平尾・美原区役所前→中もず駅前",
    "stop": "菅生口",
    "passTime": "20:21",
    "vehicleType": "南海バス(車椅子・ベビーカー・ノンステップ)",
    "updateTime": "2026/07/22 20:23"
  },
  {
    "vehicleNum": "080996",
    "vehicleCd": "191",
    "vehicleCorpCd": "1",
    "running": true,
    "lat": 34.539583,
    "lon": 135.472194,
    "route": "津久野駅前→堀上緑町一丁→津久野駅前→堺東駅前",
    "stop": "堺市立総合医療センター東",
    "passTime": "20:23",
    "vehicleType": "南海バス(車椅子・ベビーカー・ノンステップ)",
    "updateTime": "2026/07/22 20:23"
  },
  {
    "vehicleNum": "081004",
    "vehicleCd": "271",
    "vehicleCorpCd": "1",
    "running": true,
    "lat": 34.553194,
    "lon": 135.502583,
    "route": "北野田駅前→福町→堺駅南口",
    "stop": "中もず駅前通",
    "passTime": "20:22",
    "vehicleType": "南海バス(車椅子・ベビーカー・ノンステップ)",
    "updateTime": "2026/07/22 20:23"
  },
  {
    "vehicleNum": "081006",
    "vehicleCd": "54",
    "vehicleCorpCd": "1",
    "running": true,
    "lat": 34.5245,
    "lon": 135.533194,
    "route": "北野田駅前→西口園→堺駅南口",
    "stop": "中大美野",
    "passTime": "20:23",
    "vehicleType": "南海バス(車椅子・ベビーカー・ノンステップ)",
    "updateTime": "2026/07/22 20:23"
  },
  {
    "vehicleNum": "081018",
    "vehicleCd": "263",
    "vehicleCorpCd": "1",
    "running": true,
    "lat": 34.544778,
    "lon": 135.489,
    "route": "中もず駅前→北条→伏尾",
    "stop": "もず陵南町西",
    "passTime": "20:21",
    "vehicleType": "南海バス(車椅子・ベビーカー・ノンステップ)",
    "updateTime": "2026/07/22 20:23"
  },
  {
    "vehicleNum": "081023",
    "vehicleCd": "264",
    "vehicleCorpCd": "1",
    "running": true,
    "lat": 34.537889,
    "lon": 135.544083,
    "route": "初芝駅前→平尾・美原区役所前→中もず駅前",
    "stop": "北余部",
    "passTime": "20:21",
    "vehicleType": "南海バス(車椅子・ベビーカー・ノンステップ)",
    "updateTime": "2026/07/22 20:23"
  },
  {
    "vehicleNum": "081021",
    "vehicleCd": "243",
    "vehicleCorpCd": "1",
    "running": true,
    "lat": 34.572278,
    "lon": 135.477389,
    "route": "北野田駅前→西口園→堺駅南口",
    "stop": "安井町",
    "passTime": "20:22",
    "vehicleType": "南海バス(車椅子・ベビーカー・ノンステップ)",
    "updateTime": "2026/07/22 20:23"
  },
  {
    "vehicleNum": "081020",
    "vehicleCd": "163",
    "vehicleCorpCd": "1",
    "running": true,
    "lat": 34.532889,
    "lon": 135.523,
    "route": "堺駅南口→三国ヶ丘駅前→北野田駅前",
    "stop": "関茶屋",
    "passTime": "20:21",
    "vehicleType": "南海バス(車椅子・ベビーカー・ノンステップ)",
    "updateTime": "2026/07/22 20:23"
  },
  {
    "vehicleNum": "081024",
    "vehicleCd": "270",
    "vehicleCorpCd": "1",
    "running": true,
    "lat": 34.556389,
    "lon": 135.478889,
    "route": "堺東駅前→上野芝→泉ヶ丘駅",
    "stop": "旭ヶ丘（堺市）",
    "passTime": "20:22",
    "vehicleType": "南海バス(車椅子・ベビーカー・ノンステップ)",
    "updateTime": "2026/07/22 20:23"
  },
  {
    "vehicleNum": "081036",
    "vehicleCd": "293",
    "vehicleCorpCd": "1",
    "running": true,
    "lat": 34.4955,
    "lon": 135.517194,
    "route": "泉ヶ丘駅→晴美台左回り→泉ヶ丘駅",
    "stop": "茶山台２丁",
    "passTime": "20:21",
    "vehicleType": "南海バス(車椅子・ベビーカー・ノンステップ)",
    "updateTime": "2026/07/22 20:23"
  },
  {
    "vehicleNum": "081037",
    "vehicleCd": "236",
    "vehicleCorpCd": "1",
    "running": true,
    "lat": 34.498583,
    "lon": 135.554083,
    "route": "金剛駅前→帝塚山学院泉ヶ丘校前→泉ヶ丘駅前",
    "stop": "北村",
    "passTime": "20:23",
    "vehicleType": "南海バス(車椅子・ベビーカー・ノンステップ)",
    "updateTime": "2026/07/22 20:23"
  },
  {
    "vehicleNum": "081043",
    "vehicleCd": "612",
    "vehicleCorpCd": "1",
    "running": true,
    "lat": 34.475583,
    "lon": 135.492778,
    "route": "栂・美木多駅→庭代台右回り→栂・美木多駅",
    "stop": "庭代台西口",
    "passTime": "20:21",
    "vehicleType": "南海バス(車椅子・ベビーカー・ノンステップ)",
    "updateTime": "2026/07/22 20:23"
  },
  {
    "vehicleNum": "091243",
    "vehicleCd": "13",
    "vehicleCorpCd": "2",
    "running": true,
    "lat": 34.389278,
    "lon": 135.353778,
    "route": "熊取駅前→つばさが丘北口",
    "stop": "熊取団地",
    "passTime": "20:21",
    "vehicleType": "南海ウイングバス(車椅子・ワンステップ)",
    "updateTime": "2026/07/22 20:23"
  },
  {
    "vehicleNum": "091581",
    "vehicleCd": "198",
    "vehicleCorpCd": "1",
    "running": true,
    "lat": 34.4255,
    "lon": 135.231083,
    "route": "空港駅→ＦｅｄＥｘ先行→空港駅（循環）",
    "stop": "JAL輸出ビル前",
    "passTime": "20:23",
    "vehicleType": "南海バス(車椅子・ノンステップ)",
    "updateTime": "2026/07/22 20:23"
  },
  {
    "vehicleNum": "091595",
    "vehicleCd": "199",
    "vehicleCorpCd": "1",
    "running": true,
    "lat": 34.424889,
    "lon": 135.225389,
    "route": "給油地区→直行→空港駅",
    "stop": "浄化センター前",
    "passTime": "20:23",
    "vehicleType": "南海バス(車椅子・ノンステップ)",
    "updateTime": "2026/07/22 20:23"
  },
  {
    "vehicleNum": "091601",
    "vehicleCd": "202",
    "vehicleCorpCd": "1",
    "running": true,
    "lat": 34.430778,
    "lon": 135.232472,
    "route": "空港駅→直行→給油地区",
    "stop": "空港駅",
    "passTime": "20:19",
    "vehicleType": "南海バス(車椅子・ノンステップ)",
    "updateTime": "2026/07/22 20:23"
  },
  {
    "vehicleNum": "091747",
    "vehicleCd": "333",
    "vehicleCorpCd": "1",
    "running": true,
    "lat": 34.447389,
    "lon": 135.558694,
    "route": "滝畑ダム→奥河内くろまろの郷→河内長野駅前",
    "stop": "下高向",
    "passTime": "17:12",
    "vehicleType": "南海バス(車椅子・ベビーカー・ワンステップ)",
    "updateTime": "2026/07/22 20:23"
  },
  {
    "vehicleNum": "091745",
    "vehicleCd": "103",
    "vehicleCorpCd": "2",
    "running": true,
    "lat": 34.429389,
    "lon": 135.429778,
    "route": "道の駅愛彩ランド→包近→和泉中央駅",
    "stop": "職業能力開発大学",
    "passTime": "20:22",
    "vehicleType": "南海ウイングバス",
    "updateTime": "2026/07/22 20:23"
  },
  {
    "vehicleNum": "091746",
    "vehicleCd": "8",
    "vehicleCorpCd": "2",
    "running": true,
    "lat": 34.441889,
    "lon": 135.394,
    "route": "岸和田駅前→岸和田警察署前→河合→白原車庫",
    "stop": "東土生",
    "passTime": "20:22",
    "vehicleType": "南海ウイングバス(車椅子・ベビーカー・ワンステップ)",
    "updateTime": "2026/07/22 20:23"
  },
  {
    "vehicleNum": "091910",
    "vehicleCd": "441",
    "vehicleCorpCd": "1",
    "running": true,
    "lat": 34.433583,
    "lon": 135.231889,
    "route": "エアロプラザ→第２ターミナル(国内線・国際線)→エアロプラザ",
    "stop": "第2ターミナル国際線",
    "passTime": "20:21",
    "vehicleType": "南海バス(車椅子・ノンステップ)",
    "updateTime": "2026/07/22 20:23"
  },
  {
    "vehicleNum": "092205",
    "vehicleCd": "25",
    "vehicleCorpCd": "1",
    "running": true,
    "lat": 34.439,
    "lon": 135.584694,
    "route": "河内長野駅前→河合寺→小吹台",
    "stop": "清見台東口",
    "passTime": "20:22",
    "vehicleType": "南海バス(車椅子・ベビーカー・ノンステップ)",
    "updateTime": "2026/07/22 20:23"
  },
  {
    "vehicleNum": "092235",
    "vehicleCd": "535",
    "vehicleCorpCd": "1",
    "running": true,
    "lat": 34.458583,
    "lon": 135.479889,
    "route": "松尾寺→のぞみ野南→和泉中央駅",
    "stop": "緑ヶ丘団地",
    "passTime": "15:19",
    "vehicleType": "南海バス(車椅子・ベビーカー・ノンステップ)",
    "updateTime": "2026/07/22 20:23"
  },
  {
    "vehicleNum": "092345",
    "vehicleCd": "160",
    "vehicleCorpCd": "1",
    "running": true,
    "lat": 34.425389,
    "lon": 135.228778,
    "route": "貨物合同庁舎前→空港駅",
    "stop": "第2代理店ビル前",
    "passTime": "20:23",
    "vehicleType": "南海バス",
    "updateTime": "2026/07/22 20:23"
  },
  {
    "vehicleNum": "092383",
    "vehicleCd": "44",
    "vehicleCorpCd": "1",
    "running": true,
    "lat": 34.4615,
    "lon": 135.455972,
    "route": "泉大津駅前→和泉中央駅→和泉青葉台",
    "stop": "和泉中央駅",
    "passTime": "20:19",
    "vehicleType": "南海バス(車椅子・ベビーカー・ワンステップ)",
    "updateTime": "2026/07/22 20:23"
  },
  {
    "vehicleNum": "092384",
    "vehicleCd": "558",
    "vehicleCorpCd": "1",
    "running": true,
    "lat": 34.470972,
    "lon": 135.476389,
    "route": "光明池駅→城山台５丁→みずき台２丁目西",
    "stop": "光明池駅",
    "passTime": "20:20",
    "vehicleType": "南海バス(車椅子・ベビーカー・ノンステップ)",
    "updateTime": "2026/07/22 20:23"
  },
  {
    "vehicleNum": "092469",
    "vehicleCd": "220",
    "vehicleCorpCd": "1",
    "running": true,
    "lat": 34.422083,
    "lon": 135.569694,
    "route": "三日市町駅東→南青葉台中央",
    "stop": "青葉台センター前",
    "passTime": "20:22",
    "vehicleType": "南海バス(車椅子・ベビーカー・ノンステップ)",
    "updateTime": "2026/07/22 20:23"
  },
  {
    "vehicleNum": "092470",
    "vehicleCd": "105",
    "vehicleCorpCd": "1",
    "running": true,
    "lat": 34.451083,
    "lon": 135.571472,
    "route": "旭ヶ丘→水落→河内長野駅前",
    "stop": "西代町南",
    "passTime": "20:21",
    "vehicleType": "南海バス(車椅子・ベビーカー・ノンステップ)",
    "updateTime": "2026/07/22 20:23"
  },
  {
    "vehicleNum": "092482",
    "vehicleCd": "528",
    "vehicleCorpCd": "1",
    "running": true,
    "lat": 34.442278,
    "lon": 135.549,
    "route": "河内長野駅前→水落→旭ヶ丘",
    "stop": "水落",
    "passTime": "20:22",
    "vehicleType": "南海バス(車椅子・ベビーカー・ノンステップ)",
    "updateTime": "2026/07/22 20:23"
  },
  {
    "vehicleNum": "092533",
    "vehicleCd": "288",
    "vehicleCorpCd": "1",
    "running": true,
    "lat": 34.470583,
    "lon": 135.4795,
    "route": "光明池駅→城山台２丁→光明池駅",
    "stop": "鴨谷台三丁",
    "passTime": "20:23",
    "vehicleType": "南海バス(車椅子・ベビーカー・ノンステップ)",
    "updateTime": "2026/07/22 20:23"
  },
  {
    "vehicleNum": "092569",
    "vehicleCd": "266",
    "vehicleCorpCd": "1",
    "running": true,
    "lat": 34.5325,
    "lon": 135.46,
    "route": "堺東駅前→鳳駅前→光明池駅",
    "stop": "鳳駅前",
    "passTime": "20:25",
    "vehicleType": "南海バス(車椅子・ベビーカー・ノンステップ)",
    "updateTime": "2026/07/22 20:23"
  },
  {
    "vehicleNum": "092534",
    "vehicleCd": "265",
    "vehicleCorpCd": "1",
    "running": true,
    "lat": 34.485,
    "lon": 135.424889,
    "route": "泉大津駅前→和泉府中駅前→和泉中央駅→光明池駅",
    "stop": "和泉府中駅前",
    "passTime": "20:18",
    "vehicleType": "南海バス(車椅子・ベビーカー・ノンステップ)",
    "updateTime": "2026/07/22 20:23"
  },
  {
    "vehicleNum": "092570",
    "vehicleCd": "577",
    "vehicleCorpCd": "1",
    "running": true,
    "lat": 34.467278,
    "lon": 135.494389,
    "route": "堺東駅前→鳳駅前→国分峠東",
    "stop": "八田",
    "passTime": "20:22",
    "vehicleType": "南海バス(車椅子・ベビーカー・ノンステップ)",
    "updateTime": "2026/07/22 20:23"
  },
  {
    "vehicleNum": "092572",
    "vehicleCd": "313",
    "vehicleCorpCd": "1",
    "running": true,
    "lat": 34.486778,
    "lon": 135.480778,
    "route": "光明池駅→新檜尾台センター→光明池駅",
    "stop": "赤坂台一丁",
    "passTime": "20:23",
    "vehicleType": "南海バス(車椅子・ベビーカー・ノンステップ)",
    "updateTime": "2026/07/22 20:23"
  },
  {
    "vehicleNum": "092578",
    "vehicleCd": "147",
    "vehicleCorpCd": "1",
    "running": true,
    "lat": 34.449194,
    "lon": 135.544278,
    "route": "緑ヶ丘北町→千代田駅前",
    "stop": "緑ヶ丘北町",
    "passTime": "20:23",
    "vehicleType": "南海バス(車椅子・ベビーカー・ノンステップ)",
    "updateTime": "2026/07/22 20:23"
  },
  {
    "vehicleNum": "092580",
    "vehicleCd": "377",
    "vehicleCorpCd": "1",
    "running": true,
    "lat": 34.459778,
    "lon": 135.458889,
    "route": "和泉中央駅→はつが野六丁目→和泉中央駅",
    "stop": "万町弘法寺前",
    "passTime": "20:21",
    "vehicleType": "南海バス(車椅子・ベビーカー・ノンステップ)",
    "updateTime": "2026/07/22 20:23"
  },
  {
    "vehicleNum": "092653",
    "vehicleCd": "357",
    "vehicleCorpCd": "1",
    "running": true,
    "lat": 34.458083,
    "lon": 135.559583,
    "route": "千代田駅前→赤峯→荘園町",
    "stop": "赤峰",
    "passTime": "20:22",
    "vehicleType": "南海バス(車椅子・ベビーカー・ノンステップ)",
    "updateTime": "2026/07/22 20:23"
  },
  {
    "vehicleNum": "092734",
    "vehicleCd": "289",
    "vehicleCorpCd": "1",
    "running": true,
    "lat": 34.451083,
    "lon": 135.571694,
    "route": "河内長野市役所前→河内長野駅前",
    "stop": "ラブリーホール前",
    "passTime": "20:20",
    "vehicleType": "南海バス(車椅子・ベビーカー・ノンステップ)",
    "updateTime": "2026/07/22 20:23"
  },
  {
    "vehicleNum": "092762",
    "vehicleCd": "570",
    "vehicleCorpCd": "1",
    "running": true,
    "lat": 34.523694,
    "lon": 135.4625,
    "route": "堺東駅前→鳳駅前→栂・美木多駅",
    "stop": "上",
    "passTime": "20:22",
    "vehicleType": "南海バス(車椅子・ベビーカー・ノンステップ)",
    "updateTime": "2026/07/22 20:23"
  },
  {
    "vehicleNum": "092763",
    "vehicleCd": "520",
    "vehicleCorpCd": "1",
    "running": true,
    "lat": 34.471194,
    "lon": 135.433889,
    "route": "和泉中央駅→寺田→泉大津駅前",
    "stop": "寺田住宅",
    "passTime": "20:22",
    "vehicleType": "南海バス(車椅子・ベビーカー・ノンステップ)",
    "updateTime": "2026/07/22 20:23"
  },
  {
    "vehicleNum": "092761",
    "vehicleCd": "23",
    "vehicleCorpCd": "1",
    "running": true,
    "lat": 34.4315,
    "lon": 135.558889,
    "route": "三日市町駅前→南花台（左回り）→三日市町駅前",
    "stop": "南花台１丁目南",
    "passTime": "20:23",
    "vehicleType": "南海バス(車椅子・ベビーカー・ノンステップ)",
    "updateTime": "2026/07/22 20:23"
  },
  {
    "vehicleNum": "092795",
    "vehicleCd": "592",
    "vehicleCorpCd": "1",
    "running": true,
    "lat": 34.478389,
    "lon": 135.467583,
    "route": "堺東駅前→鳳駅前→光明池駅",
    "stop": "下伏屋",
    "passTime": "20:22",
    "vehicleType": "南海バス(車椅子・ベビーカー・ノンステップ)",
    "updateTime": "2026/07/22 20:23"
  },
  {
    "vehicleNum": "092859",
    "vehicleCd": "32",
    "vehicleCorpCd": "1",
    "running": true,
    "lat": 34.4335,
    "lon": 135.5825,
    "route": "三日市町駅前→清見台回り→三日市町駅前",
    "stop": "清見台３丁目",
    "passTime": "20:23",
    "vehicleType": "南海バス(車椅子・ベビーカー・ノンステップ)",
    "updateTime": "2026/07/22 20:23"
  },
  {
    "vehicleNum": "092863",
    "vehicleCd": "371",
    "vehicleCorpCd": "1",
    "running": true,
    "lat": 34.459,
    "lon": 135.479694,
    "route": "国分峠東→栂・美木多駅→堺東駅前",
    "stop": "山戸",
    "passTime": "16:17",
    "vehicleType": "南海バス(車椅子・ベビーカー・ノンステップ)",
    "updateTime": "2026/07/22 20:23"
  },
  {
    "vehicleNum": "092901",
    "vehicleCd": "356",
    "vehicleCorpCd": "1",
    "running": true,
    "lat": 34.447194,
    "lon": 135.493194,
    "route": "みずき台２丁目西→光明池駅",
    "stop": "みずき台一丁目",
    "passTime": "20:23",
    "vehicleType": "南海バス(車椅子・ベビーカー・ノンステップ)",
    "updateTime": "2026/07/22 20:23"
  },
  {
    "vehicleNum": "092916",
    "vehicleCd": "235",
    "vehicleCorpCd": "1",
    "running": true,
    "lat": 34.457778,
    "lon": 135.449778,
    "route": "泉大津駅前→和泉府中駅前→和泉中央駅",
    "stop": "唐国南",
    "passTime": "20:22",
    "vehicleType": "南海バス(車椅子・ベビーカー・ノンステップ)",
    "updateTime": "2026/07/22 20:23"
  },
  {
    "vehicleNum": "092917",
    "vehicleCd": "40",
    "vehicleCorpCd": "1",
    "running": true,
    "lat": 34.421389,
    "lon": 135.540694,
    "route": "河内長野駅前→滝畑ダム",
    "stop": "日野コミュニティーセンター",
    "passTime": "20:23",
    "vehicleType": "南海バス(車椅子・ベビーカー・ノンステップ)",
    "updateTime": "2026/07/22 20:23"
  },
  {
    "vehicleNum": "092918",
    "vehicleCd": "114",
    "vehicleCorpCd": "1",
    "running": true,
    "lat": 34.453,
    "lon": 135.486694,
    "route": "光明池駅→光明池車庫→和泉中央駅→泉大津駅前",
    "stop": "光明台センター",
    "passTime": "20:22",
    "vehicleType": "南海バス(車椅子・ベビーカー・ノンステップ)",
    "updateTime": "2026/07/22 20:23"
  },
  {
    "vehicleNum": "092948",
    "vehicleCd": "606",
    "vehicleCorpCd": "1",
    "running": true,
    "lat": 34.483278,
    "lon": 135.426778,
    "route": "和泉中央駅→阪本→泉大津駅前",
    "stop": "府中町南",
    "passTime": "20:21",
    "vehicleType": "南海バス(車椅子・ベビーカー・ノンステップ)",
    "updateTime": "2026/07/22 20:23"
  },
  {
    "vehicleNum": "092937",
    "vehicleCd": "73",
    "vehicleCorpCd": "1",
    "running": true,
    "lat": 34.471389,
    "lon": 135.468194,
    "route": "光明池駅→山田→堺東駅前",
    "stop": "変電所前",
    "passTime": "20:21",
    "vehicleType": "南海バス(車椅子・ベビーカー・ノンステップ)",
    "updateTime": "2026/07/22 20:23"
  },
  {
    "vehicleNum": "092950",
    "vehicleCd": "257",
    "vehicleCorpCd": "1",
    "running": true,
    "lat": 34.4425,
    "lon": 135.462278,
    "route": "和泉中央駅→はつが野六丁目",
    "stop": "はつが野三丁目",
    "passTime": "20:22",
    "vehicleType": "南海バス(車椅子・ベビーカー・ノンステップ)",
    "updateTime": "2026/07/22 20:23"
  },
  {
    "vehicleNum": "092952",
    "vehicleCd": "113",
    "vehicleCorpCd": "1",
    "running": true,
    "lat": 34.460778,
    "lon": 135.456389,
    "route": "和泉中央駅→はつが野六丁目→和泉中央駅",
    "stop": "和泉中央駅",
    "passTime": "20:23",
    "vehicleType": "南海バス(車椅子・ベビーカー・ノンステップ)",
    "updateTime": "2026/07/22 20:23"
  },
  {
    "vehicleNum": "092974",
    "vehicleCd": "260",
    "vehicleCorpCd": "1",
    "running": true,
    "lat": 34.507889,
    "lon": 135.442194,
    "route": "北信太駅筋→鶴山台団地→北信太駅筋",
    "stop": "北信太駅筋",
    "passTime": "20:23",
    "vehicleType": "南海バス(車椅子・ベビーカー・ノンステップ)",
    "updateTime": "2026/07/22 20:23"
  },
  {
    "vehicleNum": "092976",
    "vehicleCd": "138",
    "vehicleCorpCd": "1",
    "running": true,
    "lat": 34.54,
    "lon": 135.463389,
    "route": "光明池駅→山田→堺東駅前",
    "stop": "鳳北口",
    "passTime": "20:22",
    "vehicleType": "南海バス(車椅子・ベビーカー・ノンステップ)",
    "updateTime": "2026/07/22 20:23"
  },
  {
    "vehicleNum": "092977",
    "vehicleCd": "608",
    "vehicleCorpCd": "1",
    "running": true,
    "lat": 34.4525,
    "lon": 135.446778,
    "route": "ららぽーと和泉前→和泉中央駅→和泉府中駅前",
    "stop": "ららぽーと和泉前",
    "passTime": "20:18",
    "vehicleType": "南海バス(車椅子・ベビーカー・ノンステップ)",
    "updateTime": "2026/07/22 20:23"
  },
  {
    "vehicleNum": "092978",
    "vehicleCd": "325",
    "vehicleCorpCd": "1",
    "running": true,
    "lat": 34.487778,
    "lon": 135.424083,
    "route": "泉大津駅前→和泉府中駅前→和泉中央駅",
    "stop": "和泉府中駅前",
    "passTime": "20:23",
    "vehicleType": "南海バス(車椅子・ベビーカー・ノンステップ)",
    "updateTime": "2026/07/22 20:23"
  },
  {
    "vehicleNum": "093032",
    "vehicleCd": "231",
    "vehicleCorpCd": "1",
    "running": true,
    "lat": 34.433694,
    "lon": 135.232,
    "route": "エアロプラザ→第２ターミナル(国内線・国際線)→エアロプラザ",
    "stop": "エアロプラザ",
    "passTime": "20:20",
    "vehicleType": "南海バス",
    "updateTime": "2026/07/22 20:23"
  },
  {
    "vehicleNum": "093071",
    "vehicleCd": "274",
    "vehicleCorpCd": "1",
    "running": true,
    "lat": 34.451778,
    "lon": 135.458694,
    "route": "和泉中央駅→のぞみ野南→美術館",
    "stop": "のぞみ野南",
    "passTime": "20:23",
    "vehicleType": "南海バス(車椅子・ベビーカー・ノンステップ)",
    "updateTime": "2026/07/22 20:23"
  },
  {
    "vehicleNum": "093074",
    "vehicleCd": "247",
    "vehicleCorpCd": "1",
    "running": true,
    "lat": 34.421778,
    "lon": 135.453472,
    "route": "和泉中央駅→テクノステージセンター前→和泉中央駅",
    "stop": "和泉商工会議所前",
    "passTime": "20:23",
    "vehicleType": "南海バス(車椅子・ベビーカー・ノンステップ)",
    "updateTime": "2026/07/22 20:23"
  },
  {
    "vehicleNum": "093114",
    "vehicleCd": "262",
    "vehicleCorpCd": "1",
    "running": true,
    "lat": 34.557889,
    "lon": 135.471,
    "route": "栂・美木多駅→鳳駅前→堺東駅前",
    "stop": "緑ヶ丘",
    "passTime": "20:23",
    "vehicleType": "南海バス(車椅子・ベビーカー・ノンステップ)",
    "updateTime": "2026/07/22 20:23"
  }
]