[
  {
    "vehicleNum": "070106",
    "vehicleCd": "404",
    "vehicleCorpCd": "1",
    "running": true,
    "lat": 34.476972,
    "lon": 135.548389,
    "route": "泉ヶ丘駅→狭山ニュータウンセンター→金剛駅前",
    "stop": "大野台４丁目東",
    "passTime": "07:57",
    "vehicleType": "泉北コミュニティバス(車椅子・ベビーカー・ノンステップ)",
    "updateTime": "2026/07/20 07:57"
  },
  {
    "vehicleNum": "070107",
    "vehicleCd": "405",
    "vehicleCorpCd": "1",
    "running": true,
    "lat": 34.477694,
    "lon": 135.54,
    "route": "金剛駅前→狭山ニュータウンセンター→泉ヶ丘駅",
    "stop": "南第二小学校前",
    "passTime": "07:57",
    "vehicleType": "泉北コミュニティバス(車椅子・ベビーカー・ノンステップ)",
    "updateTime": "2026/07/20 07:57"
  },
  {
    "vehicleNum": "070850",
    "vehicleCd": "429",
    "vehicleCorpCd": "1",
    "running": true,
    "lat": 34.638694,
    "lon": 135.415583,
    "route": "堺東駅前→ＡＴＣ→堺東駅前",
    "stop": "コスモタワー",
    "passTime": "07:57",
    "vehicleType": "南海バス",
    "updateTime": "2026/07/20 07:57"
  },
  {
    "vehicleNum": "070104",
    "vehicleCd": "402",
    "vehicleCorpCd": "1",
    "running": true,
    "lat": 34.496583,
    "lon": 135.512583,
    "route": "泉ヶ丘駅→狭山ニュータウンセンター→金剛駅前",
    "stop": "泉ヶ丘駅（南側）",
    "passTime": "07:57",
    "vehicleType": "泉北コミュニティバス(車椅子・ベビーカー・ノンステップ)",
    "updateTime": "2026/07/20 07:57"
  },
  {
    "vehicleNum": "070108",
    "vehicleCd": "406",
    "vehicleCorpCd": "1",
    "running": true,
    "lat": 34.498694,
    "lon": 135.554583,
    "route": "泉ヶ丘駅→狭山ニュータウンセンター→金剛駅前",
    "stop": "北村",
    "passTime": "07:56",
    "vehicleType": "泉北コミュニティバス(車椅子・ベビーカー・ノンステップ)",
    "updateTime": "2026/07/20 07:57"
  },
  {
    "vehicleNum": "080105",
    "vehicleCd": "127",
    "vehicleCorpCd": "2",
    "running": true,
    "lat": 34.449,
    "lon": 135.3835,
    "route": "岸和田駅前→天神山・一の宮循環　右回り→岸和田駅前",
    "stop": "東岸和田駅前",
    "passTime": "07:55",
    "vehicleType": "南海ウイングバス(車椅子・ベビーカー・ワンステップ)",
    "updateTime": "2026/07/20 07:57"
  },
  {
    "vehicleNum": "080146",
    "vehicleCd": "6",
    "vehicleCorpCd": "2",
    "running": true,
    "lat": 34.394389,
    "lon": 135.3305,
    "route": "泉佐野駅前→野々地蔵北→日根野駅前→犬鳴山",
    "stop": "野々地蔵北",
    "passTime": "07:56",
    "vehicleType": "南海ウイングバス(車椅子・ワンステップ)",
    "updateTime": "2026/07/20 07:57"
  },
  {
    "vehicleNum": "071283",
    "vehicleCd": "430",
    "vehicleCorpCd": "1",
    "running": true,
    "lat": 34.581,
    "lon": 135.469389,
    "route": "堺東駅前→ＡＴＣ→堺東駅前",
    "stop": "堺東駅前",
    "passTime": "07:50",
    "vehicleType": "南海バス",
    "updateTime": "2026/07/20 07:57"
  },
  {
    "vehicleNum": "080179",
    "vehicleCd": "66",
    "vehicleCorpCd": "2",
    "running": true,
    "lat": 34.379694,
    "lon": 135.356889,
    "route": "大阪体育大学前→熊取駅前",
    "stop": "浪商学園前",
    "passTime": "07:57",
    "vehicleType": "南海ウイングバス(車椅子・ワンステップ)",
    "updateTime": "2026/07/20 07:57"
  },
  {
    "vehicleNum": "080291",
    "vehicleCd": "134",
    "vehicleCorpCd": "2",
    "running": true,
    "lat": 34.357278,
    "lon": 135.295194,
    "route": "泉南市コミュニティバス 朝 一丘回り",
    "stop": "砂川台団地北",
    "passTime": "07:56",
    "vehicleType": "南海ウイングバス(車椅子・ベビーカー・ノンステップ)",
    "updateTime": "2026/07/20 07:57"
  },
  {
    "vehicleNum": "080180",
    "vehicleCd": "68",
    "vehicleCorpCd": "2",
    "running": true,
    "lat": 34.468389,
    "lon": 135.404389,
    "route": "岸和田駅前→徳洲会病院→和泉中央駅",
    "stop": "下池田",
    "passTime": "07:57",
    "vehicleType": "南海ウイングバス(車椅子・ベビーカー・ワンステップ)",
    "updateTime": "2026/07/20 07:57"
  },
  {
    "vehicleNum": "080321",
    "vehicleCd": "14",
    "vehicleCorpCd": "2",
    "running": true,
    "lat": 34.460389,
    "lon": 135.454083,
    "route": "道の駅愛彩ランド→包近→和泉中央駅",
    "stop": "唐国南",
    "passTime": "07:55",
    "vehicleType": "南海ウイングバス(車椅子・ワンステップ)",
    "updateTime": "2026/07/20 07:57"
  },
  {
    "vehicleNum": "080463",
    "vehicleCd": "36",
    "vehicleCorpCd": "2",
    "running": true,
    "lat": 34.329583,
    "lon": 135.222778,
    "route": "箱作駅前→桃の木台回り→箱作駅前",
    "stop": "桃の木台４丁目",
    "passTime": "07:56",
    "vehicleType": "南海ウイングバス(車椅子・ベビーカー・ノンステップ)",
    "updateTime": "2026/07/20 07:57"
  },
  {
    "vehicleNum": "080629",
    "vehicleCd": "447",
    "vehicleCorpCd": "1",
    "running": true,
    "lat": 34.548083,
    "lon": 135.542,
    "route": "美原区役所→初芝駅前→美原区役所",
    "stop": "菩提",
    "passTime": "07:57",
    "vehicleType": "南海バス(車椅子・ベビーカー・ノンステップ)",
    "updateTime": "2026/07/20 07:57"
  },
  {
    "vehicleNum": "080640",
    "vehicleCd": "133",
    "vehicleCorpCd": "2",
    "running": true,
    "lat": 34.412389,
    "lon": 135.336889,
    "route": "泉佐野駅前→上瓦屋町→熊取駅前→熊取ニュータウン",
    "stop": "上瓦屋町",
    "passTime": "07:57",
    "vehicleType": "南海ウイングバス(車椅子・ベビーカー・ノンステップ)",
    "updateTime": "2026/07/20 07:57"
  },
  {
    "vehicleNum": "080697",
    "vehicleCd": "461",
    "vehicleCorpCd": "1",
    "running": true,
    "lat": 34.5745,
    "lon": 135.474194,
    "route": "堺駅前→堺東駅前→河内松原駅前",
    "stop": "大寺南門山之口前",
    "passTime": "07:56",
    "vehicleType": "南海バス",
    "updateTime": "2026/07/20 07:57"
  },
  {
    "vehicleNum": "080698",
    "vehicleCd": "531",
    "vehicleCorpCd": "1",
    "running": true,
    "lat": 34.600694,
    "lon": 135.449778,
    "route": "堺駅西口→南島町→堺東駅前",
    "stop": "Jグリーン堺南口",
    "passTime": "07:55",
    "vehicleType": "南海バス",
    "updateTime": "2026/07/20 07:57"
  },
  {
    "vehicleNum": "080709",
    "vehicleCd": "5",
    "vehicleCorpCd": "2",
    "running": true,
    "lat": 34.46,
    "lon": 135.440389,
    "route": "和泉中央駅→荒木町→岸和田駅前",
    "stop": "東ヶ丘東",
    "passTime": "07:57",
    "vehicleType": "南海ウイングバス(車椅子・ベビーカー・ノンステップ)",
    "updateTime": "2026/07/20 07:57"
  },
  {
    "vehicleNum": "080741",
    "vehicleCd": "549",
    "vehicleCorpCd": "1",
    "running": true,
    "lat": 34.5245,
    "lon": 135.506194,
    "route": "深井駅→東山車庫前→北野田駅前",
    "stop": "北垣外",
    "passTime": "07:57",
    "vehicleType": "南海バス(車椅子・ベビーカー・ノンステップ)",
    "updateTime": "2026/07/20 07:57"
  },
  {
    "vehicleNum": "080710",
    "vehicleCd": "18",
    "vehicleCorpCd": "2",
    "running": true,
    "lat": 34.408889,
    "lon": 135.333278,
    "route": "泉佐野駅前→泉陽ヶ丘→熊取駅前→山の手台→小谷→熊取駅前→泉陽ヶ丘→泉佐野駅前",
    "stop": "中之庄南口",
    "passTime": "07:57",
    "vehicleType": "南海ウイングバス(車椅子・ベビーカー・ノンステップ)",
    "updateTime": "2026/07/20 07:57"
  },
  {
    "vehicleNum": "080744",
    "vehicleCd": "550",
    "vehicleCorpCd": "1",
    "running": true,
    "lat": 34.462694,
    "lon": 135.506389,
    "route": "御池台２丁→庭代台１丁→栂・美木多駅",
    "stop": "御池台４丁",
    "passTime": "07:57",
    "vehicleType": "南海バス(車椅子・ベビーカー・ノンステップ)",
    "updateTime": "2026/07/20 07:57"
  },
  {
    "vehicleNum": "080746",
    "vehicleCd": "395",
    "vehicleCorpCd": "1",
    "running": true,
    "lat": 34.496194,
    "lon": 135.512472,
    "route": "金剛駅前→帝塚山学院泉ヶ丘校前→泉ヶ丘駅前",
    "stop": "茶山台２丁",
    "passTime": "07:55",
    "vehicleType": "南海バス(車椅子・ベビーカー・ノンステップ)",
    "updateTime": "2026/07/20 07:57"
  },
  {
    "vehicleNum": "080748",
    "vehicleCd": "218",
    "vehicleCorpCd": "1",
    "running": true,
    "lat": 34.583,
    "lon": 135.515083,
    "route": "河内天美駅前→天美我堂→堺東駅前",
    "stop": "北花田２丁",
    "passTime": "07:54",
    "vehicleType": "南海バス(車椅子・ベビーカー・ノンステップ)",
    "updateTime": "2026/07/20 07:57"
  },
  {
    "vehicleNum": "080751",
    "vehicleCd": "551",
    "vehicleCorpCd": "1",
    "running": true,
    "lat": 34.539472,
    "lon": 135.538972,
    "route": "中もず駅前→初芝駅前→船戸下→美原区役所前",
    "stop": "原寺",
    "passTime": "07:57",
    "vehicleType": "南海バス(車椅子・ベビーカー・ノンステップ)",
    "updateTime": "2026/07/20 07:57"
  },
  {
    "vehicleNum": "080755",
    "vehicleCd": "170",
    "vehicleCorpCd": "1",
    "running": true,
    "lat": 34.49,
    "lon": 135.566694,
    "route": "金剛駅前→寺池台小学校前→金剛駅前",
    "stop": "寺池台小学校前",
    "passTime": "07:57",
    "vehicleType": "南海バス(車椅子・ベビーカー・ノンステップ)",
    "updateTime": "2026/07/20 07:57"
  },
  {
    "vehicleNum": "080764",
    "vehicleCd": "563",
    "vehicleCorpCd": "1",
    "running": true,
    "lat": 34.557694,
    "lon": 135.470889,
    "route": "堺東駅前→堀上緑町１丁→堺東駅前",
    "stop": "緑ヶ丘",
    "passTime": "07:57",
    "vehicleType": "南海バス(車椅子・ベビーカー・ノンステップ)",
    "updateTime": "2026/07/20 07:57"
  },
  {
    "vehicleNum": "080767",
    "vehicleCd": "566",
    "vehicleCorpCd": "1",
    "running": true,
    "lat": 34.543083,
    "lon": 135.475889,
    "route": "堺東駅前→堀上緑町１丁→堺東駅前",
    "stop": "津久野中学校前",
    "passTime": "07:56",
    "vehicleType": "南海バス(車椅子・ベビーカー・ノンステップ)",
    "updateTime": "2026/07/20 07:57"
  },
  {
    "vehicleNum": "080766",
    "vehicleCd": "565",
    "vehicleCorpCd": "1",
    "running": true,
    "lat": 34.5255,
    "lon": 135.479583,
    "route": "津久野駅前→鈴の宮団地センター→深井駅",
    "stop": "鈴の宮団地東口",
    "passTime": "07:57",
    "vehicleType": "南海バス(車椅子・ベビーカー・ノンステップ)",
    "updateTime": "2026/07/20 07:57"
  },
  {
    "vehicleNum": "080787",
    "vehicleCd": "301",
    "vehicleCorpCd": "1",
    "running": true,
    "lat": 34.584583,
    "lon": 135.469,
    "route": "匠町→堺駅西口→阪和堺市駅前",
    "stop": "戎島",
    "passTime": "07:57",
    "vehicleType": "南海バス(車椅子・ベビーカー・ノンステップ)",
    "updateTime": "2026/07/20 07:57"
  },
  {
    "vehicleNum": "080788",
    "vehicleCd": "299",
    "vehicleCorpCd": "1",
    "running": true,
    "lat": 34.572778,
    "lon": 135.476889,
    "route": "堺駅南口→地下鉄新金岡駅前",
    "stop": "安井町",
    "passTime": "07:56",
    "vehicleType": "南海バス(車椅子・ベビーカー・ノンステップ)",
    "updateTime": "2026/07/20 07:57"
  },
  {
    "vehicleNum": "080795",
    "vehicleCd": "43",
    "vehicleCorpCd": "1",
    "running": true,
    "lat": 34.601278,
    "lon": 135.451,
    "route": "匠町→住之江公園駅前→匠町",
    "stop": "松屋大和川通",
    "passTime": "07:55",
    "vehicleType": "南海バス(車椅子・ベビーカー・ノンステップ)",
    "updateTime": "2026/07/20 07:57"
  },
  {
    "vehicleNum": "080794",
    "vehicleCd": "344",
    "vehicleCorpCd": "1",
    "running": true,
    "lat": 34.5745,
    "lon": 135.499889,
    "route": "河内松原駅前→阪和堺市駅前→堺駅前",
    "stop": "阪和堺市駅筋",
    "passTime": "07:57",
    "vehicleType": "南海バス(車椅子・ベビーカー・ノンステップ)",
    "updateTime": "2026/07/20 07:57"
  },
  {
    "vehicleNum": "080825",
    "vehicleCd": "261",
    "vehicleCorpCd": "1",
    "running": true,
    "lat": 34.558583,
    "lon": 135.4735,
    "route": "泉ヶ丘駅→宮山台中学校前→堺東駅前",
    "stop": "旭ヶ丘（堺市）",
    "passTime": "07:54",
    "vehicleType": "南海バス(車椅子・ベビーカー・ノンステップ)",
    "updateTime": "2026/07/20 07:57"
  },
  {
    "vehicleNum": "080808",
    "vehicleCd": "216",
    "vehicleCorpCd": "1",
    "running": true,
    "lat": 34.596778,
    "lon": 135.476389,
    "route": "堺東駅前→材木町→堺駅西口",
    "stop": "南島町",
    "passTime": "07:57",
    "vehicleType": "南海バス(車椅子・ベビーカー・ノンステップ)",
    "updateTime": "2026/07/20 07:57"
  },
  {
    "vehicleNum": "080822",
    "vehicleCd": "576",
    "vehicleCorpCd": "1",
    "running": true,
    "lat": 34.508,
    "lon": 135.494889,
    "route": "泉ヶ丘駅→宮山台中学校前→堺東駅前",
    "stop": "宮山台３丁",
    "passTime": "07:57",
    "vehicleType": "南海バス(車椅子・ベビーカー・ノンステップ)",
    "updateTime": "2026/07/20 07:57"
  },
  {
    "vehicleNum": "080826",
    "vehicleCd": "152",
    "vehicleCorpCd": "1",
    "running": true,
    "lat": 34.543,
    "lon": 135.526972,
    "route": "初芝駅前→平尾→初芝駅前",
    "stop": "日置荘小学校前",
    "passTime": "07:55",
    "vehicleType": "南海バス(車椅子・ベビーカー・ノンステップ)",
    "updateTime": "2026/07/20 07:57"
  },
  {
    "vehicleNum": "080835",
    "vehicleCd": "310",
    "vehicleCorpCd": "1",
    "running": true,
    "lat": 34.500778,
    "lon": 135.580278,
    "route": "金剛駅前→高辺台小学校前→金剛駅前",
    "stop": "中央センター前",
    "passTime": "07:57",
    "vehicleType": "南海バス(車椅子・ベビーカー・ノンステップ)",
    "updateTime": "2026/07/20 07:57"
  },
  {
    "vehicleNum": "080836",
    "vehicleCd": "268",
    "vehicleCorpCd": "1",
    "running": true,
    "lat": 34.567278,
    "lon": 135.508194,
    "route": "堺東駅前→白鷺駅前→堺東駅前（循環）",
    "stop": "長曽根町",
    "passTime": "07:57",
    "vehicleType": "南海バス(車椅子・ベビーカー・ノンステップ)",
    "updateTime": "2026/07/20 07:57"
  },
  {
    "vehicleNum": "080844",
    "vehicleCd": "581",
    "vehicleCorpCd": "1",
    "running": true,
    "lat": 34.506194,
    "lon": 135.575194,
    "route": "金剛駅前→向陽・藤沢回り→金剛駅前",
    "stop": "向陽台３丁目",
    "passTime": "07:56",
    "vehicleType": "南海バス(車椅子・ベビーカー・ノンステップ)",
    "updateTime": "2026/07/20 07:57"
  },
  {
    "vehicleNum": "080846",
    "vehicleCd": "224",
    "vehicleCorpCd": "1",
    "running": true,
    "lat": 34.496389,
    "lon": 135.566472,
    "route": "金剛駅前→向陽・藤沢回り→金剛駅前",
    "stop": "久野喜台二丁目",
    "passTime": "07:56",
    "vehicleType": "南海バス(車椅子・ベビーカー・ノンステップ)",
    "updateTime": "2026/07/20 07:57"
  },
  {
    "vehicleNum": "080857",
    "vehicleCd": "226",
    "vehicleCorpCd": "1",
    "running": true,
    "lat": 34.597083,
    "lon": 135.442389,
    "route": "阪和堺市駅前→匠町→海浜匠町",
    "stop": "匠町",
    "passTime": "07:55",
    "vehicleType": "南海バス(車椅子・ベビーカー・ノンステップ)",
    "updateTime": "2026/07/20 07:57"
  },
  {
    "vehicleNum": "080863",
    "vehicleCd": "249",
    "vehicleCorpCd": "1",
    "running": true,
    "lat": 34.595389,
    "lon": 135.447278,
    "route": "匠町→住之江公園駅前→匠町",
    "stop": "堺浜南",
    "passTime": "07:57",
    "vehicleType": "南海バス(車椅子・ベビーカー・ノンステップ)",
    "updateTime": "2026/07/20 07:58"
  },
  {
    "vehicleNum": "080865",
    "vehicleCd": "504",
    "vehicleCorpCd": "1",
    "running": true,
    "lat": 34.575,
    "lon": 135.545389,
    "route": "堺駅前→堺東駅前→河内松原駅前",
    "stop": "布忍駅筋",
    "passTime": "07:56",
    "vehicleType": "南海バス(車椅子・ベビーカー・ノンステップ)",
    "updateTime": "2026/07/20 07:58"
  },
  {
    "vehicleNum": "080868",
    "vehicleCd": "237",
    "vehicleCorpCd": "1",
    "running": true,
    "lat": 34.504694,
    "lon": 135.497694,
    "route": "泉ヶ丘駅→泉北２号線→津久野駅前",
    "stop": "宮山台２丁",
    "passTime": "07:56",
    "vehicleType": "南海バス(車椅子・ベビーカー・ノンステップ)",
    "updateTime": "2026/07/20 07:58"
  },
  {
    "vehicleNum": "080869",
    "vehicleCd": "316",
    "vehicleCorpCd": "1",
    "running": true,
    "lat": 34.489389,
    "lon": 135.525694,
    "route": "泉ヶ丘駅→晴美台右回り→泉ヶ丘駅",
    "stop": "晴美台２丁",
    "passTime": "07:57",
    "vehicleType": "南海バス(車椅子・ベビーカー・ノンステップ)",
    "updateTime": "2026/07/20 07:58"
  },
  {
    "vehicleNum": "080873",
    "vehicleCd": "144",
    "vehicleCorpCd": "1",
    "running": true,
    "lat": 34.495778,
    "lon": 135.535083,
    "route": "泉ヶ丘駅→スマ・エコタウン晴美台→高倉台右回り→泉ヶ丘駅",
    "stop": "スマ・エコタウン晴美台",
    "passTime": "07:57",
    "vehicleType": "南海バス(車椅子・ベビーカー・ノンステップ)",
    "updateTime": "2026/07/20 07:58"
  },
  {
    "vehicleNum": "080870",
    "vehicleCd": "153",
    "vehicleCorpCd": "1",
    "running": true,
    "lat": 34.583083,
    "lon": 135.526694,
    "route": "堺東駅前→錦綾町→河内天美駅前",
    "stop": "天美我堂",
    "passTime": "07:57",
    "vehicleType": "南海バス(車椅子・ベビーカー・ノンステップ)",
    "updateTime": "2026/07/20 07:58"
  },
  {
    "vehicleNum": "080884",
    "vehicleCd": "116",
    "vehicleCorpCd": "1",
    "running": true,
    "lat": 34.540083,
    "lon": 135.470278,
    "route": "津久野駅前→堺市立総合医療センター前→泉北２号線→泉ヶ丘駅",
    "stop": "津久野駅前",
    "passTime": "07:55",
    "vehicleType": "南海バス(車椅子・ベビーカー・ノンステップ)",
    "updateTime": "2026/07/20 07:58"
  },
  {
    "vehicleNum": "080907",
    "vehicleCd": "499",
    "vehicleCorpCd": "1",
    "running": true,
    "lat": 34.5,
    "lon": 135.513694,
    "route": "泉ヶ丘駅→三原台左回り→泉ヶ丘駅",
    "stop": "東大谷高校前",
    "passTime": "07:56",
    "vehicleType": "南海バス(車椅子・ベビーカー・ノンステップ)",
    "updateTime": "2026/07/20 07:58"
  },
  {
    "vehicleNum": "080913",
    "vehicleCd": "128",
    "vehicleCorpCd": "1",
    "running": true,
    "lat": 34.594278,
    "lon": 135.465389,
    "route": "堺東駅前→匠町→海浜匠町",
    "stop": "浅香山通",
    "passTime": "07:56",
    "vehicleType": "南海バス(車椅子・ベビーカー・ノンステップ)",
    "updateTime": "2026/07/20 07:58"
  },
  {
    "vehicleNum": "080920",
    "vehicleCd": "327",
    "vehicleCorpCd": "1",
    "running": true,
    "lat": 34.513194,
    "lon": 135.494889,
    "route": "津久野駅前→堺市立総合医療センター前→八田荘団地→泉ヶ丘駅",
    "stop": "天の橋",
    "passTime": "07:55",
    "vehicleType": "南海バス(車椅子・ベビーカー・ノンステップ)",
    "updateTime": "2026/07/20 07:58"
  },
  {
    "vehicleNum": "080921",
    "vehicleCd": "143",
    "vehicleCorpCd": "1",
    "running": true,
    "lat": 34.496194,
    "lon": 135.513694,
    "route": "泉ヶ丘駅→スマ・エコタウン晴美台→高倉台右回り→泉ヶ丘駅",
    "stop": "三原台１丁",
    "passTime": "07:53",
    "vehicleType": "南海バス(車椅子・ベビーカー・ノンステップ)",
    "updateTime": "2026/07/20 07:58"
  },
  {
    "vehicleNum": "080928",
    "vehicleCd": "348",
    "vehicleCorpCd": "1",
    "running": true,
    "lat": 34.490083,
    "lon": 135.512583,
    "route": "泉ヶ丘駅→鉢ヶ峯→泉ヶ丘駅",
    "stop": "茶山台",
    "passTime": "07:57",
    "vehicleType": "南海バス(車椅子・ベビーカー・ノンステップ)",
    "updateTime": "2026/07/20 07:58"
  },
  {
    "vehicleNum": "080934",
    "vehicleCd": "594",
    "vehicleCorpCd": "1",
    "running": true,
    "lat": 34.567389,
    "lon": 135.478889,
    "route": "堺駅南口→堺駅前",
    "stop": "賑町",
    "passTime": "07:57",
    "vehicleType": "南海バス(車椅子・ベビーカー・ノンステップ)",
    "updateTime": "2026/07/20 07:58"
  },
  {
    "vehicleNum": "080935",
    "vehicleCd": "593",
    "vehicleCorpCd": "1",
    "running": true,
    "lat": 34.581889,
    "lon": 135.476,
    "route": "Ｊグリーン堺クラブハウス前→堺駅西口→堺東駅前",
    "stop": "堺駅西口",
    "passTime": "07:52",
    "vehicleType": "南海バス(車椅子・ベビーカー・ノンステップ)",
    "updateTime": "2026/07/20 07:58"
  },
  {
    "vehicleNum": "080948",
    "vehicleCd": "276",
    "vehicleCorpCd": "1",
    "running": true,
    "lat": 34.565889,
    "lon": 135.5115,
    "route": "阪和堺市駅前→堺駅南口",
    "stop": "北堺警察署前",
    "passTime": "07:58",
    "vehicleType": "南海バス(車椅子・ベビーカー・ノンステップ)",
    "updateTime": "2026/07/20 07:58"
  },
  {
    "vehicleNum": "080937",
    "vehicleCd": "595",
    "vehicleCorpCd": "1",
    "running": true,
    "lat": 34.549889,
    "lon": 135.506472,
    "route": "北野田駅前→西口園→堺駅南口",
    "stop": "府立大学前",
    "passTime": "07:57",
    "vehicleType": "南海バス(車椅子・ベビーカー・ノンステップ)",
    "updateTime": "2026/07/20 07:58"
  },
  {
    "vehicleNum": "080950",
    "vehicleCd": "513",
    "vehicleCorpCd": "1",
    "running": true,
    "lat": 34.565694,
    "lon": 135.492889,
    "route": "堺東駅前→白鷺駅前→堺東駅前（循環）",
    "stop": "三国ヶ丘駅前",
    "passTime": "07:57",
    "vehicleType": "南海バス(車椅子・ベビーカー・ノンステップ)",
    "updateTime": "2026/07/20 07:58"
  },
  {
    "vehicleNum": "080968",
    "vehicleCd": "424",
    "vehicleCorpCd": "1",
    "running": true,
    "lat": 34.559778,
    "lon": 135.472583,
    "route": "堺東駅前→上野芝→泉ヶ丘駅",
    "stop": "塩穴通",
    "passTime": "07:58",
    "vehicleType": "南海バス(車椅子・ベビーカー・ノンステップ)",
    "updateTime": "2026/07/20 07:58"
  },
  {
    "vehicleNum": "080977",
    "vehicleCd": "388",
    "vehicleCorpCd": "1",
    "running": true,
    "lat": 34.5205,
    "lon": 135.489194,
    "route": "堺東駅前→上野芝駅前→東山車庫前",
    "stop": "小阪",
    "passTime": "07:57",
    "vehicleType": "南海バス(車椅子・ベビーカー・ノンステップ)",
    "updateTime": "2026/07/20 07:58"
  },
  {
    "vehicleNum": "080996",
    "vehicleCd": "191",
    "vehicleCorpCd": "1",
    "running": true,
    "lat": 34.544889,
    "lon": 135.500583,
    "route": "堺東駅前→もず駅前→深井駅→あみだ池",
    "stop": "土師北口",
    "passTime": "07:58",
    "vehicleType": "南海バス(車椅子・ベビーカー・ノンステップ)",
    "updateTime": "2026/07/20 07:58"
  },
  {
    "vehicleNum": "080999",
    "vehicleCd": "493",
    "vehicleCorpCd": "1",
    "running": true,
    "lat": 34.556278,
    "lon": 135.503972,
    "route": "堺駅南口→三国ヶ丘駅前→北野田駅前",
    "stop": "中もず駅前（南側）",
    "passTime": "07:58",
    "vehicleType": "南海バス(車椅子・ベビーカー・ノンステップ)",
    "updateTime": "2026/07/20 07:58"
  },
  {
    "vehicleNum": "081001",
    "vehicleCd": "238",
    "vehicleCorpCd": "1",
    "running": true,
    "lat": 34.547889,
    "lon": 135.484194,
    "route": "東山車庫前→小阪→堺東駅前",
    "stop": "北条",
    "passTime": "07:56",
    "vehicleType": "南海バス(車椅子・ベビーカー・ノンステップ)",
    "updateTime": "2026/07/20 07:58"
  },
  {
    "vehicleNum": "081005",
    "vehicleCd": "272",
    "vehicleCorpCd": "1",
    "running": true,
    "lat": 34.539472,
    "lon": 135.470278,
    "route": "深井駅→八田荘団地→津久野駅前",
    "stop": "平岡西口",
    "passTime": "07:55",
    "vehicleType": "南海バス(車椅子・ベビーカー・ノンステップ)",
    "updateTime": "2026/07/20 07:58"
  },
  {
    "vehicleNum": "081006",
    "vehicleCd": "54",
    "vehicleCorpCd": "1",
    "running": true,
    "lat": 34.523,
    "lon": 135.537389,
    "route": "堺駅南口→福町→北野田駅前",
    "stop": "大美野噴水前",
    "passTime": "07:57",
    "vehicleType": "南海バス(車椅子・ベビーカー・ノンステップ)",
    "updateTime": "2026/07/20 07:58"
  },
  {
    "vehicleNum": "081007",
    "vehicleCd": "127",
    "vehicleCorpCd": "1",
    "running": true,
    "lat": 34.530083,
    "lon": 135.501778,
    "route": "あみだ池→深井駅→もず駅前→堺東駅前",
    "stop": "深井駅",
    "passTime": "07:55",
    "vehicleType": "南海バス(車椅子・ベビーカー・ノンステップ)",
    "updateTime": "2026/07/20 07:58"
  },
  {
    "vehicleNum": "081008",
    "vehicleCd": "47",
    "vehicleCorpCd": "1",
    "running": true,
    "lat": 34.574083,
    "lon": 135.474278,
    "route": "北野田駅前→福町→堺駅南口",
    "stop": "安井町",
    "passTime": "07:56",
    "vehicleType": "南海バス(車椅子・ベビーカー・ノンステップ)",
    "updateTime": "2026/07/20 07:58"
  },
  {
    "vehicleNum": "081017",
    "vehicleCd": "135",
    "vehicleCorpCd": "1",
    "running": true,
    "lat": 34.490583,
    "lon": 135.542583,
    "route": "金剛駅前→狭山ニュータウンセンター→泉ヶ丘駅",
    "stop": "西山台北",
    "passTime": "07:58",
    "vehicleType": "南海バス(車椅子・ベビーカー・ノンステップ)",
    "updateTime": "2026/07/20 07:58"
  },
  {
    "vehicleNum": "081020",
    "vehicleCd": "163",
    "vehicleCorpCd": "1",
    "running": true,
    "lat": 34.522389,
    "lon": 135.532889,
    "route": "北野田駅前→福町→深井駅",
    "stop": "伊勢道",
    "passTime": "07:57",
    "vehicleType": "南海バス(車椅子・ベビーカー・ノンステップ)",
    "updateTime": "2026/07/20 07:58"
  },
  {
    "vehicleNum": "081021",
    "vehicleCd": "243",
    "vehicleCorpCd": "1",
    "running": true,
    "lat": 34.539083,
    "lon": 135.447194,
    "route": "石津川駅前→浜寺公園駅前通→鳳駅前→堺市立総合医療センター前",
    "stop": "浜寺昭和町南",
    "passTime": "07:58",
    "vehicleType": "南海バス(車椅子・ベビーカー・ノンステップ)",
    "updateTime": "2026/07/20 07:58"
  },
  {
    "vehicleNum": "081040",
    "vehicleCd": "248",
    "vehicleCorpCd": "1",
    "running": true,
    "lat": 34.497194,
    "lon": 135.5105,
    "route": "金剛駅前→泉ヶ丘駅→近大キャンパス前→金剛駅前",
    "stop": "泉ヶ丘駅（北側）",
    "passTime": "07:57",
    "vehicleType": "南海バス(車椅子・ベビーカー・ノンステップ)",
    "updateTime": "2026/07/20 07:58"
  },
  {
    "vehicleNum": "081037",
    "vehicleCd": "236",
    "vehicleCorpCd": "1",
    "running": true,
    "lat": 34.475389,
    "lon": 135.501389,
    "route": "栂・美木多駅→庭代台右回り→栂・美木多駅",
    "stop": "庭代台小学校前",
    "passTime": "07:57",
    "vehicleType": "南海バス(車椅子・ベビーカー・ノンステップ)",
    "updateTime": "2026/07/20 07:58"
  },
  {
    "vehicleNum": "090170",
    "vehicleCd": "117",
    "vehicleCorpCd": "2",
    "running": true,
    "lat": 34.369889,
    "lon": 135.355694,
    "route": "犬鳴山→日根野駅前→野々地蔵北→泉佐野駅前",
    "stop": "大土出張所前",
    "passTime": "07:57",
    "vehicleType": "南海ウイングバス",
    "updateTime": "2026/07/20 07:58"
  },
  {
    "vehicleNum": "091596",
    "vehicleCd": "200",
    "vehicleCorpCd": "1",
    "running": true,
    "lat": 34.442194,
    "lon": 135.252194,
    "route": "ポートターミナル→第１ターミナル",
    "stop": "ポートターミナル",
    "passTime": "07:53",
    "vehicleType": "南海バス(車椅子・ノンステップ)",
    "updateTime": "2026/07/20 07:58"
  },
  {
    "vehicleNum": "091739",
    "vehicleCd": "147",
    "vehicleCorpCd": "2",
    "running": true,
    "lat": 34.444083,
    "lon": 135.437889,
    "route": "和泉中央駅→道の駅愛彩ランド",
    "stop": "山直東",
    "passTime": "07:55",
    "vehicleType": "南海ウイングバス(車椅子・ベビーカー・ワンステップ)",
    "updateTime": "2026/07/20 07:58"
  },
  {
    "vehicleNum": "091658",
    "vehicleCd": "203",
    "vehicleCorpCd": "1",
    "running": true,
    "lat": 34.424694,
    "lon": 135.225583,
    "route": "空港駅→給油地区",
    "stop": "浄化センター前",
    "passTime": "07:57",
    "vehicleType": "南海バス(車椅子・ノンステップ)",
    "updateTime": "2026/07/20 07:58"
  },
  {
    "vehicleNum": "091748",
    "vehicleCd": "74",
    "vehicleCorpCd": "2",
    "running": true,
    "lat": 34.424083,
    "lon": 135.4395,
    "route": "岸和田駅前→内畑→白原車庫",
    "stop": "積川神社前",
    "passTime": "07:56",
    "vehicleType": "南海ウイングバス(車椅子・ワンステップ)",
    "updateTime": "2026/07/20 07:58"
  },
  {
    "vehicleNum": "091744",
    "vehicleCd": "148",
    "vehicleCorpCd": "2",
    "running": true,
    "lat": 34.451389,
    "lon": 135.408389,
    "route": "道の駅愛彩ランド→下松駅前→岸和田駅前",
    "stop": "尾生",
    "passTime": "07:57",
    "vehicleType": "南海ウイングバス(車椅子・ベビーカー・ワンステップ)",
    "updateTime": "2026/07/20 07:58"
  },
  {
    "vehicleNum": "091792",
    "vehicleCd": "59",
    "vehicleCorpCd": "1",
    "running": true,
    "lat": 34.427889,
    "lon": 135.229778,
    "route": "空港駅→給油地区",
    "stop": "大阪国際郵便局前",
    "passTime": "07:57",
    "vehicleType": "南海バス(車椅子・ノンステップ)",
    "updateTime": "2026/07/20 07:58"
  },
  {
    "vehicleNum": "092135",
    "vehicleCd": "525",
    "vehicleCorpCd": "1",
    "running": true,
    "lat": 34.438,
    "lon": 135.232778,
    "route": "エアロプラザ→第２ターミナル(国内線・国際線)→エアロプラザ",
    "stop": "第2ターミナル国際線",
    "passTime": "07:58",
    "vehicleType": "南海バス",
    "updateTime": "2026/07/20 07:58"
  },
  {
    "vehicleNum": "092204",
    "vehicleCd": "416",
    "vehicleCorpCd": "1",
    "running": true,
    "lat": 34.438889,
    "lon": 135.584778,
    "route": "金剛山ﾛｰﾌﾟｳｪｲ前→日東町東口→河内長野駅前",
    "stop": "清見台東口",
    "passTime": "07:58",
    "vehicleType": "南海バス",
    "updateTime": "2026/07/20 07:58"
  },
  {
    "vehicleNum": "092373",
    "vehicleCd": "553",
    "vehicleCorpCd": "1",
    "running": true,
    "lat": 34.444194,
    "lon": 135.493,
    "route": "光明池駅→城山台５丁→みずき台２丁目西",
    "stop": "みずき台二丁目東",
    "passTime": "07:57",
    "vehicleType": "南海バス(車椅子・ベビーカー・ノンステップ)",
    "updateTime": "2026/07/20 07:58"
  },
  {
    "vehicleNum": "092382",
    "vehicleCd": "556",
    "vehicleCorpCd": "1",
    "running": true,
    "lat": 34.456583,
    "lon": 135.447889,
    "route": "和泉中央駅→寺田→泉大津駅前",
    "stop": "唐国南",
    "passTime": "07:56",
    "vehicleType": "南海バス(車椅子・ベビーカー・ノンステップ)",
    "updateTime": "2026/07/20 07:58"
  },
  {
    "vehicleNum": "092383",
    "vehicleCd": "44",
    "vehicleCorpCd": "1",
    "running": true,
    "lat": 34.494889,
    "lon": 135.480778,
    "route": "鳳駅前→草部→栂・美木多駅",
    "stop": "福泉南中学校前",
    "passTime": "07:58",
    "vehicleType": "南海バス(車椅子・ベビーカー・ワンステップ)",
    "updateTime": "2026/07/20 07:58"
  },
  {
    "vehicleNum": "092398",
    "vehicleCd": "41",
    "vehicleCorpCd": "1",
    "running": true,
    "lat": 34.432194,
    "lon": 135.235,
    "route": "エアロプラザ→第２ターミナル(国内線・国際線)→エアロプラザ",
    "stop": "エアロプラザ",
    "passTime": "07:55",
    "vehicleType": "南海バス(車椅子・ノンステップ)",
    "updateTime": "2026/07/20 07:58"
  },
  {
    "vehicleNum": "092468",
    "vehicleCd": "51",
    "vehicleCorpCd": "1",
    "running": true,
    "lat": 34.452694,
    "lon": 135.567083,
    "route": "旭→天野山→長野",
    "stop": "西代町南",
    "passTime": "07:56",
    "vehicleType": "南海バス(車椅子・ベビーカー・ノンステップ)",
    "updateTime": "2026/07/20 07:58"
  },
  {
    "vehicleNum": "092454",
    "vehicleCd": "125",
    "vehicleCorpCd": "2",
    "running": true,
    "lat": 34.316694,
    "lon": 135.307194,
    "route": "泉南市コミュニティバス 山回り",
    "stop": "つづら畑",
    "passTime": "07:57",
    "vehicleType": "泉南市コミュニティバス(橙)",
    "updateTime": "2026/07/20 07:58"
  },
  {
    "vehicleNum": "092470",
    "vehicleCd": "105",
    "vehicleCorpCd": "1",
    "running": true,
    "lat": 34.468194,
    "lon": 135.565472,
    "route": "千代田駅前→貴望ヶ丘",
    "stop": "千代田駅前",
    "passTime": "07:56",
    "vehicleType": "南海バス(車椅子・ベビーカー・ノンステップ)",
    "updateTime": "2026/07/20 07:58"
  },
  {
    "vehicleNum": "092483",
    "vehicleCd": "110",
    "vehicleCorpCd": "1",
    "running": true,
    "lat": 34.4315,
    "lon": 135.541583,
    "route": "長野→天野山→旭",
    "stop": "旭ヶ丘口",
    "passTime": "07:57",
    "vehicleType": "南海バス(車椅子・ベビーカー・ノンステップ)",
    "updateTime": "2026/07/20 07:58"
  },
  {
    "vehicleNum": "092533",
    "vehicleCd": "288",
    "vehicleCorpCd": "1",
    "running": true,
    "lat": 34.501083,
    "lon": 135.477889,
    "route": "栂・美木多駅→鳳駅前",
    "stop": "稲葉",
    "passTime": "07:58",
    "vehicleType": "南海バス(車椅子・ベビーカー・ノンステップ)",
    "updateTime": "2026/07/20 07:58"
  },
  {
    "vehicleNum": "092578",
    "vehicleCd": "147",
    "vehicleCorpCd": "1",
    "running": true,
    "lat": 34.443389,
    "lon": 135.583389,
    "route": "河内長野駅前→観心寺→金剛山ロープウェイ前",
    "stop": "河合寺",
    "passTime": "07:56",
    "vehicleType": "南海バス(車椅子・ベビーカー・ノンステップ)",
    "updateTime": "2026/07/20 07:58"
  },
  {
    "vehicleNum": "092577",
    "vehicleCd": "578",
    "vehicleCorpCd": "1",
    "running": true,
    "lat": 34.416194,
    "lon": 135.5575,
    "route": "大矢船西町→三日市町駅前",
    "stop": "大矢船西町",
    "passTime": "07:57",
    "vehicleType": "南海バス(車椅子・ベビーカー・ノンステップ)",
    "updateTime": "2026/07/20 07:58"
  },
  {
    "vehicleNum": "092569",
    "vehicleCd": "266",
    "vehicleCorpCd": "1",
    "running": true,
    "lat": 34.497778,
    "lon": 135.412694,
    "route": "泉大津駅前→和泉府中駅前→和泉中央駅",
    "stop": "池浦中央",
    "passTime": "07:57",
    "vehicleType": "南海バス(車椅子・ベビーカー・ノンステップ)",
    "updateTime": "2026/07/20 07:58"
  },
  {
    "vehicleNum": "092579",
    "vehicleCd": "579",
    "vehicleCorpCd": "1",
    "running": true,
    "lat": 34.446083,
    "lon": 135.578778,
    "route": "小吹台→河内長野駅前",
    "stop": "大師町",
    "passTime": "07:57",
    "vehicleType": "南海バス(車椅子・ベビーカー・ノンステップ)",
    "updateTime": "2026/07/20 07:58"
  },
  {
    "vehicleNum": "092595",
    "vehicleCd": "326",
    "vehicleCorpCd": "1",
    "running": true,
    "lat": 34.467278,
    "lon": 135.564083,
    "route": "緑ヶ丘北町→千代田駅前",
    "stop": "南海西友前",
    "passTime": "07:57",
    "vehicleType": "南海バス(車椅子・ベビーカー・ノンステップ)",
    "updateTime": "2026/07/20 07:58"
  },
  {
    "vehicleNum": "092648",
    "vehicleCd": "486",
    "vehicleCorpCd": "1",
    "running": true,
    "lat": 34.458778,
    "lon": 135.552778,
    "route": "千代田駅前→赤峯→荘園町",
    "stop": "荘園橋",
    "passTime": "07:58",
    "vehicleType": "南海バス(車椅子・ベビーカー・ノンステップ)",
    "updateTime": "2026/07/20 07:58"
  },
  {
    "vehicleNum": "092734",
    "vehicleCd": "289",
    "vehicleCorpCd": "1",
    "running": true,
    "lat": 34.430194,
    "lon": 135.577083,
    "route": "美加の台駅前→美加の台西→美加の台駅前",
    "stop": "美加の台西",
    "passTime": "07:57",
    "vehicleType": "南海バス(車椅子・ベビーカー・ノンステップ)",
    "updateTime": "2026/07/20 07:58"
  },
  {
    "vehicleNum": "092761",
    "vehicleCd": "23",
    "vehicleCorpCd": "1",
    "running": true,
    "lat": 34.419083,
    "lon": 135.559,
    "route": "三日市町駅前→南花台１丁目北→南ヶ丘",
    "stop": "大矢船北町（南花台系統）",
    "passTime": "07:57",
    "vehicleType": "南海バス(車椅子・ベビーカー・ノンステップ)",
    "updateTime": "2026/07/20 07:58"
  },
  {
    "vehicleNum": "092762",
    "vehicleCd": "570",
    "vehicleCorpCd": "1",
    "running": true,
    "lat": 34.515278,
    "lon": 135.466583,
    "route": "堺東駅前→鳳駅前→国分峠東",
    "stop": "福泉公民館前",
    "passTime": "07:58",
    "vehicleType": "南海バス(車椅子・ベビーカー・ノンステップ)",
    "updateTime": "2026/07/20 07:58"
  },
  {
    "vehicleNum": "092795",
    "vehicleCd": "592",
    "vehicleCorpCd": "1",
    "running": true,
    "lat": 34.469083,
    "lon": 135.469278,
    "route": "堺東駅前→鳳駅前→光明池駅",
    "stop": "変電所前",
    "passTime": "07:57",
    "vehicleType": "南海バス(車椅子・ベビーカー・ノンステップ)",
    "updateTime": "2026/07/20 07:58"
  },
  {
    "vehicleNum": "092857",
    "vehicleCd": "516",
    "vehicleCorpCd": "1",
    "running": true,
    "lat": 34.456694,
    "lon": 135.502778,
    "route": "国分峠東→栂・美木多駅→堺東駅前",
    "stop": "下別所",
    "passTime": "07:57",
    "vehicleType": "南海バス(車椅子・ベビーカー・ノンステップ)",
    "updateTime": "2026/07/20 07:58"
  },
  {
    "vehicleNum": "092901",
    "vehicleCd": "356",
    "vehicleCorpCd": "1",
    "running": true,
    "lat": 34.484472,
    "lon": 135.424889,
    "route": "和泉青葉台→和泉中央駅→泉大津駅前",
    "stop": "府中町南",
    "passTime": "07:55",
    "vehicleType": "南海バス(車椅子・ベビーカー・ノンステップ)",
    "updateTime": "2026/07/20 07:58"
  },
  {
    "vehicleNum": "092913",
    "vehicleCd": "154",
    "vehicleCorpCd": "1",
    "running": true,
    "lat": 34.478472,
    "lon": 135.432278,
    "route": "和泉府中駅前→和泉中央駅→ららぽーと和泉前",
    "stop": "和泉市立総合医療センター前",
    "passTime": "07:58",
    "vehicleType": "南海バス(車椅子・ベビーカー・ノンステップ)",
    "updateTime": "2026/07/20 07:58"
  },
  {
    "vehicleNum": "092916",
    "vehicleCd": "235",
    "vehicleCorpCd": "1",
    "running": true,
    "lat": 34.552,
    "lon": 135.465194,
    "route": "堺東駅前→鳳駅前→光明池駅",
    "stop": "神石橋",
    "passTime": "07:58",
    "vehicleType": "南海バス(車椅子・ベビーカー・ノンステップ)",
    "updateTime": "2026/07/20 07:58"
  },
  {
    "vehicleNum": "092917",
    "vehicleCd": "40",
    "vehicleCorpCd": "1",
    "running": true,
    "lat": 34.433083,
    "lon": 135.5455,
    "route": "滝畑ダム→河内長野駅前",
    "stop": "古保",
    "passTime": "07:57",
    "vehicleType": "南海バス(車椅子・ベビーカー・ノンステップ)",
    "updateTime": "2026/07/20 07:58"
  },
  {
    "vehicleNum": "092948",
    "vehicleCd": "606",
    "vehicleCorpCd": "1",
    "running": true,
    "lat": 34.533194,
    "lon": 135.462889,
    "route": "光明池駅→山田→堺東駅前",
    "stop": "西堺警察署前",
    "passTime": "07:57",
    "vehicleType": "南海バス(車椅子・ベビーカー・ノンステップ)",
    "updateTime": "2026/07/20 07:58"
  },
  {
    "vehicleNum": "092937",
    "vehicleCd": "73",
    "vehicleCorpCd": "1",
    "running": true,
    "lat": 34.471583,
    "lon": 135.483778,
    "route": "光明池駅→城山台２丁→光明池駅",
    "stop": "美木多中学校前",
    "passTime": "07:58",
    "vehicleType": "南海バス(車椅子・ベビーカー・ノンステップ)",
    "updateTime": "2026/07/20 07:58"
  },
  {
    "vehicleNum": "092951",
    "vehicleCd": "340",
    "vehicleCorpCd": "1",
    "running": true,
    "lat": 34.549583,
    "lon": 135.464083,
    "route": "国分峠東→栂・美木多駅→堺東駅前",
    "stop": "神石市之町",
    "passTime": "07:58",
    "vehicleType": "南海バス(車椅子・ベビーカー・ノンステップ)",
    "updateTime": "2026/07/20 07:58"
  },
  {
    "vehicleNum": "092952",
    "vehicleCd": "113",
    "vehicleCorpCd": "1",
    "running": true,
    "lat": 34.435194,
    "lon": 135.449583,
    "route": "和泉中央駅→テクノステージセンター前→直行→和泉中央駅",
    "stop": "テクノステージ口",
    "passTime": "07:57",
    "vehicleType": "南海バス(車椅子・ベビーカー・ノンステップ)",
    "updateTime": "2026/07/20 07:58"
  },
  {
    "vehicleNum": "092974",
    "vehicleCd": "260",
    "vehicleCorpCd": "1",
    "running": true,
    "lat": 34.451889,
    "lon": 135.459194,
    "route": "美術館前→のぞみ野南→和泉中央駅",
    "stop": "のぞみ野南",
    "passTime": "07:57",
    "vehicleType": "南海バス(車椅子・ベビーカー・ノンステップ)",
    "updateTime": "2026/07/20 07:58"
  },
  {
    "vehicleNum": "092975",
    "vehicleCd": "115",
    "vehicleCorpCd": "1",
    "running": true,
    "lat": 34.475278,
    "lon": 135.474194,
    "route": "光明池駅→山田→堺東駅前",
    "stop": "光明池駅",
    "passTime": "07:57",
    "vehicleType": "南海バス(車椅子・ベビーカー・ノンステップ)",
    "updateTime": "2026/07/20 07:58"
  },
  {
    "vehicleNum": "093011",
    "vehicleCd": "27",
    "vehicleCorpCd": "1",
    "running": true,
    "lat": 34.442083,
    "lon": 135.257278,
    "route": "ポートターミナル→第２ターミナル",
    "stop": "ポートターミナル",
    "passTime": "07:54",
    "vehicleType": "南海バス(車椅子・ベビーカー・ノンステップ)",
    "updateTime": "2026/07/20 07:58"
  },
  {
    "vehicleNum": "093035",
    "vehicleCd": "609",
    "vehicleCorpCd": "1",
    "running": true,
    "lat": 34.437694,
    "lon": 135.242889,
    "route": "エアロプラザ→第２ターミナル(国内線・国際線)→エアロプラザ",
    "stop": "第2ターミナル国際線",
    "passTime": "07:53",
    "vehicleType": "南海バス",
    "updateTime": "2026/07/20 07:58"
  },
  {
    "vehicleNum": "093054",
    "vehicleCd": "396",
    "vehicleCorpCd": "1",
    "running": true,
    "lat": 34.460194,
    "lon": 135.488472,
    "route": "光明池駅→光明池車庫→和泉中央駅→泉大津駅前",
    "stop": "城山台四丁",
    "passTime": "07:57",
    "vehicleType": "南海バス(車椅子・ベビーカー・ノンステップ)",
    "updateTime": "2026/07/20 07:58"
  },
  {
    "vehicleNum": "093073",
    "vehicleCd": "370",
    "vehicleCorpCd": "1",
    "running": true,
    "lat": 34.473583,
    "lon": 135.450389,
    "route": "泉大津駅前→和泉中央駅→和泉青葉台",
    "stop": "上阪本",
    "passTime": "07:57",
    "vehicleType": "南海バス(車椅子・ベビーカー・ノンステップ)",
    "updateTime": "2026/07/20 07:58"
  }
]