[
  {
    "vehicleNum": "070107",
    "vehicleCd": "405",
    "vehicleCorpCd": "1",
    "running": true,
    "lat": 34.485278,
    "lon": 135.524583,
    "route": "金剛駅前→狭山ニュータウンセンター→泉ヶ丘駅",
    "stop": "槙塚台１丁",
    "passTime": "11:30",
    "vehicleType": "泉北コミュニティバス(車椅子・ベビーカー・ノンステップ)",
    "updateTime": "2026/07/23 11:31"
  },
  {
    "vehicleNum": "070105",
    "vehicleCd": "403",
    "vehicleCorpCd": "1",
    "running": true,
    "lat": 34.482278,
    "lon": 135.546194,
    "route": "金剛駅前→狭山ニュータウンセンター→泉ヶ丘駅",
    "stop": "狭山ニュータウンセンター",
    "passTime": "11:29",
    "vehicleType": "泉北コミュニティバス(車椅子・ベビーカー・ノンステップ)",
    "updateTime": "2026/07/23 11:31"
  },
  {
    "vehicleNum": "070109",
    "vehicleCd": "407",
    "vehicleCorpCd": "1",
    "running": true,
    "lat": 34.498389,
    "lon": 135.546694,
    "route": "泉ヶ丘駅→狭山ニュータウンセンター→金剛駅前",
    "stop": "狭山西小学校前",
    "passTime": "11:29",
    "vehicleType": "泉北コミュニティバス(車椅子・ベビーカー・ノンステップ)",
    "updateTime": "2026/07/23 11:31"
  },
  {
    "vehicleNum": "071607",
    "vehicleCd": "414",
    "vehicleCorpCd": "1",
    "running": true,
    "lat": 34.574278,
    "lon": 135.483583,
    "route": "堺駅前→大小路→堺東駅前",
    "stop": "熊野小学校前",
    "passTime": "11:27",
    "vehicleType": "堺シャトル(車椅子・ベビーカー・ノンステップ)",
    "updateTime": "2026/07/23 11:31"
  },
  {
    "vehicleNum": "072502",
    "vehicleCd": "331",
    "vehicleCorpCd": "1",
    "running": true,
    "lat": 34.574389,
    "lon": 135.482389,
    "route": "堺東駅前→大小路→堺駅前",
    "stop": "堺市役所前",
    "passTime": "11:30",
    "vehicleType": "南海バス(車椅子・ベビーカー・ノンステップ)",
    "updateTime": "2026/07/23 11:31"
  },
  {
    "vehicleNum": "080020",
    "vehicleCd": "374",
    "vehicleCorpCd": "1",
    "running": true,
    "lat": 34.497278,
    "lon": 135.5105,
    "route": "金剛駅前→泉ヶ丘駅→近大キャンパス前→金剛駅前",
    "stop": "泉ヶ丘駅（北側）",
    "passTime": "11:30",
    "vehicleType": "南海バス(車椅子・ベビーカー・ワンステップ)",
    "updateTime": "2026/07/23 11:31"
  },
  {
    "vehicleNum": "080146",
    "vehicleCd": "6",
    "vehicleCorpCd": "2",
    "running": true,
    "lat": 34.408472,
    "lon": 135.369278,
    "route": "熊取ニュータウン→熊取駅前→上瓦屋町→泉佐野駅前（フリー乗降）",
    "stop": "熊取ニュータウン",
    "passTime": "11:30",
    "vehicleType": "南海ウイングバス(車椅子・ワンステップ)",
    "updateTime": "2026/07/23 11:31"
  },
  {
    "vehicleNum": "080171",
    "vehicleCd": "40",
    "vehicleCorpCd": "2",
    "running": true,
    "lat": 34.448694,
    "lon": 135.385694,
    "route": "塔原→上古城→岸和田駅前",
    "stop": "東岸和田駅前",
    "passTime": "11:30",
    "vehicleType": "南海ウイングバス(車椅子・ベビーカー・ワンステップ)",
    "updateTime": "2026/07/23 11:31"
  },
  {
    "vehicleNum": "080482",
    "vehicleCd": "156",
    "vehicleCorpCd": "1",
    "running": true,
    "lat": 34.533389,
    "lon": 135.463278,
    "route": "石津川駅前→浜寺公園駅前通→鳳駅前→堺市立総合医療センター前",
    "stop": "西区役所前",
    "passTime": "11:29",
    "vehicleType": "南海バス(車椅子・ベビーカー・ノンステップ)",
    "updateTime": "2026/07/23 11:31"
  },
  {
    "vehicleNum": "080594",
    "vehicleCd": "437",
    "vehicleCorpCd": "1",
    "running": true,
    "lat": 34.566194,
    "lon": 135.515389,
    "route": "美原区役所→野遠→地下鉄新金岡駅前",
    "stop": "北区役所前",
    "passTime": "11:29",
    "vehicleType": "南海バス(車椅子・ベビーカー・ノンステップ)",
    "updateTime": "2026/07/23 11:31"
  },
  {
    "vehicleNum": "080627",
    "vehicleCd": "446",
    "vehicleCorpCd": "1",
    "running": true,
    "lat": 34.5475,
    "lon": 135.560694,
    "route": "北野田駅前→多治井北（循環）→北野田駅前",
    "stop": "黒姫山古墳前",
    "passTime": "11:27",
    "vehicleType": "南海バス(車椅子・ベビーカー・ノンステップ)",
    "updateTime": "2026/07/23 11:31"
  },
  {
    "vehicleNum": "080639",
    "vehicleCd": "132",
    "vehicleCorpCd": "2",
    "running": true,
    "lat": 34.403389,
    "lon": 135.345389,
    "route": "つばさが丘北口→大阪体育大学前→熊取駅前→ダンバラ公園前→泉佐野駅前",
    "stop": "大久保",
    "passTime": "11:29",
    "vehicleType": "南海ウイングバス(車椅子・ベビーカー・ノンステップ)",
    "updateTime": "2026/07/23 11:31"
  },
  {
    "vehicleNum": "080670",
    "vehicleCd": "507",
    "vehicleCorpCd": "1",
    "running": true,
    "lat": 34.576889,
    "lon": 135.494694,
    "route": "海浜匠町→匠町→堺駅西口→堺東駅前→阪和堺市駅前",
    "stop": "田出井町",
    "passTime": "11:30",
    "vehicleType": "南海バス(車椅子・ベビーカー・ノンステップ)",
    "updateTime": "2026/07/23 11:31"
  },
  {
    "vehicleNum": "080652",
    "vehicleCd": "456",
    "vehicleCorpCd": "1",
    "running": true,
    "lat": 34.558389,
    "lon": 135.539889,
    "route": "地下鉄新金岡駅前→野遠→北野田駅前",
    "stop": "八下中学校前",
    "passTime": "11:28",
    "vehicleType": "南海バス",
    "updateTime": "2026/07/23 11:31"
  },
  {
    "vehicleNum": "080644",
    "vehicleCd": "452",
    "vehicleCorpCd": "1",
    "running": true,
    "lat": 34.567583,
    "lon": 135.502194,
    "route": "地下鉄新金岡駅前→労災病院前→近畿中央呼吸器センター前→堺駅南口",
    "stop": "黒土町",
    "passTime": "11:30",
    "vehicleType": "南海バス(車椅子・ベビーカー・ノンステップ)",
    "updateTime": "2026/07/23 11:31"
  },
  {
    "vehicleNum": "080676",
    "vehicleCd": "158",
    "vehicleCorpCd": "1",
    "running": true,
    "lat": 34.542778,
    "lon": 135.5265,
    "route": "美原区役所→初芝駅前→美原区役所",
    "stop": "初芝駅前",
    "passTime": "11:31",
    "vehicleType": "南海バス",
    "updateTime": "2026/07/23 11:31"
  },
  {
    "vehicleNum": "080703",
    "vehicleCd": "219",
    "vehicleCorpCd": "1",
    "running": true,
    "lat": 34.574889,
    "lon": 135.551278,
    "route": "堺駅前→堺東駅前→河内松原駅前",
    "stop": "高見の里駅前",
    "passTime": "11:28",
    "vehicleType": "南海バス(車椅子・ベビーカー・ノンステップ)",
    "updateTime": "2026/07/23 11:31"
  },
  {
    "vehicleNum": "080705",
    "vehicleCd": "542",
    "vehicleCorpCd": "1",
    "running": true,
    "lat": 34.583,
    "lon": 135.514778,
    "route": "河内天美駅前→天美我堂→堺東駅前",
    "stop": "地下鉄北花田駅前",
    "passTime": "11:30",
    "vehicleType": "南海バス(車椅子・ベビーカー・ノンステップ)",
    "updateTime": "2026/07/23 11:31"
  },
  {
    "vehicleNum": "080707",
    "vehicleCd": "544",
    "vehicleCorpCd": "1",
    "running": true,
    "lat": 34.563389,
    "lon": 135.518889,
    "route": "堺東駅前→労災病院前→白鷺駅前（循環）",
    "stop": "金岡口",
    "passTime": "11:30",
    "vehicleType": "南海バス(車椅子・ベビーカー・ノンステップ)",
    "updateTime": "2026/07/23 11:31"
  },
  {
    "vehicleNum": "080710",
    "vehicleCd": "18",
    "vehicleCorpCd": "2",
    "running": true,
    "lat": 34.370694,
    "lon": 135.354889,
    "route": "泉佐野駅前→野々地蔵北→日根野駅前→犬鳴山",
    "stop": "土丸",
    "passTime": "11:31",
    "vehicleType": "南海ウイングバス(車椅子・ベビーカー・ノンステップ)",
    "updateTime": "2026/07/23 11:31"
  },
  {
    "vehicleNum": "080747",
    "vehicleCd": "161",
    "vehicleCorpCd": "1",
    "running": true,
    "lat": 34.577083,
    "lon": 135.469583,
    "route": "河内松原駅前→阪和堺市駅前→堺駅前",
    "stop": "川尻",
    "passTime": "11:30",
    "vehicleType": "南海バス(車椅子・ベビーカー・ノンステップ)",
    "updateTime": "2026/07/23 11:31"
  },
  {
    "vehicleNum": "080750",
    "vehicleCd": "103",
    "vehicleCorpCd": "1",
    "running": true,
    "lat": 34.589389,
    "lon": 135.468583,
    "route": "阪和堺市駅前→堺東駅前→堺駅西口→匠町→海浜匠町",
    "stop": "三宝",
    "passTime": "11:29",
    "vehicleType": "南海バス(車椅子・ベビーカー・ノンステップ)",
    "updateTime": "2026/07/23 11:31"
  },
  {
    "vehicleNum": "080755",
    "vehicleCd": "170",
    "vehicleCorpCd": "1",
    "running": true,
    "lat": 34.498278,
    "lon": 135.571,
    "route": "金剛駅前→向陽・藤沢回り→金剛駅前",
    "stop": "公園前",
    "passTime": "11:30",
    "vehicleType": "南海バス(車椅子・ベビーカー・ノンステップ)",
    "updateTime": "2026/07/23 11:31"
  },
  {
    "vehicleNum": "080758",
    "vehicleCd": "511",
    "vehicleCorpCd": "1",
    "running": true,
    "lat": 34.487583,
    "lon": 135.512694,
    "route": "泉ヶ丘駅→若松台左回り→泉ヶ丘駅",
    "stop": "若松台中学校前",
    "passTime": "11:30",
    "vehicleType": "南海バス(車椅子・ベビーカー・ノンステップ)",
    "updateTime": "2026/07/23 11:31"
  },
  {
    "vehicleNum": "080757",
    "vehicleCd": "182",
    "vehicleCorpCd": "1",
    "running": true,
    "lat": 34.484194,
    "lon": 135.538083,
    "route": "泉ヶ丘駅→狭山ニュータウンセンター→金剛駅前",
    "stop": "大野台六丁目",
    "passTime": "11:30",
    "vehicleType": "南海バス(車椅子・ベビーカー・ノンステップ)",
    "updateTime": "2026/07/23 11:31"
  },
  {
    "vehicleNum": "080763",
    "vehicleCd": "562",
    "vehicleCorpCd": "1",
    "running": true,
    "lat": 34.520583,
    "lon": 135.482389,
    "route": "中もず駅前→北条→深井駅→中老人福祉センター",
    "stop": "小阪西町",
    "passTime": "11:29",
    "vehicleType": "南海バス(車椅子・ベビーカー・ノンステップ)",
    "updateTime": "2026/07/23 11:31"
  },
  {
    "vehicleNum": "080762",
    "vehicleCd": "561",
    "vehicleCorpCd": "1",
    "running": true,
    "lat": 34.538194,
    "lon": 135.560694,
    "route": "中もず駅前→初芝駅前→船戸下→美原区役所前",
    "stop": "船戸下",
    "passTime": "11:28",
    "vehicleType": "南海バス(車椅子・ベビーカー・ノンステップ)",
    "updateTime": "2026/07/23 11:31"
  },
  {
    "vehicleNum": "080764",
    "vehicleCd": "563",
    "vehicleCorpCd": "1",
    "running": true,
    "lat": 34.536194,
    "lon": 135.5565,
    "route": "初芝駅前→平尾→初芝駅前",
    "stop": "船戸下",
    "passTime": "11:29",
    "vehicleType": "南海バス(車椅子・ベビーカー・ノンステップ)",
    "updateTime": "2026/07/23 11:31"
  },
  {
    "vehicleNum": "080765",
    "vehicleCd": "564",
    "vehicleCorpCd": "1",
    "running": true,
    "lat": 34.498194,
    "lon": 135.510778,
    "route": "深井駅→田園→泉ヶ丘駅",
    "stop": "三原台北",
    "passTime": "11:27",
    "vehicleType": "南海バス(車椅子・ベビーカー・ノンステップ)",
    "updateTime": "2026/07/23 11:31"
  },
  {
    "vehicleNum": "080767",
    "vehicleCd": "566",
    "vehicleCorpCd": "1",
    "running": true,
    "lat": 34.522583,
    "lon": 135.534,
    "route": "鳳駅前→小阪→深井駅→北野田駅前",
    "stop": "伊勢道",
    "passTime": "11:30",
    "vehicleType": "南海バス(車椅子・ベビーカー・ノンステップ)",
    "updateTime": "2026/07/23 11:31"
  },
  {
    "vehicleNum": "080787",
    "vehicleCd": "301",
    "vehicleCorpCd": "1",
    "running": true,
    "lat": 34.574889,
    "lon": 135.539889,
    "route": "河内松原駅前→蔵前町→イオンモール堺北花田",
    "stop": "布忍駅筋",
    "passTime": "11:31",
    "vehicleType": "南海バス(車椅子・ベビーカー・ノンステップ)",
    "updateTime": "2026/07/23 11:31"
  },
  {
    "vehicleNum": "080789",
    "vehicleCd": "300",
    "vehicleCorpCd": "1",
    "running": true,
    "lat": 34.59,
    "lon": 135.479083,
    "route": "堺駅西口→錦綾町→堺東駅前",
    "stop": "内川橋",
    "passTime": "11:30",
    "vehicleType": "南海バス(車椅子・ベビーカー・ノンステップ)",
    "updateTime": "2026/07/23 11:31"
  },
  {
    "vehicleNum": "080793",
    "vehicleCd": "112",
    "vehicleCorpCd": "1",
    "running": true,
    "lat": 34.567389,
    "lon": 135.5055,
    "route": "堺東駅前→労災病院前→白鷺駅前（循環）",
    "stop": "金岡公園前",
    "passTime": "11:30",
    "vehicleType": "南海バス(車椅子・ベビーカー・ノンステップ)",
    "updateTime": "2026/07/23 11:31"
  },
  {
    "vehicleNum": "080791",
    "vehicleCd": "61",
    "vehicleCorpCd": "1",
    "running": true,
    "lat": 34.5745,
    "lon": 135.482194,
    "route": "堺駅南口→堺駅前",
    "stop": "一条通",
    "passTime": "11:33",
    "vehicleType": "南海バス(車椅子・ベビーカー・ノンステップ)",
    "updateTime": "2026/07/23 11:31"
  },
  {
    "vehicleNum": "080795",
    "vehicleCd": "43",
    "vehicleCorpCd": "1",
    "running": true,
    "lat": 34.576278,
    "lon": 135.471389,
    "route": "堺駅前→堺東駅前→河内松原駅前",
    "stop": "宿院",
    "passTime": "11:29",
    "vehicleType": "南海バス(車椅子・ベビーカー・ノンステップ)",
    "updateTime": "2026/07/23 11:31"
  },
  {
    "vehicleNum": "080796",
    "vehicleCd": "108",
    "vehicleCorpCd": "1",
    "running": true,
    "lat": 34.577194,
    "lon": 135.4695,
    "route": "阪和堺市駅前→労災病院前→近畿中央呼吸器センター前→堺駅南口",
    "stop": "川尻",
    "passTime": "11:30",
    "vehicleType": "南海バス(車椅子・ベビーカー・ノンステップ)",
    "updateTime": "2026/07/23 11:31"
  },
  {
    "vehicleNum": "080806",
    "vehicleCd": "307",
    "vehicleCorpCd": "1",
    "running": true,
    "lat": 34.593194,
    "lon": 135.469083,
    "route": "堺東→住之江公園→堺東",
    "stop": "海山通４丁",
    "passTime": "11:27",
    "vehicleType": "南海バス(車椅子・ベビーカー・ノンステップ)",
    "updateTime": "2026/07/23 11:31"
  },
  {
    "vehicleNum": "080807",
    "vehicleCd": "223",
    "vehicleCorpCd": "1",
    "running": true,
    "lat": 34.576889,
    "lon": 135.496194,
    "route": "堺東駅前→河内松原駅前",
    "stop": "阪和堺市駅前",
    "passTime": "11:28",
    "vehicleType": "南海バス(車椅子・ベビーカー・ノンステップ)",
    "updateTime": "2026/07/23 11:31"
  },
  {
    "vehicleNum": "080809",
    "vehicleCd": "215",
    "vehicleCorpCd": "1",
    "running": true,
    "lat": 34.577278,
    "lon": 135.489278,
    "route": "河内松原駅前→阪和堺市駅前→堺駅前",
    "stop": "方違神社前",
    "passTime": "11:30",
    "vehicleType": "南海バス(車椅子・ベビーカー・ノンステップ)",
    "updateTime": "2026/07/23 11:31"
  },
  {
    "vehicleNum": "080814",
    "vehicleCd": "193",
    "vehicleCorpCd": "1",
    "running": true,
    "lat": 34.502389,
    "lon": 135.4915,
    "route": "泉ヶ丘駅→泉北２号線→堺市立総合医療センター前→津久野駅前",
    "stop": "宮山台小学校前",
    "passTime": "11:30",
    "vehicleType": "南海バス(車椅子・ベビーカー・ノンステップ)",
    "updateTime": "2026/07/23 11:31"
  },
  {
    "vehicleNum": "080822",
    "vehicleCd": "576",
    "vehicleCorpCd": "1",
    "running": true,
    "lat": 34.550278,
    "lon": 135.4785,
    "route": "堺東駅前→上野芝駅前→東山車庫前",
    "stop": "南陵通４丁",
    "passTime": "11:29",
    "vehicleType": "南海バス(車椅子・ベビーカー・ノンステップ)",
    "updateTime": "2026/07/23 11:31"
  },
  {
    "vehicleNum": "080815",
    "vehicleCd": "575",
    "vehicleCorpCd": "1",
    "running": true,
    "lat": 34.538583,
    "lon": 135.470694,
    "route": "泉ヶ丘駅→八田荘団地→堺市立総合医療センター前→津久野駅前",
    "stop": "文珠前",
    "passTime": "11:28",
    "vehicleType": "南海バス(車椅子・ベビーカー・ノンステップ)",
    "updateTime": "2026/07/23 11:31"
  },
  {
    "vehicleNum": "080827",
    "vehicleCd": "317",
    "vehicleCorpCd": "1",
    "running": true,
    "lat": 34.577389,
    "lon": 135.497889,
    "route": "地下鉄北花田駅前→蔵前西→ＪＲ堺市駅前→地下鉄北花田駅前",
    "stop": "阪和堺市駅前",
    "passTime": "11:30",
    "vehicleType": "南海バス(車椅子・ベビーカー・ノンステップ)",
    "updateTime": "2026/07/23 11:31"
  },
  {
    "vehicleNum": "080837",
    "vehicleCd": "351",
    "vehicleCorpCd": "1",
    "running": true,
    "lat": 34.508583,
    "lon": 135.494472,
    "route": "堺東駅前→上野芝→泉ヶ丘駅",
    "stop": "宮山台３丁",
    "passTime": "11:31",
    "vehicleType": "南海バス(車椅子・ベビーカー・ノンステップ)",
    "updateTime": "2026/07/23 11:31"
  },
  {
    "vehicleNum": "080844",
    "vehicleCd": "581",
    "vehicleCorpCd": "1",
    "running": true,
    "lat": 34.506278,
    "lon": 135.578889,
    "route": "金剛駅前→向陽・藤沢回り→金剛駅前",
    "stop": "向陽台３丁目",
    "passTime": "11:30",
    "vehicleType": "南海バス(車椅子・ベビーカー・ノンステップ)",
    "updateTime": "2026/07/23 11:31"
  },
  {
    "vehicleNum": "080836",
    "vehicleCd": "268",
    "vehicleCorpCd": "1",
    "running": true,
    "lat": 34.575194,
    "lon": 135.526,
    "route": "河内松原駅前→阪和堺市駅前→堺東駅前",
    "stop": "南花田町東",
    "passTime": "11:30",
    "vehicleType": "南海バス(車椅子・ベビーカー・ノンステップ)",
    "updateTime": "2026/07/23 11:31"
  },
  {
    "vehicleNum": "080845",
    "vehicleCd": "319",
    "vehicleCorpCd": "1",
    "running": true,
    "lat": 34.569889,
    "lon": 135.480889,
    "route": "泉ヶ丘駅→宮山台中学校前→堺東駅前",
    "stop": "一条通",
    "passTime": "11:30",
    "vehicleType": "南海バス(車椅子・ベビーカー・ノンステップ)",
    "updateTime": "2026/07/23 11:31"
  },
  {
    "vehicleNum": "080850",
    "vehicleCd": "24",
    "vehicleCorpCd": "1",
    "running": true,
    "lat": 34.502889,
    "lon": 135.518694,
    "route": "泉ヶ丘駅→三原台左回り→泉ヶ丘駅",
    "stop": "三原台小学校前",
    "passTime": "11:30",
    "vehicleType": "南海バス(車椅子・ベビーカー・ノンステップ)",
    "updateTime": "2026/07/23 11:31"
  },
  {
    "vehicleNum": "080852",
    "vehicleCd": "584",
    "vehicleCorpCd": "1",
    "running": true,
    "lat": 34.494972,
    "lon": 135.560389,
    "route": "金剛駅前→寺池台小学校前→金剛駅前",
    "stop": "久野喜台二丁目",
    "passTime": "11:30",
    "vehicleType": "南海バス(車椅子・ベビーカー・ノンステップ)",
    "updateTime": "2026/07/23 11:31"
  },
  {
    "vehicleNum": "080855",
    "vehicleCd": "16",
    "vehicleCorpCd": "1",
    "running": true,
    "lat": 34.484694,
    "lon": 135.4915,
    "route": "泉ヶ丘駅→御池台回り→泉ヶ丘駅",
    "stop": "栂・美木多駅",
    "passTime": "11:31",
    "vehicleType": "南海バス(車椅子・ベビーカー・ノンステップ)",
    "updateTime": "2026/07/23 11:31"
  },
  {
    "vehicleNum": "080857",
    "vehicleCd": "226",
    "vehicleCorpCd": "1",
    "running": true,
    "lat": 34.582778,
    "lon": 135.516083,
    "route": "堺東駅前→錦綾町→河内天美駅前",
    "stop": "地下鉄北花田駅前",
    "passTime": "11:27",
    "vehicleType": "南海バス(車椅子・ベビーカー・ノンステップ)",
    "updateTime": "2026/07/23 11:31"
  },
  {
    "vehicleNum": "080858",
    "vehicleCd": "225",
    "vehicleCorpCd": "1",
    "running": true,
    "lat": 34.572889,
    "lon": 135.476778,
    "route": "堺駅南口→近畿中央呼吸器センター前→労災病院前→地下鉄新金岡駅前",
    "stop": "安井町",
    "passTime": "11:31",
    "vehicleType": "南海バス(車椅子・ベビーカー・ノンステップ)",
    "updateTime": "2026/07/23 11:31"
  },
  {
    "vehicleNum": "080859",
    "vehicleCd": "227",
    "vehicleCorpCd": "1",
    "running": true,
    "lat": 34.595083,
    "lon": 135.461889,
    "route": "海浜匠町→匠町→堺駅西口",
    "stop": "塩浜町",
    "passTime": "11:31",
    "vehicleType": "南海バス(車椅子・ベビーカー・ノンステップ)",
    "updateTime": "2026/07/23 11:31"
  },
  {
    "vehicleNum": "080863",
    "vehicleCd": "249",
    "vehicleCorpCd": "1",
    "running": true,
    "lat": 34.562278,
    "lon": 135.4745,
    "route": "堺駅前→堺駅南口",
    "stop": "旭ヶ丘北町",
    "passTime": "11:30",
    "vehicleType": "南海バス(車椅子・ベビーカー・ノンステップ)",
    "updateTime": "2026/07/23 11:31"
  },
  {
    "vehicleNum": "080865",
    "vehicleCd": "504",
    "vehicleCorpCd": "1",
    "running": true,
    "lat": 34.565278,
    "lon": 135.514778,
    "route": "堺駅南口→近畿中央呼吸器センター前→労災病院前→阪和堺市駅前",
    "stop": "北堺警察署前",
    "passTime": "11:30",
    "vehicleType": "南海バス(車椅子・ベビーカー・ノンステップ)",
    "updateTime": "2026/07/23 11:31"
  },
  {
    "vehicleNum": "080866",
    "vehicleCd": "497",
    "vehicleCorpCd": "1",
    "running": true,
    "lat": 34.500778,
    "lon": 135.580778,
    "route": "金剛駅前→高辺台小学校前→金剛駅前",
    "stop": "小金台２丁目東",
    "passTime": "11:29",
    "vehicleType": "南海バス(車椅子・ベビーカー・ノンステップ)",
    "updateTime": "2026/07/23 11:31"
  },
  {
    "vehicleNum": "080867",
    "vehicleCd": "364",
    "vehicleCorpCd": "1",
    "running": true,
    "lat": 34.485083,
    "lon": 135.524889,
    "route": "泉ヶ丘駅→晴美台右回り→泉ヶ丘駅",
    "stop": "槙塚台１丁",
    "passTime": "11:30",
    "vehicleType": "南海バス(車椅子・ベビーカー・ノンステップ)",
    "updateTime": "2026/07/23 11:31"
  },
  {
    "vehicleNum": "080869",
    "vehicleCd": "316",
    "vehicleCorpCd": "1",
    "running": true,
    "lat": 34.473278,
    "lon": 135.509583,
    "route": "泉ヶ丘駅→鉢ヶ峯→泉ヶ丘駅",
    "stop": "泉田中南",
    "passTime": "11:30",
    "vehicleType": "南海バス(車椅子・ベビーカー・ノンステップ)",
    "updateTime": "2026/07/23 11:31"
  },
  {
    "vehicleNum": "080873",
    "vehicleCd": "144",
    "vehicleCorpCd": "1",
    "running": true,
    "lat": 34.496083,
    "lon": 135.530583,
    "route": "泉ヶ丘駅→帝塚山学院泉ヶ丘校前→金剛駅前",
    "stop": "晴美台１丁",
    "passTime": "11:29",
    "vehicleType": "南海バス(車椅子・ベビーカー・ノンステップ)",
    "updateTime": "2026/07/23 11:31"
  },
  {
    "vehicleNum": "080878",
    "vehicleCd": "368",
    "vehicleCorpCd": "1",
    "running": true,
    "lat": 34.570583,
    "lon": 135.481194,
    "route": "堺駅南口→福町→北野田駅前",
    "stop": "一条通",
    "passTime": "11:29",
    "vehicleType": "南海バス(車椅子・ベビーカー・ノンステップ)",
    "updateTime": "2026/07/23 11:31"
  },
  {
    "vehicleNum": "080877",
    "vehicleCd": "588",
    "vehicleCorpCd": "1",
    "running": true,
    "lat": 34.537194,
    "lon": 135.515972,
    "route": "堺駅南口→三国ヶ丘駅前→北野田駅前",
    "stop": "大野芝",
    "passTime": "11:31",
    "vehicleType": "南海バス(車椅子・ベビーカー・ノンステップ)",
    "updateTime": "2026/07/23 11:31"
  },
  {
    "vehicleNum": "080882",
    "vehicleCd": "343",
    "vehicleCorpCd": "1",
    "running": true,
    "lat": 34.487,
    "lon": 135.519083,
    "route": "泉ヶ丘駅→槙塚台右回り→泉ヶ丘駅",
    "stop": "茶山台３丁",
    "passTime": "11:30",
    "vehicleType": "南海バス(車椅子・ベビーカー・ノンステップ)",
    "updateTime": "2026/07/23 11:31"
  },
  {
    "vehicleNum": "080883",
    "vehicleCd": "361",
    "vehicleCorpCd": "1",
    "running": true,
    "lat": 34.539083,
    "lon": 135.470583,
    "route": "津久野駅前→堺市立総合医療センター前→泉北２号線→泉ヶ丘駅",
    "stop": "堺市立総合医療センター前",
    "passTime": "11:31",
    "vehicleType": "南海バス(車椅子・ベビーカー・ノンステップ)",
    "updateTime": "2026/07/23 11:31"
  },
  {
    "vehicleNum": "080894",
    "vehicleCd": "350",
    "vehicleCorpCd": "1",
    "running": true,
    "lat": 34.564,
    "lon": 135.518194,
    "route": "地下鉄新金岡駅前→野遠→美原区役所",
    "stop": "金岡口",
    "passTime": "11:30",
    "vehicleType": "南海バス(車椅子・ベビーカー・ノンステップ)",
    "updateTime": "2026/07/23 11:31"
  },
  {
    "vehicleNum": "080895",
    "vehicleCd": "167",
    "vehicleCorpCd": "1",
    "running": true,
    "lat": 34.548,
    "lon": 135.542,
    "route": "北野田駅前→菩提→地下鉄新金岡駅前",
    "stop": "菩提",
    "passTime": "11:30",
    "vehicleType": "南海バス(車椅子・ベビーカー・ノンステップ)",
    "updateTime": "2026/07/23 11:31"
  },
  {
    "vehicleNum": "080905",
    "vehicleCd": "353",
    "vehicleCorpCd": "1",
    "running": true,
    "lat": 34.5205,
    "lon": 135.489194,
    "route": "津久野駅前→堺市立総合医療センター前→八田荘団地→泉ヶ丘駅",
    "stop": "小阪",
    "passTime": "11:30",
    "vehicleType": "南海バス(車椅子・ベビーカー・ノンステップ)",
    "updateTime": "2026/07/23 11:31"
  },
  {
    "vehicleNum": "080912",
    "vehicleCd": "372",
    "vehicleCorpCd": "1",
    "running": true,
    "lat": 34.567694,
    "lon": 135.492278,
    "route": "堺東駅前→労災病院前→白鷺駅前（循環）",
    "stop": "細池橋",
    "passTime": "11:31",
    "vehicleType": "南海バス(車椅子・ベビーカー・ノンステップ)",
    "updateTime": "2026/07/23 11:31"
  },
  {
    "vehicleNum": "080913",
    "vehicleCd": "128",
    "vehicleCorpCd": "1",
    "running": true,
    "lat": 34.550083,
    "lon": 135.518583,
    "route": "美原区役所前→船戸下→初芝駅前→中もず駅前",
    "stop": "引野",
    "passTime": "11:29",
    "vehicleType": "南海バス(車椅子・ベビーカー・ノンステップ)",
    "updateTime": "2026/07/23 11:31"
  },
  {
    "vehicleNum": "080920",
    "vehicleCd": "327",
    "vehicleCorpCd": "1",
    "running": true,
    "lat": 34.469694,
    "lon": 135.498694,
    "route": "泉ヶ丘駅→庭代台右回り→泉ヶ丘駅",
    "stop": "庭代台２丁",
    "passTime": "11:31",
    "vehicleType": "南海バス(車椅子・ベビーカー・ノンステップ)",
    "updateTime": "2026/07/23 11:31"
  },
  {
    "vehicleNum": "080927",
    "vehicleCd": "79",
    "vehicleCorpCd": "1",
    "running": true,
    "lat": 34.470778,
    "lon": 135.494,
    "route": "泉ヶ丘駅→御池台回り→泉ヶ丘駅",
    "stop": "庭代台１丁",
    "passTime": "11:31",
    "vehicleType": "南海バス(車椅子・ベビーカー・ノンステップ)",
    "updateTime": "2026/07/23 11:31"
  },
  {
    "vehicleNum": "080936",
    "vehicleCd": "22",
    "vehicleCorpCd": "1",
    "running": true,
    "lat": 34.480278,
    "lon": 135.495694,
    "route": "栂・美木多駅→原山台回り→栂・美木多駅",
    "stop": "原山台５丁西",
    "passTime": "11:30",
    "vehicleType": "南海バス(車椅子・ベビーカー・ノンステップ)",
    "updateTime": "2026/07/23 11:31"
  },
  {
    "vehicleNum": "080937",
    "vehicleCd": "595",
    "vehicleCorpCd": "1",
    "running": true,
    "lat": 34.526889,
    "lon": 135.505278,
    "route": "北野田駅前→福町→深井駅",
    "stop": "畑山",
    "passTime": "11:31",
    "vehicleType": "南海バス(車椅子・ベビーカー・ノンステップ)",
    "updateTime": "2026/07/23 11:31"
  },
  {
    "vehicleNum": "080977",
    "vehicleCd": "388",
    "vehicleCorpCd": "1",
    "running": true,
    "lat": 34.564389,
    "lon": 135.476472,
    "route": "堺東駅前→堀上緑町１丁→堺東駅前",
    "stop": "賑町",
    "passTime": "11:30",
    "vehicleType": "南海バス(車椅子・ベビーカー・ノンステップ)",
    "updateTime": "2026/07/23 11:31"
  },
  {
    "vehicleNum": "080978",
    "vehicleCd": "431",
    "vehicleCorpCd": "1",
    "running": true,
    "lat": 34.577389,
    "lon": 135.469194,
    "route": "北野田駅前→福町→堺駅南口",
    "stop": "川尻",
    "passTime": "11:29",
    "vehicleType": "南海バス(車椅子・ベビーカー・ノンステップ)",
    "updateTime": "2026/07/23 11:31"
  },
  {
    "vehicleNum": "080989",
    "vehicleCd": "259",
    "vehicleCorpCd": "1",
    "running": true,
    "lat": 34.563889,
    "lon": 135.465889,
    "route": "堺東駅前→鳳西町南",
    "stop": "東湊５丁",
    "passTime": "11:30",
    "vehicleType": "南海バス(車椅子・ベビーカー・ノンステップ)",
    "updateTime": "2026/07/23 11:31"
  },
  {
    "vehicleNum": "080994",
    "vehicleCd": "130",
    "vehicleCorpCd": "1",
    "running": true,
    "lat": 34.497583,
    "lon": 135.52,
    "route": "泉ヶ丘駅→スマ・エコタウン晴美台→高倉台左回り→泉ヶ丘駅",
    "stop": "三原台１丁",
    "passTime": "11:31",
    "vehicleType": "南海バス(車椅子・ベビーカー・ノンステップ)",
    "updateTime": "2026/07/23 11:31"
  },
  {
    "vehicleNum": "080996",
    "vehicleCd": "191",
    "vehicleCorpCd": "1",
    "running": true,
    "lat": 34.527389,
    "lon": 135.488389,
    "route": "東山車庫前→小阪→堺東駅前",
    "stop": "八田荘団地",
    "passTime": "11:31",
    "vehicleType": "南海バス(車椅子・ベビーカー・ノンステップ)",
    "updateTime": "2026/07/23 11:31"
  },
  {
    "vehicleNum": "080995",
    "vehicleCd": "118",
    "vehicleCorpCd": "1",
    "running": true,
    "lat": 34.493889,
    "lon": 135.531278,
    "route": "泉ヶ丘駅→晴美台右回り→泉ヶ丘駅",
    "stop": "晴美台センター",
    "passTime": "11:31",
    "vehicleType": "南海バス(車椅子・ベビーカー・ノンステップ)",
    "updateTime": "2026/07/23 11:31"
  },
  {
    "vehicleNum": "081001",
    "vehicleCd": "238",
    "vehicleCorpCd": "1",
    "running": true,
    "lat": 34.530194,
    "lon": 135.499778,
    "route": "堺東駅前→もず駅前→深井駅→あみだ池",
    "stop": "深井水池町",
    "passTime": "11:28",
    "vehicleType": "南海バス(車椅子・ベビーカー・ノンステップ)",
    "updateTime": "2026/07/23 11:31"
  },
  {
    "vehicleNum": "081005",
    "vehicleCd": "272",
    "vehicleCorpCd": "1",
    "running": true,
    "lat": 34.571194,
    "lon": 135.482083,
    "route": "堺東駅前→上野芝駅前→東山車庫前",
    "stop": "堺東駅前",
    "passTime": "11:30",
    "vehicleType": "南海バス(車椅子・ベビーカー・ノンステップ)",
    "updateTime": "2026/07/23 11:31"
  },
  {
    "vehicleNum": "081013",
    "vehicleCd": "554",
    "vehicleCorpCd": "1",
    "running": true,
    "lat": 34.560472,
    "lon": 135.494083,
    "route": "北野田駅前→西口園→堺駅南口",
    "stop": "梅北町",
    "passTime": "11:30",
    "vehicleType": "南海バス(車椅子・ベビーカー・ノンステップ)",
    "updateTime": "2026/07/23 11:31"
  },
  {
    "vehicleNum": "081016",
    "vehicleCd": "239",
    "vehicleCorpCd": "1",
    "running": true,
    "lat": 34.495278,
    "lon": 135.517889,
    "route": "泉ヶ丘駅→ハーベストの丘",
    "stop": "泉ヶ丘駅（南側）",
    "passTime": "11:30",
    "vehicleType": "南海バス(車椅子・ベビーカー・ノンステップ)",
    "updateTime": "2026/07/23 11:31"
  },
  {
    "vehicleNum": "081015",
    "vehicleCd": "136",
    "vehicleCorpCd": "1",
    "running": true,
    "lat": 34.529,
    "lon": 135.5235,
    "route": "北野田駅前→福町→堺駅南口",
    "stop": "中茶屋",
    "passTime": "11:30",
    "vehicleType": "南海バス(車椅子・ベビーカー・ノンステップ)",
    "updateTime": "2026/07/23 11:31"
  },
  {
    "vehicleNum": "081018",
    "vehicleCd": "263",
    "vehicleCorpCd": "1",
    "running": true,
    "lat": 34.525778,
    "lon": 135.479583,
    "route": "津久野駅前→鈴の宮団地センター→深井駅",
    "stop": "鈴の宮団地東口",
    "passTime": "11:31",
    "vehicleType": "南海バス(車椅子・ベビーカー・ノンステップ)",
    "updateTime": "2026/07/23 11:31"
  },
  {
    "vehicleNum": "081019",
    "vehicleCd": "267",
    "vehicleCorpCd": "1",
    "running": true,
    "lat": 34.534889,
    "lon": 135.506194,
    "route": "あみだ池→深井駅→もず駅前→堺東駅前",
    "stop": "土塔",
    "passTime": "11:29",
    "vehicleType": "南海バス(車椅子・ベビーカー・ノンステップ)",
    "updateTime": "2026/07/23 11:31"
  },
  {
    "vehicleNum": "081020",
    "vehicleCd": "163",
    "vehicleCorpCd": "1",
    "running": true,
    "lat": 34.521389,
    "lon": 135.525583,
    "route": "深井駅→東山車庫前→北野田駅前",
    "stop": "福田中",
    "passTime": "11:28",
    "vehicleType": "南海バス(車椅子・ベビーカー・ノンステップ)",
    "updateTime": "2026/07/23 11:31"
  },
  {
    "vehicleNum": "081037",
    "vehicleCd": "236",
    "vehicleCorpCd": "1",
    "running": true,
    "lat": 34.4955,
    "lon": 135.5175,
    "route": "金剛駅前→帝塚山学院泉ヶ丘校前→泉ヶ丘駅前",
    "stop": "茶山台２丁",
    "passTime": "11:30",
    "vehicleType": "南海バス(車椅子・ベビーカー・ノンステップ)",
    "updateTime": "2026/07/23 11:31"
  },
  {
    "vehicleNum": "081045",
    "vehicleCd": "188",
    "vehicleCorpCd": "1",
    "running": true,
    "lat": 34.528,
    "lon": 135.471194,
    "route": "深井駅→鈴の宮団地→堺市立総合医療センター前→津久野駅前",
    "stop": "毛穴なかよし橋",
    "passTime": "11:30",
    "vehicleType": "南海バス(車椅子・ベビーカー・ノンステップ)",
    "updateTime": "2026/07/23 11:31"
  },
  {
    "vehicleNum": "090104",
    "vehicleCd": "53",
    "vehicleCorpCd": "2",
    "running": true,
    "lat": 34.453,
    "lon": 135.406583,
    "route": "下松駅前→道の駅愛彩ランド",
    "stop": "桜台中学校前",
    "passTime": "11:31",
    "vehicleType": "南海ウイングバス(車椅子・ベビーカー・ワンステップ)",
    "updateTime": "2026/07/23 11:31"
  },
  {
    "vehicleNum": "090491",
    "vehicleCd": "50",
    "vehicleCorpCd": "2",
    "running": true,
    "lat": 34.460278,
    "lon": 135.378694,
    "route": "岸和田駅前→天神山・一の宮循環　右回り→岸和田駅前",
    "stop": "岸和田警察署前",
    "passTime": "11:27",
    "vehicleType": "南海ウイングバス(車椅子・ワンステップ)",
    "updateTime": "2026/07/23 11:31"
  },
  {
    "vehicleNum": "091146",
    "vehicleCd": "17",
    "vehicleCorpCd": "2",
    "running": true,
    "lat": 34.406583,
    "lon": 135.412389,
    "route": "岸和田駅前→上古城→河合→白原車庫",
    "stop": "船渡",
    "passTime": "11:31",
    "vehicleType": "南海ウイングバス(車椅子・ベビーカー・ワンステップ)",
    "updateTime": "2026/07/23 11:31"
  },
  {
    "vehicleNum": "091147",
    "vehicleCd": "255",
    "vehicleCorpCd": "1",
    "running": true,
    "lat": 34.503,
    "lon": 135.449778,
    "route": "北信太駅筋→鶴山台団地→北信太駅筋",
    "stop": "鶴山台センター",
    "passTime": "11:31",
    "vehicleType": "南海バス(車椅子・ベビーカー・ワンステップ)",
    "updateTime": "2026/07/23 11:31"
  },
  {
    "vehicleNum": "080968",
    "vehicleCd": "424",
    "vehicleCorpCd": "1",
    "running": true,
    "lat": 34.559778,
    "lon": 135.4725,
    "route": "堺東駅前→堀上緑町１丁→堺東駅前",
    "stop": "塩穴通",
    "passTime": "11:30",
    "vehicleType": "南海バス(車椅子・ベビーカー・ノンステップ)",
    "updateTime": "2026/07/23 11:31"
  },
  {
    "vehicleNum": "091444",
    "vehicleCd": "107",
    "vehicleCorpCd": "2",
    "running": true,
    "lat": 34.404194,
    "lon": 135.345083,
    "route": "泉佐野駅前→ダンバラ公園前→熊取駅前→大阪体育大学前→つばさが丘北口",
    "stop": "青年会場前",
    "passTime": "11:31",
    "vehicleType": "南海ウイングバス(車椅子・ベビーカー・ノンステップ)",
    "updateTime": "2026/07/23 11:31"
  },
  {
    "vehicleNum": "091581",
    "vehicleCd": "198",
    "vehicleCorpCd": "1",
    "running": true,
    "lat": 34.428694,
    "lon": 135.229778,
    "route": "空港駅→給油地区",
    "stop": "機内食前",
    "passTime": "11:31",
    "vehicleType": "南海バス(車椅子・ノンステップ)",
    "updateTime": "2026/07/23 11:31"
  },
  {
    "vehicleNum": "091596",
    "vehicleCd": "200",
    "vehicleCorpCd": "1",
    "running": true,
    "lat": 34.428694,
    "lon": 135.229389,
    "route": "給油地区→ＦｅｄＥｘ→空港駅",
    "stop": "機内食前",
    "passTime": "11:31",
    "vehicleType": "南海バス(車椅子・ノンステップ)",
    "updateTime": "2026/07/23 11:31"
  },
  {
    "vehicleNum": "091740",
    "vehicleCd": "105",
    "vehicleCorpCd": "2",
    "running": true,
    "lat": 34.460583,
    "lon": 135.455083,
    "route": "岸和田駅前→徳洲会病院→和泉中央駅",
    "stop": "唐国南",
    "passTime": "11:29",
    "vehicleType": "南海ウイングバス(車椅子・ベビーカー・ワンステップ)",
    "updateTime": "2026/07/23 11:31"
  },
  {
    "vehicleNum": "091746",
    "vehicleCd": "8",
    "vehicleCorpCd": "2",
    "running": true,
    "lat": 34.432083,
    "lon": 135.386278,
    "route": "岸和田駅前→天神山循環　左回り→岸和田駅前",
    "stop": "慰霊塔前",
    "passTime": "11:31",
    "vehicleType": "南海ウイングバス(車椅子・ベビーカー・ワンステップ)",
    "updateTime": "2026/07/23 11:31"
  },
  {
    "vehicleNum": "091748",
    "vehicleCd": "74",
    "vehicleCorpCd": "2",
    "running": true,
    "lat": 34.458083,
    "lon": 135.381083,
    "route": "岸和田駅前→内畑→牛滝温泉",
    "stop": "岸和田駅前",
    "passTime": "11:30",
    "vehicleType": "南海ウイングバス(車椅子・ワンステップ)",
    "updateTime": "2026/07/23 11:31"
  },
  {
    "vehicleNum": "091784",
    "vehicleCd": "119",
    "vehicleCorpCd": "2",
    "running": true,
    "lat": 34.397889,
    "lon": 135.341889,
    "route": "熊取町　青葉台方面循環コース",
    "stop": "青葉台口",
    "passTime": "11:30",
    "vehicleType": "熊取町コミュニティバス(ジャンプ君号)",
    "updateTime": "2026/07/23 11:31"
  },
  {
    "vehicleNum": "091785",
    "vehicleCd": "120",
    "vehicleCorpCd": "2",
    "running": true,
    "lat": 34.385083,
    "lon": 135.352889,
    "route": "熊取町　つばさが丘循環コース",
    "stop": "南小学校前",
    "passTime": "11:30",
    "vehicleType": "熊取町コミュニティバス(メジーナちゃん号)",
    "updateTime": "2026/07/23 11:31"
  },
  {
    "vehicleNum": "091792",
    "vehicleCd": "59",
    "vehicleCorpCd": "1",
    "running": true,
    "lat": 34.435083,
    "lon": 135.239278,
    "route": "関空展望ホール→旅客ターミナル→関空展望ホール",
    "stop": "旅客ターミナル",
    "passTime": "11:30",
    "vehicleType": "南海バス(車椅子・ノンステップ)",
    "updateTime": "2026/07/23 11:31"
  },
  {
    "vehicleNum": "091895",
    "vehicleCd": "4",
    "vehicleCorpCd": "2",
    "running": true,
    "lat": 34.367583,
    "lon": 135.270778,
    "route": "泉南市コミュニティバス 一丘Ａ回り",
    "stop": "総合福祉センター",
    "passTime": "11:30",
    "vehicleType": "泉南市コミュニティバス(ピンク)",
    "updateTime": "2026/07/23 11:31"
  },
  {
    "vehicleNum": "092044",
    "vehicleCd": "462",
    "vehicleCorpCd": "1",
    "running": true,
    "lat": 34.470694,
    "lon": 135.571278,
    "route": "ﾓｯｸﾙ 美加～木戸東町～美加",
    "stop": "大阪南医療センター前",
    "passTime": "11:31",
    "vehicleType": "南海バス(車椅子・ベビーカー・ノンステップ)",
    "updateTime": "2026/07/23 11:31"
  },
  {
    "vehicleNum": "092141",
    "vehicleCd": "527",
    "vehicleCorpCd": "1",
    "running": true,
    "lat": 34.6385,
    "lon": 135.424278,
    "route": "堺東駅前→ＡＴＣ→海遊館→堺東駅前",
    "stop": "インテックス大阪東",
    "passTime": "11:30",
    "vehicleType": "南海バス",
    "updateTime": "2026/07/23 11:31"
  },
  {
    "vehicleNum": "092153",
    "vehicleCd": "529",
    "vehicleCorpCd": "1",
    "running": true,
    "lat": 34.433889,
    "lon": 135.237194,
    "route": "エアロプラザ→第２ターミナル(国内線・国際線)→エアロプラザ",
    "stop": "第2ターミナル国際線",
    "passTime": "11:28",
    "vehicleType": "南海バス",
    "updateTime": "2026/07/23 11:31"
  },
  {
    "vehicleNum": "092234",
    "vehicleCd": "534",
    "vehicleCorpCd": "1",
    "running": true,
    "lat": 34.460889,
    "lon": 135.456278,
    "route": "和泉中央駅→テクノステージセンター前→グリーンポリス前→和泉中央駅",
    "stop": "和泉中央駅",
    "passTime": "11:30",
    "vehicleType": "南海バス(車椅子・ベビーカー・ノンステップ)",
    "updateTime": "2026/07/23 11:31"
  },
  {
    "vehicleNum": "092373",
    "vehicleCd": "553",
    "vehicleCorpCd": "1",
    "running": true,
    "lat": 34.553778,
    "lon": 135.466694,
    "route": "堺東駅前→鳳駅前→光明池駅",
    "stop": "霞ヶ丘",
    "passTime": "11:30",
    "vehicleType": "南海バス(車椅子・ベビーカー・ノンステップ)",
    "updateTime": "2026/07/23 11:31"
  },
  {
    "vehicleNum": "092394",
    "vehicleCd": "42",
    "vehicleCorpCd": "1",
    "running": true,
    "lat": 34.435194,
    "lon": 135.239694,
    "route": "エアロプラザ→第２ターミナル(国内線・国際線)→エアロプラザ",
    "stop": "エアロプラザ",
    "passTime": "11:30",
    "vehicleType": "南海バス(車椅子・ノンステップ)",
    "updateTime": "2026/07/23 11:31"
  },
  {
    "vehicleNum": "092398",
    "vehicleCd": "41",
    "vehicleCorpCd": "1",
    "running": true,
    "lat": 34.437583,
    "lon": 135.231194,
    "route": "エアロプラザ→第２ターミナル(国内線・国際線)→エアロプラザ",
    "stop": "エアロプラザ",
    "passTime": "11:25",
    "vehicleType": "南海バス(車椅子・ノンステップ)",
    "updateTime": "2026/07/23 11:31"
  },
  {
    "vehicleNum": "092454",
    "vehicleCd": "125",
    "vehicleCorpCd": "2",
    "running": true,
    "lat": 34.370583,
    "lon": 135.279778,
    "route": "泉南市コミュニティバス 岡田A回り",
    "stop": "市場大発団地前",
    "passTime": "11:31",
    "vehicleType": "泉南市コミュニティバス(橙)",
    "updateTime": "2026/07/23 11:31"
  },
  {
    "vehicleNum": "092469",
    "vehicleCd": "220",
    "vehicleCorpCd": "1",
    "running": true,
    "lat": 34.407083,
    "lon": 135.66,
    "route": "河内長野駅前→日東町東口→金剛山ﾛｰﾌﾟｳｪｲ前",
    "stop": "鱒釣場",
    "passTime": "11:29",
    "vehicleType": "南海バス(車椅子・ベビーカー・ノンステップ)",
    "updateTime": "2026/07/23 11:31"
  },
  {
    "vehicleNum": "092470",
    "vehicleCd": "105",
    "vehicleCorpCd": "1",
    "running": true,
    "lat": 34.4525,
    "lon": 135.568194,
    "route": "旭→天野山→長野",
    "stop": "西代町南",
    "passTime": "11:28",
    "vehicleType": "南海バス(車椅子・ベビーカー・ノンステップ)",
    "updateTime": "2026/07/23 11:31"
  },
  {
    "vehicleNum": "092498",
    "vehicleCd": "8",
    "vehicleCorpCd": "1",
    "running": true,
    "lat": 34.478694,
    "lon": 135.467583,
    "route": "光明池駅→山田→堺東駅前",
    "stop": "伏屋",
    "passTime": "11:30",
    "vehicleType": "南海バス(車椅子・ベビーカー・ノンステップ)",
    "updateTime": "2026/07/23 11:31"
  },
  {
    "vehicleNum": "092501",
    "vehicleCd": "139",
    "vehicleCorpCd": "2",
    "running": true,
    "lat": 34.460583,
    "lon": 135.378083,
    "route": "ローズバス　左回り",
    "stop": "市役所前",
    "passTime": "11:25",
    "vehicleType": "岸和田市コミュニティバス(ローズバス)",
    "updateTime": "2026/07/23 11:31"
  },
  {
    "vehicleNum": "092502",
    "vehicleCd": "140",
    "vehicleCorpCd": "2",
    "running": true,
    "lat": 34.445583,
    "lon": 135.401278,
    "route": "ローズバス　右回り",
    "stop": "星和上松台",
    "passTime": "11:30",
    "vehicleType": "岸和田市コミュニティバス(ローズバス)",
    "updateTime": "2026/07/23 11:31"
  },
  {
    "vehicleNum": "092569",
    "vehicleCd": "266",
    "vehicleCorpCd": "1",
    "running": true,
    "lat": 34.488972,
    "lon": 135.419,
    "route": "泉大津駅前→和泉府中駅前→和泉中央駅",
    "stop": "泉大津急性期メディカルセンター前",
    "passTime": "11:31",
    "vehicleType": "南海バス(車椅子・ベビーカー・ノンステップ)",
    "updateTime": "2026/07/23 11:31"
  },
  {
    "vehicleNum": "092578",
    "vehicleCd": "147",
    "vehicleCorpCd": "1",
    "running": true,
    "lat": 34.444083,
    "lon": 135.578278,
    "route": "河内長野駅前→河合寺→小吹台",
    "stop": "河合寺",
    "passTime": "11:30",
    "vehicleType": "南海バス(車椅子・ベビーカー・ノンステップ)",
    "updateTime": "2026/07/23 11:31"
  },
  {
    "vehicleNum": "092581",
    "vehicleCd": "375",
    "vehicleCorpCd": "1",
    "running": true,
    "lat": 34.564,
    "lon": 135.476,
    "route": "国分峠東→栂・美木多駅→堺東駅前",
    "stop": "旭ヶ丘北町",
    "passTime": "11:30",
    "vehicleType": "南海バス(車椅子・ベビーカー・ノンステップ)",
    "updateTime": "2026/07/23 11:31"
  },
  {
    "vehicleNum": "092595",
    "vehicleCd": "326",
    "vehicleCorpCd": "1",
    "running": true,
    "lat": 34.420778,
    "lon": 135.559583,
    "route": "三日市町駅前→南花台１丁目北→大矢船西町",
    "stop": "大矢船北町（南花台系統）",
    "passTime": "11:30",
    "vehicleType": "南海バス(車椅子・ベビーカー・ノンステップ)",
    "updateTime": "2026/07/23 11:31"
  },
  {
    "vehicleNum": "092587",
    "vehicleCd": "124",
    "vehicleCorpCd": "1",
    "running": true,
    "lat": 34.406083,
    "lon": 135.529778,
    "route": "河内長野駅前→奥河内くろまろの郷→滝畑ダム",
    "stop": "清掃工場前",
    "passTime": "11:31",
    "vehicleType": "南海バス(車椅子・ベビーカー・ノンステップ)",
    "updateTime": "2026/07/23 11:31"
  },
  {
    "vehicleNum": "092653",
    "vehicleCd": "357",
    "vehicleCorpCd": "1",
    "running": true,
    "lat": 34.447194,
    "lon": 135.543778,
    "route": "緑ヶ丘北町→千代田駅前",
    "stop": "緑ヶ丘中町",
    "passTime": "11:31",
    "vehicleType": "南海バス(車椅子・ベビーカー・ノンステップ)",
    "updateTime": "2026/07/23 11:31"
  },
  {
    "vehicleNum": "092696",
    "vehicleCd": "589",
    "vehicleCorpCd": "1",
    "running": true,
    "lat": 34.511889,
    "lon": 135.465583,
    "route": "堺東駅前→鳳駅前→光明池駅",
    "stop": "山田北",
    "passTime": "11:30",
    "vehicleType": "南海バス(車椅子・ベビーカー・ノンステップ)",
    "updateTime": "2026/07/23 11:31"
  },
  {
    "vehicleNum": "092763",
    "vehicleCd": "520",
    "vehicleCorpCd": "1",
    "running": true,
    "lat": 34.468389,
    "lon": 135.483778,
    "route": "光明池駅→城山台２丁→光明池駅",
    "stop": "城山台センター",
    "passTime": "11:30",
    "vehicleType": "南海バス(車椅子・ベビーカー・ノンステップ)",
    "updateTime": "2026/07/23 11:31"
  },
  {
    "vehicleNum": "092762",
    "vehicleCd": "570",
    "vehicleCorpCd": "1",
    "running": true,
    "lat": 34.480778,
    "lon": 135.4755,
    "route": "泉ヶ丘駅→光明池駅→赤坂台４丁→光明池駅→泉ヶ丘駅",
    "stop": "新檜尾台一丁",
    "passTime": "11:30",
    "vehicleType": "南海バス(車椅子・ベビーカー・ノンステップ)",
    "updateTime": "2026/07/23 11:31"
  },
  {
    "vehicleNum": "092829",
    "vehicleCd": "488",
    "vehicleCorpCd": "1",
    "running": true,
    "lat": 34.483278,
    "lon": 135.426389,
    "route": "和泉府中駅前→医療センター玄関口→和泉中央駅",
    "stop": "和泉府中駅前",
    "passTime": "11:26",
    "vehicleType": "南海バス(車椅子・ベビーカー・ノンステップ)",
    "updateTime": "2026/07/23 11:31"
  },
  {
    "vehicleNum": "092830",
    "vehicleCd": "367",
    "vehicleCorpCd": "1",
    "running": true,
    "lat": 34.540972,
    "lon": 135.463389,
    "route": "光明池駅→山田→堺東駅前",
    "stop": "下田南",
    "passTime": "11:31",
    "vehicleType": "南海バス(車椅子・ベビーカー・ノンステップ)",
    "updateTime": "2026/07/23 11:31"
  },
  {
    "vehicleNum": "092858",
    "vehicleCd": "320",
    "vehicleCorpCd": "1",
    "running": true,
    "lat": 34.502583,
    "lon": 135.406583,
    "route": "和泉中央駅→阪本→泉大津駅前",
    "stop": "旭町",
    "passTime": "11:23",
    "vehicleType": "南海バス(車椅子・ベビーカー・ノンステップ)",
    "updateTime": "2026/07/23 11:31"
  },
  {
    "vehicleNum": "092857",
    "vehicleCd": "516",
    "vehicleCorpCd": "1",
    "running": true,
    "lat": 34.468889,
    "lon": 135.459583,
    "route": "光明池駅→光明池車庫→和泉中央駅→泉大津駅前",
    "stop": "池田下",
    "passTime": "11:31",
    "vehicleType": "南海バス(車椅子・ベビーカー・ノンステップ)",
    "updateTime": "2026/07/23 11:31"
  },
  {
    "vehicleNum": "092856",
    "vehicleCd": "601",
    "vehicleCorpCd": "1",
    "running": true,
    "lat": 34.461583,
    "lon": 135.498694,
    "route": "国分峠東→栂・美木多駅→堺東駅前",
    "stop": "灰掛",
    "passTime": "11:30",
    "vehicleType": "南海バス(車椅子・ベビーカー・ノンステップ)",
    "updateTime": "2026/07/23 11:31"
  },
  {
    "vehicleNum": "092916",
    "vehicleCd": "235",
    "vehicleCorpCd": "1",
    "running": true,
    "lat": 34.468,
    "lon": 135.481,
    "route": "光明池車庫→城山台５丁→光明池駅",
    "stop": "城山台口",
    "passTime": "11:30",
    "vehicleType": "南海バス(車椅子・ベビーカー・ノンステップ)",
    "updateTime": "2026/07/23 11:31"
  },
  {
    "vehicleNum": "092915",
    "vehicleCd": "346",
    "vehicleCorpCd": "1",
    "running": true,
    "lat": 34.4665,
    "lon": 135.562694,
    "route": "千代田駅前→赤峯→荘園町",
    "stop": "市民グランド前",
    "passTime": "11:30",
    "vehicleType": "南海バス(車椅子・ベビーカー・ノンステップ)",
    "updateTime": "2026/07/23 11:31"
  },
  {
    "vehicleNum": "092936",
    "vehicleCd": "322",
    "vehicleCorpCd": "1",
    "running": true,
    "lat": 34.424778,
    "lon": 135.225389,
    "route": "給油地区→空港駅",
    "stop": "浄化センター前",
    "passTime": "11:31",
    "vehicleType": "南海バス(車椅子・ベビーカー・ノンステップ)",
    "updateTime": "2026/07/23 11:31"
  },
  {
    "vehicleNum": "092952",
    "vehicleCd": "113",
    "vehicleCorpCd": "1",
    "running": true,
    "lat": 34.470889,
    "lon": 135.476194,
    "route": "光明池駅→城山台５丁→光明池車庫",
    "stop": "光明池駅",
    "passTime": "11:29",
    "vehicleType": "南海バス(車椅子・ベビーカー・ノンステップ)",
    "updateTime": "2026/07/23 11:31"
  },
  {
    "vehicleNum": "092975",
    "vehicleCd": "115",
    "vehicleCorpCd": "1",
    "running": true,
    "lat": 34.484889,
    "lon": 135.424778,
    "route": "和泉中央駅→寺田→泉大津駅前",
    "stop": "和泉府中駅前",
    "passTime": "11:29",
    "vehicleType": "南海バス(車椅子・ベビーカー・ノンステップ)",
    "updateTime": "2026/07/23 11:31"
  },
  {
    "vehicleNum": "092977",
    "vehicleCd": "608",
    "vehicleCorpCd": "1",
    "running": true,
    "lat": 34.447,
    "lon": 135.454,
    "route": "美術館前→のぞみ野南→和泉中央駅",
    "stop": "内田上",
    "passTime": "11:31",
    "vehicleType": "南海バス(車椅子・ベビーカー・ノンステップ)",
    "updateTime": "2026/07/23 11:31"
  },
  {
    "vehicleNum": "092978",
    "vehicleCd": "325",
    "vehicleCorpCd": "1",
    "running": true,
    "lat": 34.45,
    "lon": 135.4445,
    "route": "和泉中央駅→テクノステージセンター前→グリーンポリス前→和泉中央駅",
    "stop": "グリーンポリス前",
    "passTime": "11:31",
    "vehicleType": "南海バス(車椅子・ベビーカー・ノンステップ)",
    "updateTime": "2026/07/23 11:31"
  },
  {
    "vehicleNum": "093054",
    "vehicleCd": "396",
    "vehicleCorpCd": "1",
    "running": true,
    "lat": 34.506583,
    "lon": 135.477583,
    "route": "堺東駅前→鳳駅前→栂・美木多駅",
    "stop": "菱木南",
    "passTime": "11:31",
    "vehicleType": "南海バス(車椅子・ベビーカー・ノンステップ)",
    "updateTime": "2026/07/23 11:31"
  },
  {
    "vehicleNum": "093071",
    "vehicleCd": "274",
    "vehicleCorpCd": "1",
    "running": true,
    "lat": 34.451083,
    "lon": 135.463694,
    "route": "和泉中央駅→和泉青葉台→はつが野→和泉中央駅（右回り）",
    "stop": "はつが野口",
    "passTime": "11:30",
    "vehicleType": "南海バス(車椅子・ベビーカー・ノンステップ)",
    "updateTime": "2026/07/23 11:31"
  },
  {
    "vehicleNum": "093074",
    "vehicleCd": "247",
    "vehicleCorpCd": "1",
    "running": true,
    "lat": 34.4425,
    "lon": 135.462278,
    "route": "和泉中央駅→はつが野→和泉青葉台→和泉中央駅（左回り）",
    "stop": "はつが野三丁目",
    "passTime": "11:31",
    "vehicleType": "南海バス(車椅子・ベビーカー・ノンステップ)",
    "updateTime": "2026/07/23 11:31"
  },
  {
    "vehicleNum": "093073",
    "vehicleCd": "370",
    "vehicleCorpCd": "1",
    "running": true,
    "lat": 34.471583,
    "lon": 135.454,
    "route": "泉大津駅前→和泉府中駅前→和泉中央駅→光明池駅",
    "stop": "鳥池",
    "passTime": "11:31",
    "vehicleType": "南海バス(車椅子・ベビーカー・ノンステップ)",
    "updateTime": "2026/07/23 11:31"
  }
]