[
  {
    "vehicleNum": "070104",
    "vehicleCd": "402",
    "vehicleCorpCd": "1",
    "running": true,
    "lat": 34.484389,
    "lon": 135.544889,
    "route": "泉ヶ丘駅→狭山ニュータウンセンター→金剛駅前",
    "stop": "狭山ニュータウンセンター",
    "passTime": "18:13",
    "vehicleType": "泉北コミュニティバス(車椅子・ベビーカー・ノンステップ)",
    "updateTime": "2026/07/24 18:13"
  },
  {
    "vehicleNum": "070103",
    "vehicleCd": "425",
    "vehicleCorpCd": "1",
    "running": true,
    "lat": 34.479694,
    "lon": 135.547694,
    "route": "金剛駅前→狭山ニュータウンセンター→泉ヶ丘駅",
    "stop": "狭山ニュータウンセンター",
    "passTime": "18:10",
    "vehicleType": "泉北コミュニティバス(車椅子・ベビーカー・ノンステップ)",
    "updateTime": "2026/07/24 18:13"
  },
  {
    "vehicleNum": "070107",
    "vehicleCd": "405",
    "vehicleCorpCd": "1",
    "running": true,
    "lat": 34.498389,
    "lon": 135.556583,
    "route": "金剛駅前→狭山ニュータウンセンター→泉ヶ丘駅",
    "stop": "半田",
    "passTime": "18:10",
    "vehicleType": "泉北コミュニティバス(車椅子・ベビーカー・ノンステップ)",
    "updateTime": "2026/07/24 18:13"
  },
  {
    "vehicleNum": "070109",
    "vehicleCd": "407",
    "vehicleCorpCd": "1",
    "running": true,
    "lat": 34.485278,
    "lon": 135.530778,
    "route": "泉ヶ丘駅→狭山ニュータウンセンター→金剛駅前",
    "stop": "槙塚台３丁",
    "passTime": "18:13",
    "vehicleType": "泉北コミュニティバス(車椅子・ベビーカー・ノンステップ)",
    "updateTime": "2026/07/24 18:13"
  },
  {
    "vehicleNum": "071603",
    "vehicleCd": "410",
    "vehicleCorpCd": "1",
    "running": true,
    "lat": 34.579778,
    "lon": 135.472694,
    "route": "堺駅前→大小路→堺東駅前",
    "stop": "堺駅前",
    "passTime": "18:12",
    "vehicleType": "堺シャトル(車椅子・ベビーカー・ノンステップ)",
    "updateTime": "2026/07/24 18:13"
  },
  {
    "vehicleNum": "071604",
    "vehicleCd": "217",
    "vehicleCorpCd": "1",
    "running": true,
    "lat": 34.579583,
    "lon": 135.472889,
    "route": "堺駅前→大小路→堺東駅前",
    "stop": "市小学校前",
    "passTime": "18:13",
    "vehicleType": "堺シャトル(車椅子・ベビーカー・ノンステップ)",
    "updateTime": "2026/07/24 18:13"
  },
  {
    "vehicleNum": "071605",
    "vehicleCd": "412",
    "vehicleCorpCd": "1",
    "running": true,
    "lat": 34.5785,
    "lon": 135.4745,
    "route": "堺東駅前→大小路→堺駅前",
    "stop": "大小路",
    "passTime": "18:12",
    "vehicleType": "堺シャトル(車椅子・ベビーカー・ノンステップ)",
    "updateTime": "2026/07/24 18:13"
  },
  {
    "vehicleNum": "072501",
    "vehicleCd": "598",
    "vehicleCorpCd": "1",
    "running": true,
    "lat": 34.574694,
    "lon": 135.4735,
    "route": "河内松原駅前→阪和堺市駅前→堺駅前",
    "stop": "大寺南門山之口前",
    "passTime": "18:12",
    "vehicleType": "南海バス(車椅子・ベビーカー・ノンステップ)",
    "updateTime": "2026/07/24 18:13"
  },
  {
    "vehicleNum": "072502",
    "vehicleCd": "331",
    "vehicleCorpCd": "1",
    "running": true,
    "lat": 34.569472,
    "lon": 135.483278,
    "route": "堺駅南口→地下鉄新金岡駅前",
    "stop": "一条通",
    "passTime": "18:11",
    "vehicleType": "南海バス(車椅子・ベビーカー・ノンステップ)",
    "updateTime": "2026/07/24 18:13"
  },
  {
    "vehicleNum": "080105",
    "vehicleCd": "127",
    "vehicleCorpCd": "2",
    "running": true,
    "lat": 34.433,
    "lon": 135.393278,
    "route": "岸和田駅前→天神山・一の宮循環　左回り→岸和田駅前",
    "stop": "流木",
    "passTime": "18:11",
    "vehicleType": "南海ウイングバス(車椅子・ベビーカー・ワンステップ)",
    "updateTime": "2026/07/24 18:13"
  },
  {
    "vehicleNum": "080146",
    "vehicleCd": "6",
    "vehicleCorpCd": "2",
    "running": true,
    "lat": 34.390083,
    "lon": 135.334194,
    "route": "犬鳴山→日根野駅前→野々地蔵北→泉佐野駅前",
    "stop": "日根野駅前",
    "passTime": "18:09",
    "vehicleType": "南海ウイングバス(車椅子・ワンステップ)",
    "updateTime": "2026/07/24 18:13"
  },
  {
    "vehicleNum": "080171",
    "vehicleCd": "40",
    "vehicleCorpCd": "2",
    "running": true,
    "lat": 34.461583,
    "lon": 135.393583,
    "route": "白原車庫→内畑→岸和田駅前",
    "stop": "市民病院前",
    "passTime": "18:10",
    "vehicleType": "南海ウイングバス(車椅子・ベビーカー・ワンステップ)",
    "updateTime": "2026/07/24 18:13"
  },
  {
    "vehicleNum": "080159",
    "vehicleCd": "145",
    "vehicleCorpCd": "1",
    "running": true,
    "lat": 34.555972,
    "lon": 135.469389,
    "route": "堺東駅前→堀上緑町１丁→堺東駅前",
    "stop": "緑ヶ丘",
    "passTime": "18:10",
    "vehicleType": "南海バス(車椅子・ベビーカー・ワンステップ)",
    "updateTime": "2026/07/24 18:13"
  },
  {
    "vehicleNum": "080177",
    "vehicleCd": "126",
    "vehicleCorpCd": "2",
    "running": true,
    "lat": 34.448194,
    "lon": 135.384278,
    "route": "岸和田駅前→岸和田警察署前→塔原",
    "stop": "東岸和田駅前",
    "passTime": "18:09",
    "vehicleType": "南海ウイングバス(車椅子・ベビーカー・ワンステップ)",
    "updateTime": "2026/07/24 18:13"
  },
  {
    "vehicleNum": "080255",
    "vehicleCd": "113",
    "vehicleCorpCd": "2",
    "running": true,
    "lat": 34.404,
    "lon": 135.348889,
    "route": "熊取ニュータウン→熊取駅前→上瓦屋町→泉佐野駅前（フリー乗降）",
    "stop": "北紺屋",
    "passTime": "18:13",
    "vehicleType": "南海ウイングバス(車椅子・ベビーカー・ノンステップ)",
    "updateTime": "2026/07/24 18:13"
  },
  {
    "vehicleNum": "080268",
    "vehicleCd": "114",
    "vehicleCorpCd": "2",
    "running": true,
    "lat": 34.400583,
    "lon": 135.344778,
    "route": "大阪体育大学前→熊取駅前",
    "stop": "熊取西小学校前",
    "passTime": "18:12",
    "vehicleType": "南海ウイングバス(車椅子・ベビーカー・ノンステップ)",
    "updateTime": "2026/07/24 18:13"
  },
  {
    "vehicleNum": "080316",
    "vehicleCd": "81",
    "vehicleCorpCd": "1",
    "running": true,
    "lat": 34.589083,
    "lon": 135.530472,
    "route": "堺東駅前→錦綾町→河内天美駅前",
    "stop": "天美西",
    "passTime": "18:11",
    "vehicleType": "南海バス(車椅子・ベビーカー・ワンステップ)",
    "updateTime": "2026/07/24 18:13"
  },
  {
    "vehicleNum": "080321",
    "vehicleCd": "14",
    "vehicleCorpCd": "2",
    "running": true,
    "lat": 34.392889,
    "lon": 135.358694,
    "route": "泉佐野駅前→泉陽ヶ丘→熊取駅前→山の手台→小谷→熊取駅前",
    "stop": "山の手台",
    "passTime": "18:11",
    "vehicleType": "南海ウイングバス(車椅子・ワンステップ)",
    "updateTime": "2026/07/24 18:13"
  },
  {
    "vehicleNum": "080320",
    "vehicleCd": "85",
    "vehicleCorpCd": "1",
    "running": true,
    "lat": 34.601389,
    "lon": 135.471778,
    "route": "匠町→住之江公園駅前",
    "stop": "松屋大和川通３丁",
    "passTime": "18:10",
    "vehicleType": "南海バス(車椅子・ベビーカー・ワンステップ)",
    "updateTime": "2026/07/24 18:13"
  },
  {
    "vehicleNum": "080345",
    "vehicleCd": "121",
    "vehicleCorpCd": "2",
    "running": true,
    "lat": 34.4025,
    "lon": 135.345,
    "route": "熊取駅前→つばさが丘北口",
    "stop": "大久保",
    "passTime": "18:12",
    "vehicleType": "南海ウイングバス",
    "updateTime": "2026/07/24 18:13"
  },
  {
    "vehicleNum": "080323",
    "vehicleCd": "59",
    "vehicleCorpCd": "2",
    "running": true,
    "lat": 34.461778,
    "lon": 135.393389,
    "route": "道の駅愛彩ランド→岸和田警察署前→岸和田駅前",
    "stop": "下松（市民病院南）",
    "passTime": "18:10",
    "vehicleType": "南海ウイングバス(車椅子・ワンステップ)",
    "updateTime": "2026/07/24 18:13"
  },
  {
    "vehicleNum": "080322",
    "vehicleCd": "116",
    "vehicleCorpCd": "2",
    "running": true,
    "lat": 34.409972,
    "lon": 135.295583,
    "route": "イオンモール→ポート→イオンモールりんくう泉南",
    "stop": "りんくうタウン駅前（ウイングバス南部）",
    "passTime": "18:12",
    "vehicleType": "南海ウイングバス(車椅子・ワンステップ)",
    "updateTime": "2026/07/24 18:13"
  },
  {
    "vehicleNum": "080381",
    "vehicleCd": "88",
    "vehicleCorpCd": "1",
    "running": true,
    "lat": 34.622,
    "lon": 135.434278,
    "route": "ＡＴＣ→堺東駅前",
    "stop": "ポートタウン東",
    "passTime": "18:05",
    "vehicleType": "南海バス(車椅子・ワンステップ)",
    "updateTime": "2026/07/24 18:13"
  },
  {
    "vehicleNum": "080594",
    "vehicleCd": "437",
    "vehicleCorpCd": "1",
    "running": true,
    "lat": 34.546389,
    "lon": 135.542472,
    "route": "地下鉄新金岡駅前→野遠→美原区役所",
    "stop": "菩提",
    "passTime": "18:11",
    "vehicleType": "南海バス(車椅子・ベビーカー・ノンステップ)",
    "updateTime": "2026/07/24 18:13"
  },
  {
    "vehicleNum": "080640",
    "vehicleCd": "133",
    "vehicleCorpCd": "2",
    "running": true,
    "lat": 34.4015,
    "lon": 135.357278,
    "route": "泉佐野駅前→上瓦屋町→熊取駅前→熊取ニュータウン（フリー乗降）",
    "stop": "大原口",
    "passTime": "18:12",
    "vehicleType": "南海ウイングバス(車椅子・ベビーカー・ノンステップ)",
    "updateTime": "2026/07/24 18:13"
  },
  {
    "vehicleNum": "080644",
    "vehicleCd": "452",
    "vehicleCorpCd": "1",
    "running": true,
    "lat": 34.585889,
    "lon": 135.487389,
    "route": "堺東駅前→錦綾町→河内天美駅前",
    "stop": "錦綾町",
    "passTime": "18:09",
    "vehicleType": "南海バス(車椅子・ベビーカー・ノンステップ)",
    "updateTime": "2026/07/24 18:13"
  },
  {
    "vehicleNum": "080651",
    "vehicleCd": "455",
    "vehicleCorpCd": "1",
    "running": true,
    "lat": 34.544778,
    "lon": 135.543694,
    "route": "美原区役所→野遠→地下鉄新金岡駅前",
    "stop": "大饗",
    "passTime": "18:12",
    "vehicleType": "南海バス",
    "updateTime": "2026/07/24 18:13"
  },
  {
    "vehicleNum": "080652",
    "vehicleCd": "456",
    "vehicleCorpCd": "1",
    "running": true,
    "lat": 34.549694,
    "lon": 135.553889,
    "route": "美原区役所→初芝駅前→美原区役所",
    "stop": "広国神社前",
    "passTime": "18:10",
    "vehicleType": "南海バス",
    "updateTime": "2026/07/24 18:13"
  },
  {
    "vehicleNum": "080670",
    "vehicleCd": "507",
    "vehicleCorpCd": "1",
    "running": true,
    "lat": 34.570083,
    "lon": 135.481694,
    "route": "堺東駅前→白鷺駅前→堺東駅前（循環）",
    "stop": "一条通",
    "passTime": "18:10",
    "vehicleType": "南海バス(車椅子・ベビーカー・ノンステップ)",
    "updateTime": "2026/07/24 18:13"
  },
  {
    "vehicleNum": "080671",
    "vehicleCd": "465",
    "vehicleCorpCd": "1",
    "running": true,
    "lat": 34.577083,
    "lon": 135.492083,
    "route": "河内松原駅前→阪和堺市駅前→堺東駅前",
    "stop": "田出井町",
    "passTime": "18:12",
    "vehicleType": "南海バス(車椅子・ベビーカー・ノンステップ)",
    "updateTime": "2026/07/24 18:13"
  },
  {
    "vehicleNum": "080703",
    "vehicleCd": "219",
    "vehicleCorpCd": "1",
    "running": true,
    "lat": 34.588194,
    "lon": 135.469389,
    "route": "【急行】海浜匠町→堺駅西口",
    "stop": "海浜匠町",
    "passTime": "17:55",
    "vehicleType": "南海バス(車椅子・ベビーカー・ノンステップ)",
    "updateTime": "2026/07/24 18:13"
  },
  {
    "vehicleNum": "080705",
    "vehicleCd": "542",
    "vehicleCorpCd": "1",
    "running": true,
    "lat": 34.589778,
    "lon": 135.468694,
    "route": "匠町→堺駅西口→堺東駅前→阪和堺市駅前",
    "stop": "三宝",
    "passTime": "18:12",
    "vehicleType": "南海バス(車椅子・ベビーカー・ノンステップ)",
    "updateTime": "2026/07/24 18:13"
  },
  {
    "vehicleNum": "080706",
    "vehicleCd": "543",
    "vehicleCorpCd": "1",
    "running": true,
    "lat": 34.5775,
    "lon": 135.488194,
    "route": "【急行】海浜匠町→堺東駅前→阪和堺市駅前",
    "stop": "瓦町公園前",
    "passTime": "18:08",
    "vehicleType": "南海バス(車椅子・ベビーカー・ノンステップ)",
    "updateTime": "2026/07/24 18:13"
  },
  {
    "vehicleNum": "080707",
    "vehicleCd": "544",
    "vehicleCorpCd": "1",
    "running": true,
    "lat": 34.575278,
    "lon": 135.525778,
    "route": "堺駅前→堺東駅前→河内松原駅前",
    "stop": "南花田町",
    "passTime": "18:10",
    "vehicleType": "南海バス(車椅子・ベビーカー・ノンステップ)",
    "updateTime": "2026/07/24 18:13"
  },
  {
    "vehicleNum": "080710",
    "vehicleCd": "18",
    "vehicleCorpCd": "2",
    "running": true,
    "lat": 34.4505,
    "lon": 135.382083,
    "route": "岸和田駅前→天神山・一の宮循環　右回り→岸和田駅前",
    "stop": "東岸和田駅前",
    "passTime": "18:08",
    "vehicleType": "南海ウイングバス(車椅子・ベビーカー・ノンステップ)",
    "updateTime": "2026/07/24 18:13"
  },
  {
    "vehicleNum": "080711",
    "vehicleCd": "79",
    "vehicleCorpCd": "2",
    "running": true,
    "lat": 34.408389,
    "lon": 135.321389,
    "route": "泉佐野駅前→野々地蔵北→日根野駅前→犬鳴山",
    "stop": "上町１丁目",
    "passTime": "18:13",
    "vehicleType": "南海ウイングバス(車椅子・ベビーカー・ノンステップ)",
    "updateTime": "2026/07/24 18:13"
  },
  {
    "vehicleNum": "080740",
    "vehicleCd": "181",
    "vehicleCorpCd": "1",
    "running": true,
    "lat": 34.5255,
    "lon": 135.479583,
    "route": "深井駅→八田荘団地→津久野駅前",
    "stop": "鈴の宮団地東口",
    "passTime": "18:12",
    "vehicleType": "南海バス(車椅子・ベビーカー・ノンステップ)",
    "updateTime": "2026/07/24 18:13"
  },
  {
    "vehicleNum": "080734",
    "vehicleCd": "415",
    "vehicleCorpCd": "1",
    "running": true,
    "lat": 34.542778,
    "lon": 135.5265,
    "route": "美原区役所→初芝駅前→美原区役所",
    "stop": "初芝駅前",
    "passTime": "18:12",
    "vehicleType": "南海バス",
    "updateTime": "2026/07/24 18:13"
  },
  {
    "vehicleNum": "080745",
    "vehicleCd": "57",
    "vehicleCorpCd": "1",
    "running": true,
    "lat": 34.498389,
    "lon": 135.548,
    "route": "泉ヶ丘駅→狭山ニュータウンセンター→金剛駅前",
    "stop": "亀の甲",
    "passTime": "18:13",
    "vehicleType": "南海バス(車椅子・ベビーカー・ノンステップ)",
    "updateTime": "2026/07/24 18:13"
  },
  {
    "vehicleNum": "080750",
    "vehicleCd": "103",
    "vehicleCorpCd": "1",
    "running": true,
    "lat": 34.574583,
    "lon": 135.509972,
    "route": "地下鉄北花田駅前→蔵前西→ＪＲ堺市駅前→地下鉄北花田駅前",
    "stop": "公園北口",
    "passTime": "18:13",
    "vehicleType": "南海バス(車椅子・ベビーカー・ノンステップ)",
    "updateTime": "2026/07/24 18:13"
  },
  {
    "vehicleNum": "080746",
    "vehicleCd": "395",
    "vehicleCorpCd": "1",
    "running": true,
    "lat": 34.4955,
    "lon": 135.561194,
    "route": "金剛駅前→寺池台小学校前→金剛駅前",
    "stop": "久野喜台二丁目",
    "passTime": "18:11",
    "vehicleType": "南海バス(車椅子・ベビーカー・ノンステップ)",
    "updateTime": "2026/07/24 18:13"
  },
  {
    "vehicleNum": "080748",
    "vehicleCd": "218",
    "vehicleCorpCd": "1",
    "running": true,
    "lat": 34.576889,
    "lon": 135.495278,
    "route": "堺駅前→堺東駅前→河内松原駅前",
    "stop": "阪和堺市駅前",
    "passTime": "18:09",
    "vehicleType": "南海バス(車椅子・ベビーカー・ノンステップ)",
    "updateTime": "2026/07/24 18:13"
  },
  {
    "vehicleNum": "080751",
    "vehicleCd": "551",
    "vehicleCorpCd": "1",
    "running": true,
    "lat": 34.540778,
    "lon": 135.534194,
    "route": "美原区役所前→船戸下→初芝駅前→中もず駅前",
    "stop": "日置荘小学校前",
    "passTime": "18:12",
    "vehicleType": "南海バス(車椅子・ベビーカー・ノンステップ)",
    "updateTime": "2026/07/24 18:13"
  },
  {
    "vehicleNum": "080753",
    "vehicleCd": "552",
    "vehicleCorpCd": "1",
    "running": true,
    "lat": 34.497583,
    "lon": 135.520194,
    "route": "泉ヶ丘駅→スマ・エコタウン晴美台→高倉台左回り→泉ヶ丘駅",
    "stop": "三原台１丁",
    "passTime": "18:13",
    "vehicleType": "南海バス(車椅子・ベビーカー・ノンステップ)",
    "updateTime": "2026/07/24 18:13"
  },
  {
    "vehicleNum": "080754",
    "vehicleCd": "428",
    "vehicleCorpCd": "1",
    "running": true,
    "lat": 34.490583,
    "lon": 135.512389,
    "route": "泉ヶ丘駅→若松台左回り→泉ヶ丘駅",
    "stop": "茶山台",
    "passTime": "18:13",
    "vehicleType": "南海バス(車椅子・ベビーカー・ノンステップ)",
    "updateTime": "2026/07/24 18:13"
  },
  {
    "vehicleNum": "080755",
    "vehicleCd": "170",
    "vehicleCorpCd": "1",
    "running": true,
    "lat": 34.490083,
    "lon": 135.564389,
    "route": "金剛駅前→寺池台小学校前→金剛駅前",
    "stop": "寺ヶ池",
    "passTime": "18:11",
    "vehicleType": "南海バス(車椅子・ベビーカー・ノンステップ)",
    "updateTime": "2026/07/24 18:13"
  },
  {
    "vehicleNum": "080758",
    "vehicleCd": "511",
    "vehicleCorpCd": "1",
    "running": true,
    "lat": 34.509194,
    "lon": 135.488583,
    "route": "津久野駅前→堺市立総合医療センター前→泉北２号線→泉ヶ丘駅",
    "stop": "平井大橋",
    "passTime": "18:11",
    "vehicleType": "南海バス(車椅子・ベビーカー・ノンステップ)",
    "updateTime": "2026/07/24 18:13"
  },
  {
    "vehicleNum": "080760",
    "vehicleCd": "559",
    "vehicleCorpCd": "1",
    "running": true,
    "lat": 34.579083,
    "lon": 135.467194,
    "route": "堺駅南口→堺駅前",
    "stop": "堺駅南口",
    "passTime": "18:08",
    "vehicleType": "南海バス(車椅子・ベビーカー・ノンステップ)",
    "updateTime": "2026/07/24 18:13"
  },
  {
    "vehicleNum": "080762",
    "vehicleCd": "561",
    "vehicleCorpCd": "1",
    "running": true,
    "lat": 34.533,
    "lon": 135.461694,
    "route": "鳳駅前→堺東駅前",
    "stop": "鳳駅前",
    "passTime": "18:09",
    "vehicleType": "南海バス(車椅子・ベビーカー・ノンステップ)",
    "updateTime": "2026/07/24 18:13"
  },
  {
    "vehicleNum": "080761",
    "vehicleCd": "560",
    "vehicleCorpCd": "1",
    "running": true,
    "lat": 34.557583,
    "lon": 135.505583,
    "route": "中もず駅前→初芝駅前→船戸下→美原区役所前",
    "stop": "中もず駅前（北側）",
    "passTime": "18:07",
    "vehicleType": "南海バス(車椅子・ベビーカー・ノンステップ)",
    "updateTime": "2026/07/24 18:13"
  },
  {
    "vehicleNum": "080764",
    "vehicleCd": "563",
    "vehicleCorpCd": "1",
    "running": true,
    "lat": 34.524694,
    "lon": 135.525583,
    "route": "堺駅南口→福町→北野田駅前",
    "stop": "下出口",
    "passTime": "18:12",
    "vehicleType": "南海バス(車椅子・ベビーカー・ノンステップ)",
    "updateTime": "2026/07/24 18:13"
  },
  {
    "vehicleNum": "080763",
    "vehicleCd": "562",
    "vehicleCorpCd": "1",
    "running": true,
    "lat": 34.544194,
    "lon": 135.487278,
    "route": "伏尾→北条→中もず駅前",
    "stop": "北条",
    "passTime": "18:11",
    "vehicleType": "南海バス(車椅子・ベビーカー・ノンステップ)",
    "updateTime": "2026/07/24 18:13"
  },
  {
    "vehicleNum": "080766",
    "vehicleCd": "565",
    "vehicleCorpCd": "1",
    "running": true,
    "lat": 34.543278,
    "lon": 135.456083,
    "route": "鳳西町南→浜寺中学校前→堺東駅前",
    "stop": "浜寺元町北",
    "passTime": "18:11",
    "vehicleType": "南海バス(車椅子・ベビーカー・ノンステップ)",
    "updateTime": "2026/07/24 18:13"
  },
  {
    "vehicleNum": "080787",
    "vehicleCd": "301",
    "vehicleCorpCd": "1",
    "running": true,
    "lat": 34.567389,
    "lon": 135.505694,
    "route": "堺東駅前→白鷺駅前→堺東駅前（循環）",
    "stop": "金岡公園前",
    "passTime": "18:12",
    "vehicleType": "南海バス(車椅子・ベビーカー・ノンステップ)",
    "updateTime": "2026/07/24 18:13"
  },
  {
    "vehicleNum": "080788",
    "vehicleCd": "299",
    "vehicleCorpCd": "1",
    "running": true,
    "lat": 34.595194,
    "lon": 135.461778,
    "route": "【急行】海浜匠町→阪和堺市駅前",
    "stop": "海浜匠町",
    "passTime": "18:00",
    "vehicleType": "南海バス(車椅子・ベビーカー・ノンステップ)",
    "updateTime": "2026/07/24 18:13"
  },
  {
    "vehicleNum": "080790",
    "vehicleCd": "106",
    "vehicleCorpCd": "1",
    "running": true,
    "lat": 34.593083,
    "lon": 135.469278,
    "route": "堺駅西口→錦綾町→堺東駅前",
    "stop": "浅香山通",
    "passTime": "18:13",
    "vehicleType": "南海バス(車椅子・ベビーカー・ノンステップ)",
    "updateTime": "2026/07/24 18:13"
  },
  {
    "vehicleNum": "080789",
    "vehicleCd": "300",
    "vehicleCorpCd": "1",
    "running": true,
    "lat": 34.572083,
    "lon": 135.482889,
    "route": "堺駅南口→堺駅前",
    "stop": "堺東駅前",
    "passTime": "18:09",
    "vehicleType": "南海バス(車椅子・ベビーカー・ノンステップ)",
    "updateTime": "2026/07/24 18:13"
  },
  {
    "vehicleNum": "080791",
    "vehicleCd": "61",
    "vehicleCorpCd": "1",
    "running": true,
    "lat": 34.600194,
    "lon": 135.425,
    "route": "【急行】海浜匠町→堺東駅前→阪和堺市駅前",
    "stop": "海浜匠町",
    "passTime": "18:12",
    "vehicleType": "南海バス(車椅子・ベビーカー・ノンステップ)",
    "updateTime": "2026/07/24 18:13"
  },
  {
    "vehicleNum": "080792",
    "vehicleCd": "302",
    "vehicleCorpCd": "1",
    "running": true,
    "lat": 34.604,
    "lon": 135.472778,
    "route": "匠町→住之江公園駅前→匠町",
    "stop": "松屋大和川通３丁",
    "passTime": "18:08",
    "vehicleType": "南海バス(車椅子・ベビーカー・ノンステップ)",
    "updateTime": "2026/07/24 18:13"
  },
  {
    "vehicleNum": "080794",
    "vehicleCd": "344",
    "vehicleCorpCd": "1",
    "running": true,
    "lat": 34.591083,
    "lon": 135.4755,
    "route": "堺東駅前→錦綾町→堺駅西口",
    "stop": "内川橋",
    "passTime": "18:10",
    "vehicleType": "南海バス(車椅子・ベビーカー・ノンステップ)",
    "updateTime": "2026/07/24 18:13"
  },
  {
    "vehicleNum": "080798",
    "vehicleCd": "107",
    "vehicleCorpCd": "1",
    "running": true,
    "lat": 34.5905,
    "lon": 135.433694,
    "route": "【急行】海浜匠町→堺駅西口",
    "stop": "海浜匠町",
    "passTime": "18:10",
    "vehicleType": "南海バス(車椅子・ベビーカー・ノンステップ)",
    "updateTime": "2026/07/24 18:13"
  },
  {
    "vehicleNum": "080795",
    "vehicleCd": "43",
    "vehicleCorpCd": "1",
    "running": true,
    "lat": 34.578278,
    "lon": 135.468389,
    "route": "堺駅南口→堺駅前",
    "stop": "堺駅南口",
    "passTime": "18:10",
    "vehicleType": "南海バス(車椅子・ベビーカー・ノンステップ)",
    "updateTime": "2026/07/24 18:13"
  },
  {
    "vehicleNum": "080797",
    "vehicleCd": "349",
    "vehicleCorpCd": "1",
    "running": true,
    "lat": 34.574278,
    "lon": 135.482778,
    "route": "堺駅前→堺駅南口",
    "stop": "一条通",
    "passTime": "18:08",
    "vehicleType": "南海バス(車椅子・ベビーカー・ノンステップ)",
    "updateTime": "2026/07/24 18:13"
  },
  {
    "vehicleNum": "080808",
    "vehicleCd": "216",
    "vehicleCorpCd": "1",
    "running": true,
    "lat": 34.586389,
    "lon": 135.470083,
    "route": "匠町→堺駅西口→堺東駅前→阪和堺市駅前",
    "stop": "三宝公園前",
    "passTime": "18:09",
    "vehicleType": "南海バス(車椅子・ベビーカー・ノンステップ)",
    "updateTime": "2026/07/24 18:13"
  },
  {
    "vehicleNum": "080807",
    "vehicleCd": "223",
    "vehicleCorpCd": "1",
    "running": true,
    "lat": 34.566278,
    "lon": 135.5015,
    "route": "堺駅南口→近畿中央呼吸器センター前→地下鉄新金岡駅前",
    "stop": "黒土口",
    "passTime": "18:13",
    "vehicleType": "南海バス(車椅子・ベビーカー・ノンステップ)",
    "updateTime": "2026/07/24 18:13"
  },
  {
    "vehicleNum": "080813",
    "vehicleCd": "269",
    "vehicleCorpCd": "1",
    "running": true,
    "lat": 34.565694,
    "lon": 135.492889,
    "route": "堺東駅前→白鷺駅前→堺東駅前（循環）",
    "stop": "三国ヶ丘駅前",
    "passTime": "18:13",
    "vehicleType": "南海バス(車椅子・ベビーカー・ノンステップ)",
    "updateTime": "2026/07/24 18:13"
  },
  {
    "vehicleNum": "080815",
    "vehicleCd": "575",
    "vehicleCorpCd": "1",
    "running": true,
    "lat": 34.491694,
    "lon": 135.519889,
    "route": "泉ヶ丘駅→帝塚山学院泉ヶ丘校前→金剛駅前",
    "stop": "茶山台２丁",
    "passTime": "18:12",
    "vehicleType": "南海バス(車椅子・ベビーカー・ノンステップ)",
    "updateTime": "2026/07/24 18:13"
  },
  {
    "vehicleNum": "080822",
    "vehicleCd": "576",
    "vehicleCorpCd": "1",
    "running": true,
    "lat": 34.523889,
    "lon": 135.541889,
    "route": "深井駅→東山車庫前→北野田駅前",
    "stop": "大美野噴水前",
    "passTime": "18:10",
    "vehicleType": "南海バス(車椅子・ベビーカー・ノンステップ)",
    "updateTime": "2026/07/24 18:13"
  },
  {
    "vehicleNum": "080825",
    "vehicleCd": "261",
    "vehicleCorpCd": "1",
    "running": true,
    "lat": 34.572889,
    "lon": 135.476778,
    "route": "堺駅南口→福町→北野田駅前",
    "stop": "安井町",
    "passTime": "18:13",
    "vehicleType": "南海バス(車椅子・ベビーカー・ノンステップ)",
    "updateTime": "2026/07/24 18:13"
  },
  {
    "vehicleNum": "080826",
    "vehicleCd": "152",
    "vehicleCorpCd": "1",
    "running": true,
    "lat": 34.500778,
    "lon": 135.506889,
    "route": "泉ヶ丘駅→宮山台中学校前→堺東駅前",
    "stop": "野田尾",
    "passTime": "18:13",
    "vehicleType": "南海バス(車椅子・ベビーカー・ノンステップ)",
    "updateTime": "2026/07/24 18:13"
  },
  {
    "vehicleNum": "080827",
    "vehicleCd": "317",
    "vehicleCorpCd": "1",
    "running": true,
    "lat": 34.537194,
    "lon": 135.545889,
    "route": "中もず駅前→初芝駅前→船戸下→美原区役所前",
    "stop": "北余部",
    "passTime": "18:13",
    "vehicleType": "南海バス(車椅子・ベビーカー・ノンステップ)",
    "updateTime": "2026/07/24 18:13"
  },
  {
    "vehicleNum": "080836",
    "vehicleCd": "268",
    "vehicleCorpCd": "1",
    "running": true,
    "lat": 34.607778,
    "lon": 135.479889,
    "route": "匠町→住之江公園駅前→匠町",
    "stop": "松屋大和川通３丁",
    "passTime": "17:56",
    "vehicleType": "南海バス(車椅子・ベビーカー・ノンステップ)",
    "updateTime": "2026/07/24 18:13"
  },
  {
    "vehicleNum": "080837",
    "vehicleCd": "351",
    "vehicleCorpCd": "1",
    "running": true,
    "lat": 34.551889,
    "lon": 135.481889,
    "route": "泉ヶ丘駅→宮山台中学校前→堺東駅前",
    "stop": "向ヶ丘",
    "passTime": "18:09",
    "vehicleType": "南海バス(車椅子・ベビーカー・ノンステップ)",
    "updateTime": "2026/07/24 18:13"
  },
  {
    "vehicleNum": "080844",
    "vehicleCd": "581",
    "vehicleCorpCd": "1",
    "running": true,
    "lat": 34.505083,
    "lon": 135.569278,
    "route": "金剛駅前→向陽・藤沢回り→金剛駅前",
    "stop": "藤沢台２丁目",
    "passTime": "18:13",
    "vehicleType": "南海バス(車椅子・ベビーカー・ノンステップ)",
    "updateTime": "2026/07/24 18:13"
  },
  {
    "vehicleNum": "080850",
    "vehicleCd": "24",
    "vehicleCorpCd": "1",
    "running": true,
    "lat": 34.493889,
    "lon": 135.531278,
    "route": "泉ヶ丘駅→晴美台右回り→泉ヶ丘駅",
    "stop": "晴美台センター",
    "passTime": "18:12",
    "vehicleType": "南海バス(車椅子・ベビーカー・ノンステップ)",
    "updateTime": "2026/07/24 18:13"
  },
  {
    "vehicleNum": "080851",
    "vehicleCd": "439",
    "vehicleCorpCd": "1",
    "running": true,
    "lat": 34.497889,
    "lon": 135.571083,
    "route": "金剛駅前→向陽・藤沢回り→金剛駅前",
    "stop": "公園前",
    "passTime": "18:12",
    "vehicleType": "南海バス(車椅子・ベビーカー・ノンステップ)",
    "updateTime": "2026/07/24 18:13"
  },
  {
    "vehicleNum": "080856",
    "vehicleCd": "358",
    "vehicleCorpCd": "1",
    "running": true,
    "lat": 34.500778,
    "lon": 135.575389,
    "route": "金剛駅前→高辺台小学校前→金剛駅前",
    "stop": "津々山台１丁目北",
    "passTime": "18:12",
    "vehicleType": "南海バス(車椅子・ベビーカー・ワンステップ)",
    "updateTime": "2026/07/24 18:13"
  },
  {
    "vehicleNum": "080857",
    "vehicleCd": "226",
    "vehicleCorpCd": "1",
    "running": true,
    "lat": 34.569194,
    "lon": 135.5155,
    "route": "阪和堺市駅前→堺駅南口",
    "stop": "郵便局前（堺市）",
    "passTime": "18:12",
    "vehicleType": "南海バス(車椅子・ベビーカー・ノンステップ)",
    "updateTime": "2026/07/24 18:13"
  },
  {
    "vehicleNum": "080859",
    "vehicleCd": "227",
    "vehicleCorpCd": "1",
    "running": true,
    "lat": 34.567,
    "lon": 135.509694,
    "route": "地下鉄新金岡駅前→堺駅南口",
    "stop": "長曽根住宅前",
    "passTime": "18:13",
    "vehicleType": "南海バス(車椅子・ベビーカー・ノンステップ)",
    "updateTime": "2026/07/24 18:13"
  },
  {
    "vehicleNum": "080863",
    "vehicleCd": "249",
    "vehicleCorpCd": "1",
    "running": true,
    "lat": 34.594472,
    "lon": 135.458472,
    "route": "匠町→堺駅西口→堺東駅前→阪和堺市駅前",
    "stop": "匠町",
    "passTime": "18:05",
    "vehicleType": "南海バス(車椅子・ベビーカー・ノンステップ)",
    "updateTime": "2026/07/24 18:13"
  },
  {
    "vehicleNum": "080864",
    "vehicleCd": "146",
    "vehicleCorpCd": "1",
    "running": true,
    "lat": 34.574583,
    "lon": 135.473694,
    "route": "地下鉄新金岡駅前→堺駅南口",
    "stop": "大寺南門山之口前",
    "passTime": "18:13",
    "vehicleType": "南海バス(車椅子・ベビーカー・ノンステップ)",
    "updateTime": "2026/07/24 18:13"
  },
  {
    "vehicleNum": "080866",
    "vehicleCd": "497",
    "vehicleCorpCd": "1",
    "running": true,
    "lat": 34.500694,
    "lon": 135.574278,
    "route": "金剛駅前→高辺台小学校前→金剛駅前",
    "stop": "高辺台小学校前",
    "passTime": "18:12",
    "vehicleType": "南海バス(車椅子・ベビーカー・ノンステップ)",
    "updateTime": "2026/07/24 18:13"
  },
  {
    "vehicleNum": "080867",
    "vehicleCd": "364",
    "vehicleCorpCd": "1",
    "running": true,
    "lat": 34.480389,
    "lon": 135.525,
    "route": "泉ヶ丘駅→槙塚台左回り→泉ヶ丘駅",
    "stop": "槙塚台２丁",
    "passTime": "18:12",
    "vehicleType": "南海バス(車椅子・ベビーカー・ノンステップ)",
    "updateTime": "2026/07/24 18:13"
  },
  {
    "vehicleNum": "080869",
    "vehicleCd": "316",
    "vehicleCorpCd": "1",
    "running": true,
    "lat": 34.475889,
    "lon": 135.542889,
    "route": "金剛駅前→狭山ニュータウンセンター→泉ヶ丘駅",
    "stop": "大野台四丁目",
    "passTime": "18:13",
    "vehicleType": "南海バス(車椅子・ベビーカー・ノンステップ)",
    "updateTime": "2026/07/24 18:13"
  },
  {
    "vehicleNum": "080870",
    "vehicleCd": "153",
    "vehicleCorpCd": "1",
    "running": true,
    "lat": 34.584583,
    "lon": 135.496889,
    "route": "河内天美駅前→天美我堂→堺東駅前",
    "stop": "愛泉学園前",
    "passTime": "18:13",
    "vehicleType": "南海バス(車椅子・ベビーカー・ノンステップ)",
    "updateTime": "2026/07/24 18:13"
  },
  {
    "vehicleNum": "080865",
    "vehicleCd": "504",
    "vehicleCorpCd": "1",
    "running": true,
    "lat": 34.595194,
    "lon": 135.462083,
    "route": "【急行】海浜匠町→堺駅西口",
    "stop": "海浜匠町",
    "passTime": "18:00",
    "vehicleType": "南海バス(車椅子・ベビーカー・ノンステップ)",
    "updateTime": "2026/07/24 18:13"
  },
  {
    "vehicleNum": "080873",
    "vehicleCd": "144",
    "vehicleCorpCd": "1",
    "running": true,
    "lat": 34.486889,
    "lon": 135.519194,
    "route": "泉ヶ丘駅→槙塚台左回り→泉ヶ丘駅",
    "stop": "茶山台３丁",
    "passTime": "18:13",
    "vehicleType": "南海バス(車椅子・ベビーカー・ノンステップ)",
    "updateTime": "2026/07/24 18:13"
  },
  {
    "vehicleNum": "080876",
    "vehicleCd": "390",
    "vehicleCorpCd": "1",
    "running": true,
    "lat": 34.514778,
    "lon": 135.463889,
    "route": "北野田駅前→福町→深井駅→鳳駅前",
    "stop": "草部",
    "passTime": "18:12",
    "vehicleType": "南海バス(車椅子・ベビーカー・ノンステップ)",
    "updateTime": "2026/07/24 18:13"
  },
  {
    "vehicleNum": "080874",
    "vehicleCd": "352",
    "vehicleCorpCd": "1",
    "running": true,
    "lat": 34.475694,
    "lon": 135.492889,
    "route": "栂・美木多駅→庭代台左回り→栂・美木多駅",
    "stop": "原山台３丁",
    "passTime": "18:12",
    "vehicleType": "南海バス(車椅子・ベビーカー・ノンステップ)",
    "updateTime": "2026/07/24 18:13"
  },
  {
    "vehicleNum": "080875",
    "vehicleCd": "485",
    "vehicleCorpCd": "1",
    "running": true,
    "lat": 34.501889,
    "lon": 135.521972,
    "route": "泉ヶ丘駅→三原台左回り→泉ヶ丘駅",
    "stop": "三原台センター",
    "passTime": "18:12",
    "vehicleType": "南海バス(車椅子・ベビーカー・ノンステップ)",
    "updateTime": "2026/07/24 18:13"
  },
  {
    "vehicleNum": "080877",
    "vehicleCd": "588",
    "vehicleCorpCd": "1",
    "running": true,
    "lat": 34.556278,
    "lon": 135.503972,
    "route": "堺駅南口→三国ヶ丘駅前→北野田駅前",
    "stop": "中もず町",
    "passTime": "18:12",
    "vehicleType": "南海バス(車椅子・ベビーカー・ノンステップ)",
    "updateTime": "2026/07/24 18:13"
  },
  {
    "vehicleNum": "080879",
    "vehicleCd": "359",
    "vehicleCorpCd": "1",
    "running": true,
    "lat": 34.554472,
    "lon": 135.469583,
    "route": "堺東駅前→上野芝駅前→東山車庫前",
    "stop": "南陵通１丁",
    "passTime": "18:13",
    "vehicleType": "南海バス(車椅子・ベビーカー・ノンステップ)",
    "updateTime": "2026/07/24 18:13"
  },
  {
    "vehicleNum": "080882",
    "vehicleCd": "343",
    "vehicleCorpCd": "1",
    "running": true,
    "lat": 34.518583,
    "lon": 135.4905,
    "route": "津久野駅前→堺市立総合医療センター前→八田荘団地→泉ヶ丘駅",
    "stop": "小阪",
    "passTime": "18:10",
    "vehicleType": "南海バス(車椅子・ベビーカー・ノンステップ)",
    "updateTime": "2026/07/24 18:13"
  },
  {
    "vehicleNum": "080880",
    "vehicleCd": "360",
    "vehicleCorpCd": "1",
    "running": true,
    "lat": 34.560583,
    "lon": 135.450389,
    "route": "石津川駅前→臨港７区→臨港６区→石津川駅前",
    "stop": "石津川駅前",
    "passTime": "18:11",
    "vehicleType": "南海バス(車椅子・ベビーカー・ノンステップ)",
    "updateTime": "2026/07/24 18:13"
  },
  {
    "vehicleNum": "080884",
    "vehicleCd": "116",
    "vehicleCorpCd": "1",
    "running": true,
    "lat": 34.504083,
    "lon": 135.498083,
    "route": "泉ヶ丘駅→泉北２号線→津久野駅前",
    "stop": "宮山台２丁",
    "passTime": "18:12",
    "vehicleType": "南海バス(車椅子・ベビーカー・ノンステップ)",
    "updateTime": "2026/07/24 18:13"
  },
  {
    "vehicleNum": "080895",
    "vehicleCd": "167",
    "vehicleCorpCd": "1",
    "running": true,
    "lat": 34.529889,
    "lon": 135.536278,
    "route": "北野田駅前→多治井北（循環）→北野田駅前",
    "stop": "高松",
    "passTime": "18:13",
    "vehicleType": "南海バス(車椅子・ベビーカー・ノンステップ)",
    "updateTime": "2026/07/24 18:13"
  },
  {
    "vehicleNum": "080903",
    "vehicleCd": "354",
    "vehicleCorpCd": "1",
    "running": true,
    "lat": 34.576194,
    "lon": 135.484278,
    "route": "【急行】海浜匠町→堺東駅前→阪和堺市駅前",
    "stop": "海浜匠町",
    "passTime": "17:40",
    "vehicleType": "南海バス(車椅子・ベビーカー・ワンステップ)",
    "updateTime": "2026/07/24 18:13"
  },
  {
    "vehicleNum": "080902",
    "vehicleCd": "76",
    "vehicleCorpCd": "1",
    "running": true,
    "lat": 34.587,
    "lon": 135.469778,
    "route": "【急行】海浜匠町→堺駅西口",
    "stop": "海浜匠町",
    "passTime": "17:48",
    "vehicleType": "南海バス(車椅子・ベビーカー・ワンステップ)",
    "updateTime": "2026/07/24 18:13"
  },
  {
    "vehicleNum": "080905",
    "vehicleCd": "353",
    "vehicleCorpCd": "1",
    "running": true,
    "lat": 34.491278,
    "lon": 135.527889,
    "route": "泉ヶ丘駅→スマ・エコタウン晴美台→高倉台左回り→泉ヶ丘駅",
    "stop": "高倉台４丁",
    "passTime": "18:12",
    "vehicleType": "南海バス(車椅子・ベビーカー・ノンステップ)",
    "updateTime": "2026/07/24 18:13"
  },
  {
    "vehicleNum": "080906",
    "vehicleCd": "244",
    "vehicleCorpCd": "1",
    "running": true,
    "lat": 34.498194,
    "lon": 135.571,
    "route": "金剛駅前→向陽・藤沢回り→金剛駅前",
    "stop": "公園前",
    "passTime": "18:13",
    "vehicleType": "南海バス(車椅子・ベビーカー・ノンステップ)",
    "updateTime": "2026/07/24 18:13"
  },
  {
    "vehicleNum": "080911",
    "vehicleCd": "240",
    "vehicleCorpCd": "1",
    "running": true,
    "lat": 34.5785,
    "lon": 135.483,
    "route": "匠町→堺駅西口→堺東駅前→阪和堺市駅前",
    "stop": "花田口",
    "passTime": "18:10",
    "vehicleType": "南海バス(車椅子・ベビーカー・ノンステップ)",
    "updateTime": "2026/07/24 18:13"
  },
  {
    "vehicleNum": "080912",
    "vehicleCd": "372",
    "vehicleCorpCd": "1",
    "running": true,
    "lat": 34.578278,
    "lon": 135.4845,
    "route": "匠町→堺駅西口→堺東駅前→阪和堺市駅前",
    "stop": "花田口",
    "passTime": "18:09",
    "vehicleType": "南海バス(車椅子・ベビーカー・ノンステップ)",
    "updateTime": "2026/07/24 18:13"
  },
  {
    "vehicleNum": "080913",
    "vehicleCd": "128",
    "vehicleCorpCd": "1",
    "running": true,
    "lat": 34.566472,
    "lon": 135.494472,
    "route": "堺東駅前→白鷺駅前→堺東駅前（循環）",
    "stop": "三国ヶ丘駅前",
    "passTime": "18:10",
    "vehicleType": "南海バス(車椅子・ベビーカー・ノンステップ)",
    "updateTime": "2026/07/24 18:13"
  },
  {
    "vehicleNum": "080918",
    "vehicleCd": "419",
    "vehicleCorpCd": "1",
    "running": true,
    "lat": 34.597583,
    "lon": 135.446278,
    "route": "堺東駅前→材木町→堺駅西口",
    "stop": "堺浜シーサイドステージ",
    "passTime": "18:11",
    "vehicleType": "南海バス(車椅子・ベビーカー・ノンステップ)",
    "updateTime": "2026/07/24 18:13"
  },
  {
    "vehicleNum": "080920",
    "vehicleCd": "327",
    "vehicleCorpCd": "1",
    "running": true,
    "lat": 34.4865,
    "lon": 135.523278,
    "route": "金剛駅前→帝塚山学院泉ヶ丘校前→泉ヶ丘駅前",
    "stop": "槙塚台１丁",
    "passTime": "18:12",
    "vehicleType": "南海バス(車椅子・ベビーカー・ノンステップ)",
    "updateTime": "2026/07/24 18:13"
  },
  {
    "vehicleNum": "080921",
    "vehicleCd": "143",
    "vehicleCorpCd": "1",
    "running": true,
    "lat": 34.514,
    "lon": 135.494472,
    "route": "泉ヶ丘駅→深阪→津久野駅前",
    "stop": "伏尾",
    "passTime": "18:12",
    "vehicleType": "南海バス(車椅子・ベビーカー・ノンステップ)",
    "updateTime": "2026/07/24 18:13"
  },
  {
    "vehicleNum": "080951",
    "vehicleCd": "597",
    "vehicleCorpCd": "1",
    "running": true,
    "lat": 34.484278,
    "lon": 135.491583,
    "route": "栂・美木多駅→庭代台左回り→栂・美木多駅",
    "stop": "原山公園前",
    "passTime": "18:11",
    "vehicleType": "南海バス(車椅子・ベビーカー・ノンステップ)",
    "updateTime": "2026/07/24 18:13"
  },
  {
    "vehicleNum": "080950",
    "vehicleCd": "513",
    "vehicleCorpCd": "1",
    "running": true,
    "lat": 34.574694,
    "lon": 135.503278,
    "route": "河内松原駅前→阪和堺市駅前→堺駅前",
    "stop": "警察学校前（堺市）",
    "passTime": "18:11",
    "vehicleType": "南海バス(車椅子・ベビーカー・ノンステップ)",
    "updateTime": "2026/07/24 18:14"
  },
  {
    "vehicleNum": "080948",
    "vehicleCd": "276",
    "vehicleCorpCd": "1",
    "running": true,
    "lat": 34.586389,
    "lon": 135.485972,
    "route": "【急行】海浜匠町→堺東駅前→阪和堺市駅前",
    "stop": "海浜匠町",
    "passTime": "17:50",
    "vehicleType": "南海バス(車椅子・ベビーカー・ノンステップ)",
    "updateTime": "2026/07/24 18:14"
  },
  {
    "vehicleNum": "080956",
    "vehicleCd": "71",
    "vehicleCorpCd": "1",
    "running": true,
    "lat": 34.580889,
    "lon": 135.463389,
    "route": "ＡＴＣ→堺東駅前",
    "stop": "ポートタウン東",
    "passTime": "17:47",
    "vehicleType": "南海バス",
    "updateTime": "2026/07/24 18:14"
  },
  {
    "vehicleNum": "080958",
    "vehicleCd": "603",
    "vehicleCorpCd": "1",
    "running": true,
    "lat": 34.616778,
    "lon": 135.435778,
    "route": "堺東駅前→ＡＴＣ",
    "stop": "堺駅前",
    "passTime": "18:00",
    "vehicleType": "南海バス",
    "updateTime": "2026/07/24 18:14"
  },
  {
    "vehicleNum": "080967",
    "vehicleCd": "605",
    "vehicleCorpCd": "1",
    "running": true,
    "lat": 34.540889,
    "lon": 135.534083,
    "route": "初芝駅前→平尾→初芝駅前",
    "stop": "日置荘小学校前",
    "passTime": "18:13",
    "vehicleType": "南海バス(車椅子・ベビーカー・ノンステップ)",
    "updateTime": "2026/07/24 18:14"
  },
  {
    "vehicleNum": "080977",
    "vehicleCd": "388",
    "vehicleCorpCd": "1",
    "running": true,
    "lat": 34.544889,
    "lon": 135.485389,
    "route": "堺東駅前→上野芝→泉ヶ丘駅",
    "stop": "向ヶ丘",
    "passTime": "18:12",
    "vehicleType": "南海バス(車椅子・ベビーカー・ノンステップ)",
    "updateTime": "2026/07/24 18:14"
  },
  {
    "vehicleNum": "080968",
    "vehicleCd": "424",
    "vehicleCorpCd": "1",
    "running": true,
    "lat": 34.546083,
    "lon": 135.492194,
    "route": "中もず駅前→北条→伏尾",
    "stop": "もず陵南町",
    "passTime": "18:13",
    "vehicleType": "南海バス(車椅子・ベビーカー・ノンステップ)",
    "updateTime": "2026/07/24 18:14"
  },
  {
    "vehicleNum": "080978",
    "vehicleCd": "431",
    "vehicleCorpCd": "1",
    "running": true,
    "lat": 34.530083,
    "lon": 135.497583,
    "route": "堺東駅前→もず駅前→深井駅→あみだ池",
    "stop": "深井水池町",
    "passTime": "18:10",
    "vehicleType": "南海バス(車椅子・ベビーカー・ノンステップ)",
    "updateTime": "2026/07/24 18:14"
  },
  {
    "vehicleNum": "080996",
    "vehicleCd": "191",
    "vehicleCorpCd": "1",
    "running": true,
    "lat": 34.532278,
    "lon": 135.470194,
    "route": "津久野駅前→鈴の宮団地センター→深井駅",
    "stop": "毛穴大橋",
    "passTime": "18:13",
    "vehicleType": "南海バス(車椅子・ベビーカー・ノンステップ)",
    "updateTime": "2026/07/24 18:14"
  },
  {
    "vehicleNum": "081003",
    "vehicleCd": "610",
    "vehicleCorpCd": "1",
    "running": true,
    "lat": 34.536278,
    "lon": 135.520583,
    "route": "北野田駅前→西口園→堺駅南口",
    "stop": "関茶屋",
    "passTime": "18:13",
    "vehicleType": "南海バス(車椅子・ベビーカー・ノンステップ)",
    "updateTime": "2026/07/24 18:14"
  },
  {
    "vehicleNum": "081005",
    "vehicleCd": "272",
    "vehicleCorpCd": "1",
    "running": true,
    "lat": 34.517389,
    "lon": 135.510278,
    "route": "泉ヶ丘駅→田園→深井駅",
    "stop": "東中学校前（堺市）",
    "passTime": "18:13",
    "vehicleType": "南海バス(車椅子・ベビーカー・ノンステップ)",
    "updateTime": "2026/07/24 18:14"
  },
  {
    "vehicleNum": "081004",
    "vehicleCd": "271",
    "vehicleCorpCd": "1",
    "running": true,
    "lat": 34.549972,
    "lon": 135.506389,
    "route": "北野田駅前→福町→堺駅南口",
    "stop": "府大研究所前",
    "passTime": "18:11",
    "vehicleType": "南海バス(車椅子・ベビーカー・ノンステップ)",
    "updateTime": "2026/07/24 18:14"
  },
  {
    "vehicleNum": "081007",
    "vehicleCd": "127",
    "vehicleCorpCd": "1",
    "running": true,
    "lat": 34.557694,
    "lon": 135.470778,
    "route": "東山車庫前→小阪→堺東駅前",
    "stop": "緑ヶ丘",
    "passTime": "18:12",
    "vehicleType": "南海バス(車椅子・ベビーカー・ノンステップ)",
    "updateTime": "2026/07/24 18:14"
  },
  {
    "vehicleNum": "081013",
    "vehicleCd": "554",
    "vehicleCorpCd": "1",
    "running": true,
    "lat": 34.540278,
    "lon": 135.470194,
    "route": "堺東駅前→堀上緑町１丁→堺東駅前",
    "stop": "津久野駅前",
    "passTime": "18:11",
    "vehicleType": "南海バス(車椅子・ベビーカー・ノンステップ)",
    "updateTime": "2026/07/24 18:14"
  },
  {
    "vehicleNum": "081018",
    "vehicleCd": "263",
    "vehicleCorpCd": "1",
    "running": true,
    "lat": 34.525778,
    "lon": 135.505778,
    "route": "北野田駅前→福町→深井駅",
    "stop": "北垣外",
    "passTime": "18:10",
    "vehicleType": "南海バス(車椅子・ベビーカー・ノンステップ)",
    "updateTime": "2026/07/24 18:14"
  },
  {
    "vehicleNum": "081021",
    "vehicleCd": "243",
    "vehicleCorpCd": "1",
    "running": true,
    "lat": 34.572278,
    "lon": 135.477278,
    "route": "北野田駅前→西口園→堺駅南口",
    "stop": "安井町",
    "passTime": "18:13",
    "vehicleType": "南海バス(車椅子・ベビーカー・ノンステップ)",
    "updateTime": "2026/07/24 18:14"
  },
  {
    "vehicleNum": "081023",
    "vehicleCd": "264",
    "vehicleCorpCd": "1",
    "running": true,
    "lat": 34.539472,
    "lon": 135.539083,
    "route": "初芝駅前→平尾→初芝駅前",
    "stop": "原寺",
    "passTime": "18:13",
    "vehicleType": "南海バス(車椅子・ベビーカー・ノンステップ)",
    "updateTime": "2026/07/24 18:14"
  },
  {
    "vehicleNum": "081024",
    "vehicleCd": "270",
    "vehicleCorpCd": "1",
    "running": true,
    "lat": 34.561278,
    "lon": 135.473778,
    "route": "堺東駅前→上野芝→泉ヶ丘駅",
    "stop": "旭ヶ丘北町",
    "passTime": "18:13",
    "vehicleType": "南海バス(車椅子・ベビーカー・ノンステップ)",
    "updateTime": "2026/07/24 18:14"
  },
  {
    "vehicleNum": "081035",
    "vehicleCd": "491",
    "vehicleCorpCd": "1",
    "running": true,
    "lat": 34.466,
    "lon": 135.497,
    "route": "栂・美木多駅→御池台回り→栂・美木多駅",
    "stop": "御池台１丁",
    "passTime": "18:12",
    "vehicleType": "南海バス(車椅子・ベビーカー・ノンステップ)",
    "updateTime": "2026/07/24 18:14"
  },
  {
    "vehicleNum": "081043",
    "vehicleCd": "612",
    "vehicleCorpCd": "1",
    "running": true,
    "lat": 34.4705,
    "lon": 135.494194,
    "route": "栂・美木多駅→御池台回り→栂・美木多駅",
    "stop": "庭代台１丁",
    "passTime": "18:13",
    "vehicleType": "南海バス(車椅子・ベビーカー・ノンステップ)",
    "updateTime": "2026/07/24 18:14"
  },
  {
    "vehicleNum": "090160",
    "vehicleCd": "72",
    "vehicleCorpCd": "2",
    "running": true,
    "lat": 34.455194,
    "lon": 135.384694,
    "route": "岸和田駅前→下松駅前→道の駅愛彩ランド",
    "stop": "岸和田警察署前",
    "passTime": "18:13",
    "vehicleType": "南海ウイングバス(車椅子・ワンステップ)",
    "updateTime": "2026/07/24 18:14"
  },
  {
    "vehicleNum": "090103",
    "vehicleCd": "49",
    "vehicleCorpCd": "2",
    "running": true,
    "lat": 34.471694,
    "lon": 135.393778,
    "route": "和泉中央駅→荒木町→岸和田駅前",
    "stop": "中央公園前",
    "passTime": "18:13",
    "vehicleType": "南海ウイングバス(車椅子・ベビーカー・ワンステップ)",
    "updateTime": "2026/07/24 18:14"
  },
  {
    "vehicleNum": "091107",
    "vehicleCd": "23",
    "vehicleCorpCd": "2",
    "running": true,
    "lat": 34.461889,
    "lon": 135.395389,
    "route": "岸和田駅前→内畑→牛滝温泉",
    "stop": "市民病院前",
    "passTime": "18:14",
    "vehicleType": "南海ウイングバス(車椅子・ワンステップ)",
    "updateTime": "2026/07/24 18:14"
  },
  {
    "vehicleNum": "091186",
    "vehicleCd": "106",
    "vehicleCorpCd": "2",
    "running": true,
    "lat": 34.467778,
    "lon": 135.405389,
    "route": "岸和田駅前→荒木町→和泉中央駅",
    "stop": "下池田",
    "passTime": "18:09",
    "vehicleType": "南海ウイングバス(車椅子・ベビーカー・ワンステップ)",
    "updateTime": "2026/07/24 18:14"
  },
  {
    "vehicleNum": "091202",
    "vehicleCd": "275",
    "vehicleCorpCd": "1",
    "running": true,
    "lat": 34.572389,
    "lon": 135.477194,
    "route": "北野田駅前→福町→堺駅南口",
    "stop": "安井町",
    "passTime": "18:13",
    "vehicleType": "南海バス(車椅子・ベビーカー・ワンステップ)",
    "updateTime": "2026/07/24 18:14"
  },
  {
    "vehicleNum": "091243",
    "vehicleCd": "13",
    "vehicleCorpCd": "2",
    "running": true,
    "lat": 34.332389,
    "lon": 135.220778,
    "route": "箱作駅前→桃の木台回り→箱作駅前",
    "stop": "桃の木台１丁目",
    "passTime": "18:12",
    "vehicleType": "南海ウイングバス(車椅子・ワンステップ)",
    "updateTime": "2026/07/24 18:14"
  },
  {
    "vehicleNum": "091595",
    "vehicleCd": "199",
    "vehicleCorpCd": "1",
    "running": true,
    "lat": 34.433194,
    "lon": 135.236083,
    "route": "給油地区→ＦｅｄＥｘ→空港駅",
    "stop": "機内食前",
    "passTime": "18:10",
    "vehicleType": "南海バス(車椅子・ノンステップ)",
    "updateTime": "2026/07/24 18:14"
  },
  {
    "vehicleNum": "091601",
    "vehicleCd": "202",
    "vehicleCorpCd": "1",
    "running": true,
    "lat": 34.4255,
    "lon": 135.231083,
    "route": "貨物合同庁舎前→空港駅",
    "stop": "第2代理店ビル前",
    "passTime": "18:12",
    "vehicleType": "南海バス(車椅子・ノンステップ)",
    "updateTime": "2026/07/24 18:14"
  },
  {
    "vehicleNum": "091600",
    "vehicleCd": "201",
    "vehicleCorpCd": "1",
    "running": true,
    "lat": 34.433583,
    "lon": 135.236889,
    "route": "貨物合同庁舎前→空港駅",
    "stop": "機内食前",
    "passTime": "18:10",
    "vehicleType": "南海バス(車椅子・ノンステップ)",
    "updateTime": "2026/07/24 18:14"
  },
  {
    "vehicleNum": "091784",
    "vehicleCd": "119",
    "vehicleCorpCd": "2",
    "running": true,
    "lat": 34.396,
    "lon": 135.359889,
    "route": "熊取町　自然公園方面循環コース",
    "stop": "山の手台口",
    "passTime": "18:14",
    "vehicleType": "熊取町コミュニティバス(ジャンプ君号)",
    "updateTime": "2026/07/24 18:14"
  },
  {
    "vehicleNum": "091785",
    "vehicleCd": "120",
    "vehicleCorpCd": "2",
    "running": true,
    "lat": 34.402694,
    "lon": 135.351694,
    "route": "熊取町　七山方面循環コース",
    "stop": "熊取町役場前",
    "passTime": "18:10",
    "vehicleType": "熊取町コミュニティバス(メジーナちゃん号)",
    "updateTime": "2026/07/24 18:14"
  },
  {
    "vehicleNum": "091893",
    "vehicleCd": "84",
    "vehicleCorpCd": "2",
    "running": true,
    "lat": 34.360778,
    "lon": 135.282278,
    "route": "泉南市コミュニティバス 新家回り",
    "stop": "砂川駅前",
    "passTime": "18:13",
    "vehicleType": "岸和田市コミュニティバス(ローズバス)",
    "updateTime": "2026/07/24 18:14"
  },
  {
    "vehicleNum": "091894",
    "vehicleCd": "3",
    "vehicleCorpCd": "2",
    "running": true,
    "lat": 34.362889,
    "lon": 135.277389,
    "route": "泉南市コミュニティバス 一丘Ａ回り",
    "stop": "砂川駅前通り",
    "passTime": "18:13",
    "vehicleType": "泉南市コミュニティバス(紫)",
    "updateTime": "2026/07/24 18:14"
  },
  {
    "vehicleNum": "091895",
    "vehicleCd": "4",
    "vehicleCorpCd": "2",
    "running": true,
    "lat": 34.327,
    "lon": 135.303778,
    "route": "泉南市コミュニティバス 山回り",
    "stop": "童子畑",
    "passTime": "18:13",
    "vehicleType": "泉南市コミュニティバス(ピンク)",
    "updateTime": "2026/07/24 18:14"
  },
  {
    "vehicleNum": "092046",
    "vehicleCd": "464",
    "vehicleCorpCd": "1",
    "running": true,
    "lat": 34.474083,
    "lon": 135.574389,
    "route": "ﾓｯｸﾙ 美加～木戸東町～美加",
    "stop": "木戸東町",
    "passTime": "18:12",
    "vehicleType": "南海バス(車椅子・ベビーカー・ノンステップ)",
    "updateTime": "2026/07/24 18:14"
  },
  {
    "vehicleNum": "092140",
    "vehicleCd": "526",
    "vehicleCorpCd": "1",
    "running": true,
    "lat": 34.636694,
    "lon": 135.428083,
    "route": "ＡＴＣ→堺東駅前",
    "stop": "インテックス大阪東",
    "passTime": "18:12",
    "vehicleType": "南海バス",
    "updateTime": "2026/07/24 18:14"
  },
  {
    "vehicleNum": "092372",
    "vehicleCd": "159",
    "vehicleCorpCd": "1",
    "running": true,
    "lat": 34.458889,
    "lon": 135.480389,
    "route": "光明池駅→光明池車庫→和泉中央駅→泉大津駅前",
    "stop": "光明池車庫",
    "passTime": "18:13",
    "vehicleType": "南海バス(車椅子・ベビーカー・ノンステップ)",
    "updateTime": "2026/07/24 18:14"
  },
  {
    "vehicleNum": "092373",
    "vehicleCd": "553",
    "vehicleCorpCd": "1",
    "running": true,
    "lat": 34.466194,
    "lon": 135.463389,
    "route": "和泉中央駅→阪本→泉大津駅前",
    "stop": "和泉中央駅",
    "passTime": "18:05",
    "vehicleType": "南海バス(車椅子・ベビーカー・ノンステップ)",
    "updateTime": "2026/07/24 18:14"
  },
  {
    "vehicleNum": "092383",
    "vehicleCd": "44",
    "vehicleCorpCd": "1",
    "running": true,
    "lat": 34.462278,
    "lon": 135.443694,
    "route": "泉大津駅前→和泉府中駅前→和泉中央駅",
    "stop": "箕形",
    "passTime": "18:13",
    "vehicleType": "南海バス(車椅子・ベビーカー・ワンステップ)",
    "updateTime": "2026/07/24 18:14"
  },
  {
    "vehicleNum": "092394",
    "vehicleCd": "42",
    "vehicleCorpCd": "1",
    "running": true,
    "lat": 34.436,
    "lon": 135.234583,
    "route": "エアロプラザ→第２ターミナル(国内線・国際線)→エアロプラザ",
    "stop": "エアロプラザ",
    "passTime": "18:10",
    "vehicleType": "南海バス(車椅子・ノンステップ)",
    "updateTime": "2026/07/24 18:14"
  },
  {
    "vehicleNum": "092384",
    "vehicleCd": "558",
    "vehicleCorpCd": "1",
    "running": true,
    "lat": 34.557694,
    "lon": 135.470778,
    "route": "堺東駅前→鳳駅前→光明池駅",
    "stop": "緑ヶ丘",
    "passTime": "18:13",
    "vehicleType": "南海バス(車椅子・ベビーカー・ノンステップ)",
    "updateTime": "2026/07/24 18:14"
  },
  {
    "vehicleNum": "092398",
    "vehicleCd": "41",
    "vehicleCorpCd": "1",
    "running": true,
    "lat": 34.436972,
    "lon": 135.234278,
    "route": "エアロプラザ→第２ターミナル(国内線・国際線)→エアロプラザ",
    "stop": "第2ターミナル国際線",
    "passTime": "18:13",
    "vehicleType": "南海バス(車椅子・ノンステップ)",
    "updateTime": "2026/07/24 18:14"
  },
  {
    "vehicleNum": "092447",
    "vehicleCd": "573",
    "vehicleCorpCd": "1",
    "running": true,
    "lat": 34.426694,
    "lon": 135.226694,
    "route": "給油地区→直行→空港駅",
    "stop": "浄化センター前",
    "passTime": "18:12",
    "vehicleType": "南海バス(車椅子・ベビーカー・ノンステップ)",
    "updateTime": "2026/07/24 18:14"
  },
  {
    "vehicleNum": "092454",
    "vehicleCd": "125",
    "vehicleCorpCd": "2",
    "running": true,
    "lat": 34.352694,
    "lon": 135.279278,
    "route": "泉南市コミュニティバス 南Ａ回り",
    "stop": "府立支援学校前（裏門）",
    "passTime": "18:11",
    "vehicleType": "泉南市コミュニティバス(橙)",
    "updateTime": "2026/07/24 18:14"
  },
  {
    "vehicleNum": "092469",
    "vehicleCd": "220",
    "vehicleCorpCd": "1",
    "running": true,
    "lat": 34.420278,
    "lon": 135.559694,
    "route": "三日市町駅前→南花台１丁目北→大矢船西町",
    "stop": "大矢船北町（南花台系統）",
    "passTime": "18:13",
    "vehicleType": "南海バス(車椅子・ベビーカー・ノンステップ)",
    "updateTime": "2026/07/24 18:14"
  },
  {
    "vehicleNum": "092468",
    "vehicleCd": "51",
    "vehicleCorpCd": "1",
    "running": true,
    "lat": 34.467583,
    "lon": 135.555778,
    "route": "貴望ヶ丘→千代田駅前",
    "stop": "貴望ヶ丘",
    "passTime": "18:13",
    "vehicleType": "南海バス(車椅子・ベビーカー・ノンステップ)",
    "updateTime": "2026/07/24 18:14"
  },
  {
    "vehicleNum": "092482",
    "vehicleCd": "528",
    "vehicleCorpCd": "1",
    "running": true,
    "lat": 34.438278,
    "lon": 135.583889,
    "route": "三日市町駅前→清見台回り→三日市町駅前",
    "stop": "清見台２丁目",
    "passTime": "18:14",
    "vehicleType": "南海バス(車椅子・ベビーカー・ノンステップ)",
    "updateTime": "2026/07/24 18:14"
  },
  {
    "vehicleNum": "092533",
    "vehicleCd": "288",
    "vehicleCorpCd": "1",
    "running": true,
    "lat": 34.489583,
    "lon": 135.418194,
    "route": "泉大津駅前→和泉府中駅前→光明池駅",
    "stop": "我孫子",
    "passTime": "18:12",
    "vehicleType": "南海バス(車椅子・ベビーカー・ノンステップ)",
    "updateTime": "2026/07/24 18:14"
  },
  {
    "vehicleNum": "092570",
    "vehicleCd": "577",
    "vehicleCorpCd": "1",
    "running": true,
    "lat": 34.494278,
    "lon": 135.466694,
    "route": "光明池駅→山田→堺東駅前",
    "stop": "自動車検査場前",
    "passTime": "18:14",
    "vehicleType": "南海バス(車椅子・ベビーカー・ノンステップ)",
    "updateTime": "2026/07/24 18:14"
  },
  {
    "vehicleNum": "092572",
    "vehicleCd": "313",
    "vehicleCorpCd": "1",
    "running": true,
    "lat": 34.542778,
    "lon": 135.463389,
    "route": "堺東駅前→鳳駅前→栂・美木多駅",
    "stop": "下田",
    "passTime": "18:12",
    "vehicleType": "南海バス(車椅子・ベビーカー・ノンステップ)",
    "updateTime": "2026/07/24 18:14"
  },
  {
    "vehicleNum": "092577",
    "vehicleCd": "578",
    "vehicleCorpCd": "1",
    "running": true,
    "lat": 34.437694,
    "lon": 135.596389,
    "route": "河内長野駅前→河合寺→小吹台",
    "stop": "観心寺",
    "passTime": "18:14",
    "vehicleType": "南海バス(車椅子・ベビーカー・ノンステップ)",
    "updateTime": "2026/07/24 18:14"
  },
  {
    "vehicleNum": "092579",
    "vehicleCd": "579",
    "vehicleCorpCd": "1",
    "running": true,
    "lat": 34.457889,
    "lon": 135.559583,
    "route": "千代田駅前→赤峯→緑ヶ丘北町",
    "stop": "赤峰",
    "passTime": "18:13",
    "vehicleType": "南海バス(車椅子・ベビーカー・ノンステップ)",
    "updateTime": "2026/07/24 18:14"
  },
  {
    "vehicleNum": "092569",
    "vehicleCd": "266",
    "vehicleCorpCd": "1",
    "running": true,
    "lat": 34.4805,
    "lon": 135.474583,
    "route": "光明池駅→新檜尾台センター→光明池駅",
    "stop": "新檜尾台センター",
    "passTime": "18:13",
    "vehicleType": "南海バス(車椅子・ベビーカー・ノンステップ)",
    "updateTime": "2026/07/24 18:14"
  },
  {
    "vehicleNum": "092580",
    "vehicleCd": "377",
    "vehicleCorpCd": "1",
    "running": true,
    "lat": 34.480278,
    "lon": 135.430194,
    "route": "和泉府中駅前→いぶき野→和泉中央駅",
    "stop": "福祉会館前",
    "passTime": "18:13",
    "vehicleType": "南海バス(車椅子・ベビーカー・ノンステップ)",
    "updateTime": "2026/07/24 18:14"
  },
  {
    "vehicleNum": "092581",
    "vehicleCd": "375",
    "vehicleCorpCd": "1",
    "running": true,
    "lat": 34.486278,
    "lon": 135.424778,
    "route": "和泉中央駅→寺田→泉大津駅前",
    "stop": "和泉府中駅前",
    "passTime": "18:12",
    "vehicleType": "南海バス(車椅子・ベビーカー・ノンステップ)",
    "updateTime": "2026/07/24 18:14"
  },
  {
    "vehicleNum": "092620",
    "vehicleCd": "311",
    "vehicleCorpCd": "1",
    "running": true,
    "lat": 34.437389,
    "lon": 135.544194,
    "route": "旭ヶ丘→水落→河内長野駅前",
    "stop": "清崎",
    "passTime": "18:13",
    "vehicleType": "南海バス(車椅子・ベビーカー・ノンステップ)",
    "updateTime": "2026/07/24 18:14"
  },
  {
    "vehicleNum": "092711",
    "vehicleCd": "355",
    "vehicleCorpCd": "1",
    "running": true,
    "lat": 34.447194,
    "lon": 135.493083,
    "route": "みずき台２丁目西→光明池駅",
    "stop": "みずき台一丁目",
    "passTime": "18:14",
    "vehicleType": "南海バス(車椅子・ベビーカー・ノンステップ)",
    "updateTime": "2026/07/24 18:14"
  },
  {
    "vehicleNum": "092734",
    "vehicleCd": "289",
    "vehicleCorpCd": "1",
    "running": true,
    "lat": 34.452278,
    "lon": 135.568694,
    "route": "河内長野駅前→水落→旭ヶ丘",
    "stop": "河内長野駅前",
    "passTime": "18:12",
    "vehicleType": "南海バス(車椅子・ベビーカー・ノンステップ)",
    "updateTime": "2026/07/24 18:14"
  },
  {
    "vehicleNum": "092757",
    "vehicleCd": "306",
    "vehicleCorpCd": "1",
    "running": true,
    "lat": 34.425389,
    "lon": 135.554389,
    "route": "三日市町駅前→南花台１丁目北→南ヶ丘",
    "stop": "南花台４丁目",
    "passTime": "18:13",
    "vehicleType": "南海バス(車椅子・ベビーカー・ノンステップ)",
    "updateTime": "2026/07/24 18:14"
  },
  {
    "vehicleNum": "092763",
    "vehicleCd": "520",
    "vehicleCorpCd": "1",
    "running": true,
    "lat": 34.447389,
    "lon": 135.457583,
    "route": "美術館前→のぞみ野南→和泉中央駅",
    "stop": "内田上",
    "passTime": "18:12",
    "vehicleType": "南海バス(車椅子・ベビーカー・ノンステップ)",
    "updateTime": "2026/07/24 18:14"
  },
  {
    "vehicleNum": "092831",
    "vehicleCd": "417",
    "vehicleCorpCd": "1",
    "running": true,
    "lat": 34.447889,
    "lon": 135.473694,
    "route": "和泉中央駅→和泉青葉台",
    "stop": "南池田小学校前",
    "passTime": "18:14",
    "vehicleType": "南海バス(車椅子・ベビーカー・ノンステップ)",
    "updateTime": "2026/07/24 18:14"
  },
  {
    "vehicleNum": "092856",
    "vehicleCd": "601",
    "vehicleCorpCd": "1",
    "running": true,
    "lat": 34.470972,
    "lon": 135.476,
    "route": "光明池駅→変電所前→公団西口→光明池車庫",
    "stop": "光明池駅",
    "passTime": "18:10",
    "vehicleType": "南海バス(車椅子・ベビーカー・ノンステップ)",
    "updateTime": "2026/07/24 18:14"
  },
  {
    "vehicleNum": "092859",
    "vehicleCd": "32",
    "vehicleCorpCd": "1",
    "running": true,
    "lat": 34.413694,
    "lon": 135.571889,
    "route": "三日市町駅東→南青葉台中央",
    "stop": "南青葉台",
    "passTime": "18:12",
    "vehicleType": "南海バス(車椅子・ベビーカー・ノンステップ)",
    "updateTime": "2026/07/24 18:14"
  },
  {
    "vehicleNum": "092860",
    "vehicleCd": "379",
    "vehicleCorpCd": "1",
    "running": true,
    "lat": 34.424583,
    "lon": 135.591389,
    "route": "美加の台駅前→美加の台口→美加の台駅前",
    "stop": "美加の台東",
    "passTime": "18:13",
    "vehicleType": "南海バス(車椅子・ベビーカー・ノンステップ)",
    "updateTime": "2026/07/24 18:14"
  },
  {
    "vehicleNum": "092863",
    "vehicleCd": "371",
    "vehicleCorpCd": "1",
    "running": true,
    "lat": 34.527889,
    "lon": 135.462389,
    "route": "国分峠東→栂・美木多駅→堺東駅前",
    "stop": "上北",
    "passTime": "18:13",
    "vehicleType": "南海バス(車椅子・ベビーカー・ノンステップ)",
    "updateTime": "2026/07/24 18:14"
  },
  {
    "vehicleNum": "092871",
    "vehicleCd": "33",
    "vehicleCorpCd": "1",
    "running": true,
    "lat": 34.481472,
    "lon": 135.436583,
    "route": "泉大津駅前→和泉中央駅→和泉青葉台",
    "stop": "桑原",
    "passTime": "18:12",
    "vehicleType": "南海バス(車椅子・ベビーカー・ノンステップ)",
    "updateTime": "2026/07/24 18:14"
  },
  {
    "vehicleNum": "092862",
    "vehicleCd": "602",
    "vehicleCorpCd": "1",
    "running": true,
    "lat": 34.533278,
    "lon": 135.463194,
    "route": "堺東駅前→鳳駅前→光明池駅",
    "stop": "鳳駅前",
    "passTime": "18:07",
    "vehicleType": "南海バス(車椅子・ベビーカー・ノンステップ)",
    "updateTime": "2026/07/24 18:14"
  },
  {
    "vehicleNum": "092872",
    "vehicleCd": "500",
    "vehicleCorpCd": "1",
    "running": true,
    "lat": 34.437778,
    "lon": 135.449583,
    "route": "テクノステージセンター前→府立産技研前→和泉中央駅",
    "stop": "ららぽーと和泉前",
    "passTime": "18:13",
    "vehicleType": "南海バス(車椅子・ベビーカー・ノンステップ)",
    "updateTime": "2026/07/24 18:14"
  },
  {
    "vehicleNum": "092873",
    "vehicleCd": "234",
    "vehicleCorpCd": "1",
    "running": true,
    "lat": 34.458694,
    "lon": 135.456778,
    "route": "和泉中央駅→はつが野→和泉青葉台→和泉中央駅（左回り）",
    "stop": "和泉中央駅",
    "passTime": "18:12",
    "vehicleType": "南海バス(車椅子・ベビーカー・ノンステップ)",
    "updateTime": "2026/07/24 18:14"
  },
  {
    "vehicleNum": "092913",
    "vehicleCd": "154",
    "vehicleCorpCd": "1",
    "running": true,
    "lat": 34.480583,
    "lon": 135.429694,
    "route": "和泉中央駅→いぶき野→和泉府中駅前",
    "stop": "福祉会館前",
    "passTime": "18:13",
    "vehicleType": "南海バス(車椅子・ベビーカー・ノンステップ)",
    "updateTime": "2026/07/24 18:14"
  },
  {
    "vehicleNum": "092901",
    "vehicleCd": "356",
    "vehicleCorpCd": "1",
    "running": true,
    "lat": 34.47,
    "lon": 135.477083,
    "route": "光明池駅→城山台５丁→光明池車庫",
    "stop": "東室堂",
    "passTime": "18:13",
    "vehicleType": "南海バス(車椅子・ベビーカー・ノンステップ)",
    "updateTime": "2026/07/24 18:14"
  },
  {
    "vehicleNum": "092915",
    "vehicleCd": "346",
    "vehicleCorpCd": "1",
    "running": true,
    "lat": 34.450889,
    "lon": 135.572389,
    "route": "長野→こんごう福祉",
    "stop": "河合寺",
    "passTime": "18:07",
    "vehicleType": "南海バス(車椅子・ベビーカー・ノンステップ)",
    "updateTime": "2026/07/24 18:14"
  },
  {
    "vehicleNum": "092916",
    "vehicleCd": "235",
    "vehicleCorpCd": "1",
    "running": true,
    "lat": 34.4395,
    "lon": 135.467194,
    "route": "和泉中央駅→はつが野六丁目→和泉中央駅",
    "stop": "はつが野六丁目",
    "passTime": "18:13",
    "vehicleType": "南海バス(車椅子・ベビーカー・ノンステップ)",
    "updateTime": "2026/07/24 18:14"
  },
  {
    "vehicleNum": "092937",
    "vehicleCd": "73",
    "vehicleCorpCd": "1",
    "running": true,
    "lat": 34.429,
    "lon": 135.450194,
    "route": "和泉中央駅→テクノステージセンター前→グリーンポリス前→和泉中央駅",
    "stop": "テクノステージ口",
    "passTime": "18:13",
    "vehicleType": "南海バス(車椅子・ベビーカー・ノンステップ)",
    "updateTime": "2026/07/24 18:14"
  },
  {
    "vehicleNum": "092950",
    "vehicleCd": "257",
    "vehicleCorpCd": "1",
    "running": true,
    "lat": 34.473972,
    "lon": 135.476278,
    "route": "堺東駅前→鳳駅前→光明池駅",
    "stop": "変電所前",
    "passTime": "18:09",
    "vehicleType": "南海バス(車椅子・ベビーカー・ノンステップ)",
    "updateTime": "2026/07/24 18:14"
  },
  {
    "vehicleNum": "092948",
    "vehicleCd": "606",
    "vehicleCorpCd": "1",
    "running": true,
    "lat": 34.533194,
    "lon": 135.462694,
    "route": "光明池駅→山田→堺東駅前",
    "stop": "鳳駅前",
    "passTime": "18:09",
    "vehicleType": "南海バス(車椅子・ベビーカー・ノンステップ)",
    "updateTime": "2026/07/24 18:14"
  },
  {
    "vehicleNum": "092952",
    "vehicleCd": "113",
    "vehicleCorpCd": "1",
    "running": true,
    "lat": 34.455778,
    "lon": 135.445889,
    "route": "ららぽーと和泉前→和泉中央駅→和泉府中駅前",
    "stop": "ららぽーと和泉前",
    "passTime": "18:03",
    "vehicleType": "南海バス(車椅子・ベビーカー・ノンステップ)",
    "updateTime": "2026/07/24 18:14"
  },
  {
    "vehicleNum": "092978",
    "vehicleCd": "325",
    "vehicleCorpCd": "1",
    "running": true,
    "lat": 34.497694,
    "lon": 135.412778,
    "route": "泉大津駅前→和泉府中駅前→和泉中央駅",
    "stop": "池浦中央",
    "passTime": "18:14",
    "vehicleType": "南海バス(車椅子・ベビーカー・ノンステップ)",
    "updateTime": "2026/07/24 18:14"
  },
  {
    "vehicleNum": "093003",
    "vehicleCd": "111",
    "vehicleCorpCd": "1",
    "running": true,
    "lat": 34.502472,
    "lon": 135.4065,
    "route": "光明池駅→光明池車庫→和泉中央駅→泉大津駅前",
    "stop": "旭町",
    "passTime": "18:12",
    "vehicleType": "南海バス(車椅子・ベビーカー・ノンステップ)",
    "updateTime": "2026/07/24 18:14"
  },
  {
    "vehicleNum": "093011",
    "vehicleCd": "27",
    "vehicleCorpCd": "1",
    "running": true,
    "lat": 34.425389,
    "lon": 135.230889,
    "route": "空港駅→国際循環→空港駅",
    "stop": "第2代理店ビル前",
    "passTime": "18:13",
    "vehicleType": "南海バス(車椅子・ベビーカー・ノンステップ)",
    "updateTime": "2026/07/24 18:14"
  },
  {
    "vehicleNum": "093032",
    "vehicleCd": "231",
    "vehicleCorpCd": "1",
    "running": true,
    "lat": 34.436694,
    "lon": 135.241278,
    "route": "エアロプラザ→第２ターミナル(国内線・国際線)→エアロプラザ",
    "stop": "第2ターミナル国際線",
    "passTime": "18:09",
    "vehicleType": "南海バス",
    "updateTime": "2026/07/24 18:14"
  },
  {
    "vehicleNum": "093071",
    "vehicleCd": "274",
    "vehicleCorpCd": "1",
    "running": true,
    "lat": 34.457694,
    "lon": 135.450694,
    "route": "和泉中央駅→寺田→泉大津駅前",
    "stop": "和泉中央駅",
    "passTime": "18:12",
    "vehicleType": "南海バス(車椅子・ベビーカー・ノンステップ)",
    "updateTime": "2026/07/24 18:14"
  },
  {
    "vehicleNum": "093046",
    "vehicleCd": "246",
    "vehicleCorpCd": "1",
    "running": true,
    "lat": 34.558972,
    "lon": 135.471889,
    "route": "栂・美木多駅→鳳駅前→堺東駅前",
    "stop": "緑ヶ丘",
    "passTime": "18:13",
    "vehicleType": "南海バス(車椅子・ベビーカー・ノンステップ)",
    "updateTime": "2026/07/24 18:14"
  },
  {
    "vehicleNum": "093054",
    "vehicleCd": "396",
    "vehicleCorpCd": "1",
    "running": true,
    "lat": 34.487778,
    "lon": 135.424083,
    "route": "泉大津駅前→和泉府中駅前→和泉中央駅",
    "stop": "泉大津急性期メディカルセンター前",
    "passTime": "18:05",
    "vehicleType": "南海バス(車椅子・ベビーカー・ノンステップ)",
    "updateTime": "2026/07/24 18:14"
  },
  {
    "vehicleNum": "093073",
    "vehicleCd": "370",
    "vehicleCorpCd": "1",
    "running": true,
    "lat": 34.458583,
    "lon": 135.489194,
    "route": "光明池車庫→城山台５丁→光明池駅",
    "stop": "光明台一丁目",
    "passTime": "18:14",
    "vehicleType": "南海バス(車椅子・ベビーカー・ノンステップ)",
    "updateTime": "2026/07/24 18:14"
  }
]