[
  {
    "vehicleNum": "070101",
    "vehicleCd": "400",
    "vehicleCorpCd": "1",
    "running": true,
    "lat": 34.487889,
    "lon": 135.522278,
    "route": "金剛駅前→狭山ニュータウンセンター→泉ヶ丘駅",
    "stop": "茶山台南口",
    "passTime": "20:48",
    "vehicleType": "泉北コミュニティバス(車椅子・ベビーカー・ノンステップ)",
    "updateTime": "2026/07/23 20:48"
  },
  {
    "vehicleNum": "080184",
    "vehicleCd": "34",
    "vehicleCorpCd": "2",
    "running": true,
    "lat": 34.410278,
    "lon": 135.3385,
    "route": "熊取ニュータウン→熊取駅前→上瓦屋町→泉佐野駅前（フリー乗降）",
    "stop": "佐野台口",
    "passTime": "20:47",
    "vehicleType": "南海ウイングバス(車椅子・ベビーカー・ノンステップ)",
    "updateTime": "2026/07/23 20:48"
  },
  {
    "vehicleNum": "080255",
    "vehicleCd": "113",
    "vehicleCorpCd": "2",
    "running": true,
    "lat": 34.405778,
    "lon": 135.341278,
    "route": "熊取駅前→つばさが丘北口",
    "stop": "熊取駅前",
    "passTime": "20:47",
    "vehicleType": "南海ウイングバス(車椅子・ベビーカー・ノンステップ)",
    "updateTime": "2026/07/23 20:48"
  },
  {
    "vehicleNum": "080268",
    "vehicleCd": "114",
    "vehicleCorpCd": "2",
    "running": true,
    "lat": 34.406194,
    "lon": 135.363083,
    "route": "熊取ニュータウン→熊取駅前（フリー乗降）",
    "stop": "若葉",
    "passTime": "20:46",
    "vehicleType": "南海ウイングバス(車椅子・ベビーカー・ノンステップ)",
    "updateTime": "2026/07/23 20:48"
  },
  {
    "vehicleNum": "080321",
    "vehicleCd": "14",
    "vehicleCorpCd": "2",
    "running": true,
    "lat": 34.457583,
    "lon": 135.424,
    "route": "岸和田駅前→内畑→白原車庫",
    "stop": "岡山",
    "passTime": "20:47",
    "vehicleType": "南海ウイングバス(車椅子・ワンステップ)",
    "updateTime": "2026/07/23 20:48"
  },
  {
    "vehicleNum": "080322",
    "vehicleCd": "116",
    "vehicleCorpCd": "2",
    "running": true,
    "lat": 34.448389,
    "lon": 135.384583,
    "route": "岸和田駅前→天神山・一の宮循環　左回り→岸和田駅前",
    "stop": "岸和田警察署前",
    "passTime": "20:42",
    "vehicleType": "南海ウイングバス(車椅子・ワンステップ)",
    "updateTime": "2026/07/23 20:48"
  },
  {
    "vehicleNum": "080388",
    "vehicleCd": "52",
    "vehicleCorpCd": "2",
    "running": true,
    "lat": 34.405194,
    "lon": 135.338694,
    "route": "泉佐野駅前→泉陽ヶ丘→熊取駅前→山の手台→小谷→野田中央",
    "stop": "泉陽ヶ丘",
    "passTime": "20:47",
    "vehicleType": "南海ウイングバス(車椅子・ベビーカー・ワンステップ)",
    "updateTime": "2026/07/23 20:48"
  },
  {
    "vehicleNum": "080628",
    "vehicleCd": "445",
    "vehicleCorpCd": "1",
    "running": true,
    "lat": 34.565389,
    "lon": 135.5175,
    "route": "美原区役所→野遠→地下鉄新金岡駅前",
    "stop": "北区役所前",
    "passTime": "20:47",
    "vehicleType": "南海バス(車椅子・ベビーカー・ノンステップ)",
    "updateTime": "2026/07/23 20:48"
  },
  {
    "vehicleNum": "080641",
    "vehicleCd": "421",
    "vehicleCorpCd": "1",
    "running": true,
    "lat": 34.577083,
    "lon": 135.497389,
    "route": "河内松原駅前→阪和堺市駅前→堺駅前",
    "stop": "阪和堺市駅前",
    "passTime": "20:47",
    "vehicleType": "南海バス(車椅子・ベビーカー・ノンステップ)",
    "updateTime": "2026/07/23 20:48"
  },
  {
    "vehicleNum": "080652",
    "vehicleCd": "456",
    "vehicleCorpCd": "1",
    "running": true,
    "lat": 34.534972,
    "lon": 135.536194,
    "route": "北野田駅前→多治井北（循環）→北野田駅前",
    "stop": "東区役所前",
    "passTime": "20:47",
    "vehicleType": "南海バス",
    "updateTime": "2026/07/23 20:48"
  },
  {
    "vehicleNum": "080651",
    "vehicleCd": "455",
    "vehicleCorpCd": "1",
    "running": true,
    "lat": 34.538583,
    "lon": 135.560583,
    "route": "美原区役所→初芝駅前→美原区役所",
    "stop": "美原区役所前",
    "passTime": "20:48",
    "vehicleType": "南海バス",
    "updateTime": "2026/07/23 20:48"
  },
  {
    "vehicleNum": "080671",
    "vehicleCd": "465",
    "vehicleCorpCd": "1",
    "running": true,
    "lat": 34.588889,
    "lon": 135.5335,
    "route": "河内天美駅前→天美我堂→堺東駅前",
    "stop": "河内天美駅前",
    "passTime": "20:45",
    "vehicleType": "南海バス(車椅子・ベビーカー・ノンステップ)",
    "updateTime": "2026/07/23 20:48"
  },
  {
    "vehicleNum": "080698",
    "vehicleCd": "531",
    "vehicleCorpCd": "1",
    "running": true,
    "lat": 34.565583,
    "lon": 135.494,
    "route": "堺東駅前→白鷺駅前→堺東駅前（循環）",
    "stop": "細池橋",
    "passTime": "20:46",
    "vehicleType": "南海バス",
    "updateTime": "2026/07/23 20:48"
  },
  {
    "vehicleNum": "080706",
    "vehicleCd": "543",
    "vehicleCorpCd": "1",
    "running": true,
    "lat": 34.6025,
    "lon": 135.458694,
    "route": "匠町→住之江公園駅前→匠町",
    "stop": "堺浜北",
    "passTime": "20:47",
    "vehicleType": "南海バス(車椅子・ベビーカー・ノンステップ)",
    "updateTime": "2026/07/23 20:48"
  },
  {
    "vehicleNum": "080707",
    "vehicleCd": "544",
    "vehicleCorpCd": "1",
    "running": true,
    "lat": 34.5675,
    "lon": 135.469194,
    "route": "堺駅前→堺駅南口",
    "stop": "栄泰橋",
    "passTime": "20:46",
    "vehicleType": "南海バス(車椅子・ベビーカー・ノンステップ)",
    "updateTime": "2026/07/23 20:48"
  },
  {
    "vehicleNum": "080734",
    "vehicleCd": "415",
    "vehicleCorpCd": "1",
    "running": true,
    "lat": 34.544278,
    "lon": 135.556083,
    "route": "美原区役所→初芝駅前→美原区役所",
    "stop": "下黒山西",
    "passTime": "20:47",
    "vehicleType": "南海バス",
    "updateTime": "2026/07/23 20:48"
  },
  {
    "vehicleNum": "080750",
    "vehicleCd": "103",
    "vehicleCorpCd": "1",
    "running": true,
    "lat": 34.593,
    "lon": 135.469583,
    "route": "【急行】海浜匠町→堺東駅前→阪和堺市駅前",
    "stop": "海浜匠町",
    "passTime": "20:36",
    "vehicleType": "南海バス(車椅子・ベビーカー・ノンステップ)",
    "updateTime": "2026/07/23 20:48"
  },
  {
    "vehicleNum": "080746",
    "vehicleCd": "395",
    "vehicleCorpCd": "1",
    "running": true,
    "lat": 34.506194,
    "lon": 135.571083,
    "route": "金剛駅前→向陽・藤沢回り→金剛駅前",
    "stop": "藤沢台５丁目",
    "passTime": "20:47",
    "vehicleType": "南海バス(車椅子・ベビーカー・ノンステップ)",
    "updateTime": "2026/07/23 20:48"
  },
  {
    "vehicleNum": "080753",
    "vehicleCd": "552",
    "vehicleCorpCd": "1",
    "running": true,
    "lat": 34.490472,
    "lon": 135.562583,
    "route": "金剛駅前→寺池台小学校前→金剛駅前",
    "stop": "寺ヶ池",
    "passTime": "20:47",
    "vehicleType": "南海バス(車椅子・ベビーカー・ノンステップ)",
    "updateTime": "2026/07/23 20:48"
  },
  {
    "vehicleNum": "080764",
    "vehicleCd": "563",
    "vehicleCorpCd": "1",
    "running": true,
    "lat": 34.525278,
    "lon": 135.525389,
    "route": "北野田駅前→福町→堺駅南口",
    "stop": "下出口",
    "passTime": "20:48",
    "vehicleType": "南海バス(車椅子・ベビーカー・ノンステップ)",
    "updateTime": "2026/07/23 20:48"
  },
  {
    "vehicleNum": "080787",
    "vehicleCd": "301",
    "vehicleCorpCd": "1",
    "running": true,
    "lat": 34.5715,
    "lon": 135.462694,
    "route": "堺駅南口→堺駅前",
    "stop": "鷺橋",
    "passTime": "20:47",
    "vehicleType": "南海バス(車椅子・ベビーカー・ノンステップ)",
    "updateTime": "2026/07/23 20:48"
  },
  {
    "vehicleNum": "080792",
    "vehicleCd": "302",
    "vehicleCorpCd": "1",
    "running": true,
    "lat": 34.575083,
    "lon": 135.528583,
    "route": "堺駅前→堺東駅前→河内松原駅前",
    "stop": "南花田町東",
    "passTime": "20:48",
    "vehicleType": "南海バス(車椅子・ベビーカー・ノンステップ)",
    "updateTime": "2026/07/23 20:48"
  },
  {
    "vehicleNum": "080794",
    "vehicleCd": "344",
    "vehicleCorpCd": "1",
    "running": true,
    "lat": 34.571194,
    "lon": 135.482,
    "route": "堺東駅前→白鷺駅前→堺東駅前（循環）",
    "stop": "一条通",
    "passTime": "20:46",
    "vehicleType": "南海バス(車椅子・ベビーカー・ノンステップ)",
    "updateTime": "2026/07/23 20:48"
  },
  {
    "vehicleNum": "080796",
    "vehicleCd": "108",
    "vehicleCorpCd": "1",
    "running": true,
    "lat": 34.598389,
    "lon": 135.439278,
    "route": "阪和堺市駅前→堺東駅前→堺駅西口→匠町→海浜匠町",
    "stop": "匠町",
    "passTime": "20:45",
    "vehicleType": "南海バス(車椅子・ベビーカー・ノンステップ)",
    "updateTime": "2026/07/23 20:48"
  },
  {
    "vehicleNum": "080800",
    "vehicleCd": "304",
    "vehicleCorpCd": "1",
    "running": true,
    "lat": 34.593389,
    "lon": 135.468583,
    "route": "堺東駅前→材木町→堺駅西口",
    "stop": "塩浜町",
    "passTime": "20:44",
    "vehicleType": "南海バス(車椅子・ベビーカー・ノンステップ)",
    "updateTime": "2026/07/23 20:48"
  },
  {
    "vehicleNum": "080806",
    "vehicleCd": "307",
    "vehicleCorpCd": "1",
    "running": true,
    "lat": 34.575,
    "lon": 135.473389,
    "route": "堺駅前→堺東駅前→河内松原駅前",
    "stop": "大寺南門山之口前",
    "passTime": "20:47",
    "vehicleType": "南海バス(車椅子・ベビーカー・ノンステップ)",
    "updateTime": "2026/07/23 20:48"
  },
  {
    "vehicleNum": "080808",
    "vehicleCd": "216",
    "vehicleCorpCd": "1",
    "running": true,
    "lat": 34.567583,
    "lon": 135.502278,
    "route": "堺駅南口→地下鉄新金岡駅前",
    "stop": "黒土町",
    "passTime": "20:47",
    "vehicleType": "南海バス(車椅子・ベビーカー・ノンステップ)",
    "updateTime": "2026/07/23 20:48"
  },
  {
    "vehicleNum": "080846",
    "vehicleCd": "224",
    "vehicleCorpCd": "1",
    "running": true,
    "lat": 34.500778,
    "lon": 135.575583,
    "route": "金剛駅前→高辺台小学校前→金剛駅前",
    "stop": "津々山台１丁目北",
    "passTime": "20:48",
    "vehicleType": "南海バス(車椅子・ベビーカー・ノンステップ)",
    "updateTime": "2026/07/23 20:48"
  },
  {
    "vehicleNum": "080845",
    "vehicleCd": "319",
    "vehicleCorpCd": "1",
    "running": true,
    "lat": 34.5445,
    "lon": 135.474583,
    "route": "堺東駅前→津久野駅前→堀上緑町一丁→津久野駅前",
    "stop": "津久野町",
    "passTime": "20:47",
    "vehicleType": "南海バス(車椅子・ベビーカー・ノンステップ)",
    "updateTime": "2026/07/23 20:48"
  },
  {
    "vehicleNum": "080850",
    "vehicleCd": "24",
    "vehicleCorpCd": "1",
    "running": true,
    "lat": 34.490278,
    "lon": 135.506889,
    "route": "泉ヶ丘駅→若松台右回り→泉ヶ丘駅",
    "stop": "若松台３丁",
    "passTime": "20:47",
    "vehicleType": "南海バス(車椅子・ベビーカー・ノンステップ)",
    "updateTime": "2026/07/23 20:48"
  },
  {
    "vehicleNum": "080854",
    "vehicleCd": "17",
    "vehicleCorpCd": "1",
    "running": true,
    "lat": 34.575583,
    "lon": 135.479278,
    "route": "堺東駅前→大小路→堺駅前",
    "stop": "熊野小学校前",
    "passTime": "20:47",
    "vehicleType": "南海バス(車椅子・ベビーカー・ノンステップ)",
    "updateTime": "2026/07/23 20:48"
  },
  {
    "vehicleNum": "080381",
    "vehicleCd": "88",
    "vehicleCorpCd": "1",
    "running": true,
    "lat": 34.580694,
    "lon": 135.471194,
    "route": "堺東駅前→フェリー→ＡＴＣ",
    "stop": "堺東駅前",
    "passTime": "20:40",
    "vehicleType": "南海バス(車椅子・ワンステップ)",
    "updateTime": "2026/07/23 20:48"
  },
  {
    "vehicleNum": "080857",
    "vehicleCd": "226",
    "vehicleCorpCd": "1",
    "running": true,
    "lat": 34.593083,
    "lon": 135.468694,
    "route": "匠町→堺駅西口→堺東駅前→阪和堺市駅前",
    "stop": "塩浜町",
    "passTime": "20:45",
    "vehicleType": "南海バス(車椅子・ベビーカー・ノンステップ)",
    "updateTime": "2026/07/23 20:48"
  },
  {
    "vehicleNum": "080859",
    "vehicleCd": "227",
    "vehicleCorpCd": "1",
    "running": true,
    "lat": 34.596389,
    "lon": 135.47,
    "route": "堺駅西口→錦綾町→堺東駅前",
    "stop": "松屋大和川通３丁",
    "passTime": "20:45",
    "vehicleType": "南海バス(車椅子・ベビーカー・ノンステップ)",
    "updateTime": "2026/07/23 20:48"
  },
  {
    "vehicleNum": "080864",
    "vehicleCd": "146",
    "vehicleCorpCd": "1",
    "running": true,
    "lat": 34.567278,
    "lon": 135.507083,
    "route": "地下鉄新金岡駅前→堺駅南口",
    "stop": "長曽根町",
    "passTime": "20:48",
    "vehicleType": "南海バス(車椅子・ベビーカー・ノンステップ)",
    "updateTime": "2026/07/23 20:48"
  },
  {
    "vehicleNum": "080866",
    "vehicleCd": "497",
    "vehicleCorpCd": "1",
    "running": true,
    "lat": 34.497694,
    "lon": 135.571,
    "route": "金剛駅前→向陽・藤沢回り→金剛駅前",
    "stop": "高辺台三丁目",
    "passTime": "20:47",
    "vehicleType": "南海バス(車椅子・ベビーカー・ノンステップ)",
    "updateTime": "2026/07/23 20:48"
  },
  {
    "vehicleNum": "080868",
    "vehicleCd": "237",
    "vehicleCorpCd": "1",
    "running": true,
    "lat": 34.489278,
    "lon": 135.525583,
    "route": "泉ヶ丘駅→晴美台右回り→泉ヶ丘駅",
    "stop": "晴美台２丁",
    "passTime": "20:47",
    "vehicleType": "南海バス(車椅子・ベビーカー・ノンステップ)",
    "updateTime": "2026/07/23 20:48"
  },
  {
    "vehicleNum": "080874",
    "vehicleCd": "352",
    "vehicleCorpCd": "1",
    "running": true,
    "lat": 34.494694,
    "lon": 135.524694,
    "route": "泉ヶ丘駅→スマ・エコタウン晴美台→高倉台左回り→泉ヶ丘駅",
    "stop": "高倉台センター",
    "passTime": "20:47",
    "vehicleType": "南海バス(車椅子・ベビーカー・ノンステップ)",
    "updateTime": "2026/07/23 20:48"
  },
  {
    "vehicleNum": "080898",
    "vehicleCd": "501",
    "vehicleCorpCd": "1",
    "running": true,
    "lat": 34.592583,
    "lon": 135.454889,
    "route": "【急行】海浜匠町→堺駅西口",
    "stop": "海浜匠町",
    "passTime": "20:41",
    "vehicleType": "南海バス(車椅子・ベビーカー・ワンステップ)",
    "updateTime": "2026/07/23 20:48"
  },
  {
    "vehicleNum": "080905",
    "vehicleCd": "353",
    "vehicleCorpCd": "1",
    "running": true,
    "lat": 34.496194,
    "lon": 135.513389,
    "route": "泉ヶ丘駅→スマ・エコタウン晴美台→高倉台左回り→泉ヶ丘駅",
    "stop": "三原台１丁",
    "passTime": "20:45",
    "vehicleType": "南海バス(車椅子・ベビーカー・ノンステップ)",
    "updateTime": "2026/07/23 20:48"
  },
  {
    "vehicleNum": "080907",
    "vehicleCd": "499",
    "vehicleCorpCd": "1",
    "running": true,
    "lat": 34.475,
    "lon": 135.546389,
    "route": "金剛駅前→狭山ニュータウンセンター→泉ヶ丘駅",
    "stop": "大野口",
    "passTime": "20:48",
    "vehicleType": "南海バス(車椅子・ベビーカー・ノンステップ)",
    "updateTime": "2026/07/23 20:48"
  },
  {
    "vehicleNum": "080912",
    "vehicleCd": "372",
    "vehicleCorpCd": "1",
    "running": true,
    "lat": 34.574889,
    "lon": 135.548472,
    "route": "河内松原駅前→阪和堺市駅前→堺東駅前",
    "stop": "河内松原駅前",
    "passTime": "20:45",
    "vehicleType": "南海バス(車椅子・ベビーカー・ノンステップ)",
    "updateTime": "2026/07/23 20:48"
  },
  {
    "vehicleNum": "080901",
    "vehicleCd": "347",
    "vehicleCorpCd": "1",
    "running": true,
    "lat": 34.574278,
    "lon": 135.483778,
    "route": "【急行】海浜匠町→堺東駅前→阪和堺市駅前",
    "stop": "堺東駅前",
    "passTime": "20:47",
    "vehicleType": "南海バス(車椅子・ベビーカー・ワンステップ)",
    "updateTime": "2026/07/23 20:48"
  },
  {
    "vehicleNum": "080917",
    "vehicleCd": "70",
    "vehicleCorpCd": "1",
    "running": true,
    "lat": 34.461583,
    "lon": 135.517889,
    "route": "泉ヶ丘駅→鉢ヶ峯→泉ヶ丘駅",
    "stop": "鉢塚",
    "passTime": "20:48",
    "vehicleType": "南海バス(車椅子・ベビーカー・ノンステップ)",
    "updateTime": "2026/07/23 20:48"
  },
  {
    "vehicleNum": "080948",
    "vehicleCd": "276",
    "vehicleCorpCd": "1",
    "running": true,
    "lat": 34.583,
    "lon": 135.505889,
    "route": "堺東駅前→錦綾町→河内天美駅前",
    "stop": "東浅香山町",
    "passTime": "20:47",
    "vehicleType": "南海バス(車椅子・ベビーカー・ノンステップ)",
    "updateTime": "2026/07/23 20:48"
  },
  {
    "vehicleNum": "080958",
    "vehicleCd": "603",
    "vehicleCorpCd": "1",
    "running": true,
    "lat": 34.638694,
    "lon": 135.415583,
    "route": "ＡＴＣ→堺東駅前",
    "stop": "コスモタワー",
    "passTime": "20:48",
    "vehicleType": "南海バス",
    "updateTime": "2026/07/23 20:48"
  },
  {
    "vehicleNum": "080967",
    "vehicleCd": "605",
    "vehicleCorpCd": "1",
    "running": true,
    "lat": 34.543194,
    "lon": 135.526694,
    "route": "中もず駅前→平尾・美原区役所前→中もず駅前",
    "stop": "日置荘小学校前",
    "passTime": "20:46",
    "vehicleType": "南海バス(車椅子・ベビーカー・ノンステップ)",
    "updateTime": "2026/07/23 20:48"
  },
  {
    "vehicleNum": "080968",
    "vehicleCd": "424",
    "vehicleCorpCd": "1",
    "running": true,
    "lat": 34.521389,
    "lon": 135.525278,
    "route": "北野田駅前→福町→東山車庫前",
    "stop": "福町",
    "passTime": "20:46",
    "vehicleType": "南海バス(車椅子・ベビーカー・ノンステップ)",
    "updateTime": "2026/07/23 20:48"
  },
  {
    "vehicleNum": "080996",
    "vehicleCd": "191",
    "vehicleCorpCd": "1",
    "running": true,
    "lat": 34.541389,
    "lon": 135.476472,
    "route": "津久野駅前→堀上緑町一丁→津久野駅前→堺東駅前",
    "stop": "津久野中学校前",
    "passTime": "20:47",
    "vehicleType": "南海バス(車椅子・ベビーカー・ノンステップ)",
    "updateTime": "2026/07/23 20:48"
  },
  {
    "vehicleNum": "080995",
    "vehicleCd": "118",
    "vehicleCorpCd": "1",
    "running": true,
    "lat": 34.494278,
    "lon": 135.518083,
    "route": "泉ヶ丘駅→晴美台右回り→泉ヶ丘駅",
    "stop": "茶山台２丁",
    "passTime": "20:48",
    "vehicleType": "南海バス(車椅子・ベビーカー・ノンステップ)",
    "updateTime": "2026/07/23 20:48"
  },
  {
    "vehicleNum": "080999",
    "vehicleCd": "493",
    "vehicleCorpCd": "1",
    "running": true,
    "lat": 34.535778,
    "lon": 135.562583,
    "route": "初芝駅前→平尾・美原区役所前→中もず駅前",
    "stop": "船戸下",
    "passTime": "20:45",
    "vehicleType": "南海バス(車椅子・ベビーカー・ノンステップ)",
    "updateTime": "2026/07/23 20:48"
  },
  {
    "vehicleNum": "081003",
    "vehicleCd": "610",
    "vehicleCorpCd": "1",
    "running": true,
    "lat": 34.535083,
    "lon": 135.487583,
    "route": "泉ヶ丘駅→宮山台中学校前→堺東駅前",
    "stop": "中深井北",
    "passTime": "20:48",
    "vehicleType": "南海バス(車椅子・ベビーカー・ノンステップ)",
    "updateTime": "2026/07/23 20:48"
  },
  {
    "vehicleNum": "081007",
    "vehicleCd": "127",
    "vehicleCorpCd": "1",
    "running": true,
    "lat": 34.547583,
    "lon": 135.484389,
    "route": "堺東駅前→上野芝駅前→東山車庫前",
    "stop": "向ヶ丘",
    "passTime": "20:48",
    "vehicleType": "南海バス(車椅子・ベビーカー・ノンステップ)",
    "updateTime": "2026/07/23 20:48"
  },
  {
    "vehicleNum": "081014",
    "vehicleCd": "229",
    "vehicleCorpCd": "1",
    "running": true,
    "lat": 34.554694,
    "lon": 135.500694,
    "route": "北野田駅前→西口園→堺駅南口",
    "stop": "中もず駅前（南側）",
    "passTime": "20:46",
    "vehicleType": "南海バス(車椅子・ベビーカー・ノンステップ)",
    "updateTime": "2026/07/23 20:48"
  },
  {
    "vehicleNum": "081017",
    "vehicleCd": "135",
    "vehicleCorpCd": "1",
    "running": true,
    "lat": 34.484083,
    "lon": 135.545083,
    "route": "泉ヶ丘駅→狭山ニュータウンセンター→金剛駅前",
    "stop": "狭山ニュータウンセンター",
    "passTime": "20:48",
    "vehicleType": "南海バス(車椅子・ベビーカー・ノンステップ)",
    "updateTime": "2026/07/23 20:48"
  },
  {
    "vehicleNum": "081021",
    "vehicleCd": "243",
    "vehicleCorpCd": "1",
    "running": true,
    "lat": 34.568389,
    "lon": 135.485194,
    "route": "堺駅南口→福町→北野田駅前",
    "stop": "永山園",
    "passTime": "20:48",
    "vehicleType": "南海バス(車椅子・ベビーカー・ノンステップ)",
    "updateTime": "2026/07/23 20:48"
  },
  {
    "vehicleNum": "081023",
    "vehicleCd": "264",
    "vehicleCorpCd": "1",
    "running": true,
    "lat": 34.555194,
    "lon": 135.509389,
    "route": "中もず駅前→初芝駅前→平尾",
    "stop": "蟻ヶ池",
    "passTime": "20:48",
    "vehicleType": "南海バス(車椅子・ベビーカー・ノンステップ)",
    "updateTime": "2026/07/23 20:48"
  },
  {
    "vehicleNum": "081024",
    "vehicleCd": "270",
    "vehicleCorpCd": "1",
    "running": true,
    "lat": 34.499,
    "lon": 135.508,
    "route": "堺東駅前→上野芝→泉ヶ丘駅",
    "stop": "竹城台２丁",
    "passTime": "20:48",
    "vehicleType": "南海バス(車椅子・ベビーカー・ノンステップ)",
    "updateTime": "2026/07/23 20:48"
  },
  {
    "vehicleNum": "081035",
    "vehicleCd": "491",
    "vehicleCorpCd": "1",
    "running": true,
    "lat": 34.466278,
    "lon": 135.496889,
    "route": "栂・美木多駅→御池台回り→栂・美木多駅",
    "stop": "御池台１丁",
    "passTime": "20:47",
    "vehicleType": "南海バス(車椅子・ベビーカー・ノンステップ)",
    "updateTime": "2026/07/23 20:48"
  },
  {
    "vehicleNum": "081039",
    "vehicleCd": "253",
    "vehicleCorpCd": "1",
    "running": true,
    "lat": 34.540778,
    "lon": 135.5135,
    "route": "堺駅南口→三国ヶ丘駅前→北野田駅前",
    "stop": "下茶屋",
    "passTime": "20:47",
    "vehicleType": "南海バス(車椅子・ベビーカー・ノンステップ)",
    "updateTime": "2026/07/23 20:48"
  },
  {
    "vehicleNum": "091107",
    "vehicleCd": "23",
    "vehicleCorpCd": "2",
    "running": true,
    "lat": 34.458778,
    "lon": 135.436694,
    "route": "和泉中央駅→荒木町→岸和田駅前",
    "stop": "東山公園下",
    "passTime": "20:48",
    "vehicleType": "南海ウイングバス(車椅子・ワンステップ)",
    "updateTime": "2026/07/23 20:48"
  },
  {
    "vehicleNum": "091378",
    "vehicleCd": "135",
    "vehicleCorpCd": "2",
    "running": true,
    "lat": 34.3325,
    "lon": 135.220778,
    "route": "箱作駅前→桃の木台回り→箱作駅前",
    "stop": "桃の木台１丁目",
    "passTime": "20:48",
    "vehicleType": "南海ウイングバス(車椅子・ベビーカー・ノンステップ)",
    "updateTime": "2026/07/23 20:48"
  },
  {
    "vehicleNum": "091595",
    "vehicleCd": "199",
    "vehicleCorpCd": "1",
    "running": true,
    "lat": 34.435194,
    "lon": 135.239194,
    "route": "ポートターミナル→第２ターミナル",
    "stop": "旅客ターミナル",
    "passTime": "20:47",
    "vehicleType": "南海バス(車椅子・ノンステップ)",
    "updateTime": "2026/07/23 20:48"
  },
  {
    "vehicleNum": "091737",
    "vehicleCd": "48",
    "vehicleCorpCd": "2",
    "running": true,
    "lat": 34.398389,
    "lon": 135.285,
    "route": "イオンモール→ポート→イオンモールりんくう泉南",
    "stop": "警察学校前",
    "passTime": "20:47",
    "vehicleType": "南海ウイングバス(車椅子・ベビーカー・ワンステップ)",
    "updateTime": "2026/07/23 20:48"
  },
  {
    "vehicleNum": "091792",
    "vehicleCd": "59",
    "vehicleCorpCd": "1",
    "running": true,
    "lat": 34.430194,
    "lon": 135.225389,
    "route": "空港駅→ＦｅｄＥｘ→給油地区",
    "stop": "二期島国際貨物駐車場前",
    "passTime": "20:48",
    "vehicleType": "南海バス(車椅子・ノンステップ)",
    "updateTime": "2026/07/23 20:48"
  },
  {
    "vehicleNum": "091910",
    "vehicleCd": "441",
    "vehicleCorpCd": "1",
    "running": true,
    "lat": 34.439194,
    "lon": 135.246389,
    "route": "エアロプラザ→第２ターミナル(国内線・国際線)→エアロプラザ",
    "stop": "第2ターミナル国際線",
    "passTime": "20:42",
    "vehicleType": "南海バス(車椅子・ノンステップ)",
    "updateTime": "2026/07/23 20:48"
  },
  {
    "vehicleNum": "081044",
    "vehicleCd": "132",
    "vehicleCorpCd": "1",
    "running": true,
    "lat": 34.486194,
    "lon": 135.519278,
    "route": "泉ヶ丘駅→槙塚台左回り→泉ヶ丘駅",
    "stop": "茶山台３丁",
    "passTime": "20:46",
    "vehicleType": "南海バス(車椅子・ベビーカー・ノンステップ)",
    "updateTime": "2026/07/23 20:48"
  },
  {
    "vehicleNum": "092205",
    "vehicleCd": "25",
    "vehicleCorpCd": "1",
    "running": true,
    "lat": 34.448694,
    "lon": 135.575778,
    "route": "小吹台→河内長野駅前",
    "stop": "河合寺",
    "passTime": "20:47",
    "vehicleType": "南海バス(車椅子・ベビーカー・ノンステップ)",
    "updateTime": "2026/07/23 20:48"
  },
  {
    "vehicleNum": "092345",
    "vehicleCd": "160",
    "vehicleCorpCd": "1",
    "running": true,
    "lat": 34.435694,
    "lon": 135.240194,
    "route": "第１ターミナル→ポートターミナル",
    "stop": "旅客ターミナル",
    "passTime": "20:45",
    "vehicleType": "南海バス",
    "updateTime": "2026/07/23 20:49"
  },
  {
    "vehicleNum": "092382",
    "vehicleCd": "556",
    "vehicleCorpCd": "1",
    "running": true,
    "lat": 34.487778,
    "lon": 135.424083,
    "route": "泉大津駅前→和泉中央駅→和泉青葉台",
    "stop": "泉大津急性期メディカルセンター前",
    "passTime": "20:44",
    "vehicleType": "南海バス(車椅子・ベビーカー・ノンステップ)",
    "updateTime": "2026/07/23 20:49"
  },
  {
    "vehicleNum": "092398",
    "vehicleCd": "41",
    "vehicleCorpCd": "1",
    "running": true,
    "lat": 34.4335,
    "lon": 135.231778,
    "route": "エアロプラザ→第２ターミナル(国内線・国際線)→エアロプラザ",
    "stop": "エアロプラザ",
    "passTime": "20:46",
    "vehicleType": "南海バス(車椅子・ノンステップ)",
    "updateTime": "2026/07/23 20:49"
  },
  {
    "vehicleNum": "092469",
    "vehicleCd": "220",
    "vehicleCorpCd": "1",
    "running": true,
    "lat": 34.432694,
    "lon": 135.570389,
    "route": "三日市町駅東→南青葉台中央",
    "stop": "三日市町駅東",
    "passTime": "20:47",
    "vehicleType": "南海バス(車椅子・ベビーカー・ノンステップ)",
    "updateTime": "2026/07/23 20:49"
  },
  {
    "vehicleNum": "092470",
    "vehicleCd": "105",
    "vehicleCorpCd": "1",
    "running": true,
    "lat": 34.436889,
    "lon": 135.568778,
    "route": "三日市町駅前→南花台１丁目北→南ヶ丘",
    "stop": "三日市町駅前",
    "passTime": "20:46",
    "vehicleType": "南海バス(車椅子・ベビーカー・ノンステップ)",
    "updateTime": "2026/07/23 20:49"
  },
  {
    "vehicleNum": "092533",
    "vehicleCd": "288",
    "vehicleCorpCd": "1",
    "running": true,
    "lat": 34.473778,
    "lon": 135.477083,
    "route": "光明池駅→城山台５丁→光明池車庫",
    "stop": "光明池駅",
    "passTime": "20:47",
    "vehicleType": "南海バス(車椅子・ベビーカー・ノンステップ)",
    "updateTime": "2026/07/23 20:49"
  },
  {
    "vehicleNum": "092534",
    "vehicleCd": "265",
    "vehicleCorpCd": "1",
    "running": true,
    "lat": 34.458889,
    "lon": 135.4805,
    "route": "泉大津駅前→和泉府中駅前→和泉中央駅→光明池駅",
    "stop": "光明池車庫",
    "passTime": "20:48",
    "vehicleType": "南海バス(車椅子・ベビーカー・ノンステップ)",
    "updateTime": "2026/07/23 20:49"
  },
  {
    "vehicleNum": "092569",
    "vehicleCd": "266",
    "vehicleCorpCd": "1",
    "running": true,
    "lat": 34.478389,
    "lon": 135.467583,
    "route": "堺東駅前→鳳駅前→光明池駅",
    "stop": "下伏屋",
    "passTime": "20:47",
    "vehicleType": "南海バス(車椅子・ベビーカー・ノンステップ)",
    "updateTime": "2026/07/23 20:49"
  },
  {
    "vehicleNum": "092572",
    "vehicleCd": "313",
    "vehicleCorpCd": "1",
    "running": true,
    "lat": 34.475278,
    "lon": 135.472194,
    "route": "光明池駅→赤坂台４丁→光明池駅",
    "stop": "光明池駅",
    "passTime": "20:47",
    "vehicleType": "南海バス(車椅子・ベビーカー・ノンステップ)",
    "updateTime": "2026/07/23 20:49"
  },
  {
    "vehicleNum": "092571",
    "vehicleCd": "314",
    "vehicleCorpCd": "1",
    "running": true,
    "lat": 34.437194,
    "lon": 135.573278,
    "route": "三日市町駅前→清見台回り→三日市町駅前",
    "stop": "三日市町駅前通",
    "passTime": "20:48",
    "vehicleType": "南海バス(車椅子・ベビーカー・ノンステップ)",
    "updateTime": "2026/07/23 20:49"
  },
  {
    "vehicleNum": "092580",
    "vehicleCd": "377",
    "vehicleCorpCd": "1",
    "running": true,
    "lat": 34.415778,
    "lon": 135.452889,
    "route": "和泉中央駅→テクノステージセンター前→直行→和泉中央駅",
    "stop": "テクノステージ南",
    "passTime": "20:48",
    "vehicleType": "南海バス(車椅子・ベビーカー・ノンステップ)",
    "updateTime": "2026/07/23 20:49"
  },
  {
    "vehicleNum": "092581",
    "vehicleCd": "375",
    "vehicleCorpCd": "1",
    "running": true,
    "lat": 34.439694,
    "lon": 135.467194,
    "route": "和泉中央駅→はつが野→和泉青葉台→和泉中央駅（左回り）",
    "stop": "はつが野六丁目",
    "passTime": "20:49",
    "vehicleType": "南海バス(車椅子・ベビーカー・ノンステップ)",
    "updateTime": "2026/07/23 20:49"
  },
  {
    "vehicleNum": "092711",
    "vehicleCd": "355",
    "vehicleCorpCd": "1",
    "running": true,
    "lat": 34.538083,
    "lon": 135.463389,
    "route": "堺東駅前→鳳駅前→光明池駅",
    "stop": "鳳北口",
    "passTime": "20:48",
    "vehicleType": "南海バス(車椅子・ベビーカー・ノンステップ)",
    "updateTime": "2026/07/23 20:49"
  },
  {
    "vehicleNum": "092734",
    "vehicleCd": "289",
    "vehicleCorpCd": "1",
    "running": true,
    "lat": 34.439083,
    "lon": 135.584278,
    "route": "河内長野駅前→河合寺→小吹台",
    "stop": "清見台東口",
    "passTime": "20:48",
    "vehicleType": "南海バス(車椅子・ベビーカー・ノンステップ)",
    "updateTime": "2026/07/23 20:49"
  },
  {
    "vehicleNum": "092872",
    "vehicleCd": "500",
    "vehicleCorpCd": "1",
    "running": true,
    "lat": 34.492083,
    "lon": 135.480778,
    "route": "栂・美木多駅→鳳駅前→堺東駅前",
    "stop": "桃山台三丁",
    "passTime": "20:48",
    "vehicleType": "南海バス(車椅子・ベビーカー・ノンステップ)",
    "updateTime": "2026/07/23 20:49"
  },
  {
    "vehicleNum": "092915",
    "vehicleCd": "346",
    "vehicleCorpCd": "1",
    "running": true,
    "lat": 34.456389,
    "lon": 135.553083,
    "route": "千代→緑→小山田→千代",
    "stop": "小山田集会所前",
    "passTime": "20:48",
    "vehicleType": "南海バス(車椅子・ベビーカー・ノンステップ)",
    "updateTime": "2026/07/23 20:49"
  },
  {
    "vehicleNum": "092916",
    "vehicleCd": "235",
    "vehicleCorpCd": "1",
    "running": true,
    "lat": 34.475,
    "lon": 135.428889,
    "route": "和泉中央駅→寺田→泉大津駅前",
    "stop": "和気小学校前",
    "passTime": "20:48",
    "vehicleType": "南海バス(車椅子・ベビーカー・ノンステップ)",
    "updateTime": "2026/07/23 20:49"
  },
  {
    "vehicleNum": "092918",
    "vehicleCd": "114",
    "vehicleCorpCd": "1",
    "running": true,
    "lat": 34.476972,
    "lon": 135.445583,
    "route": "光明池駅→光明池車庫→和泉中央駅→泉大津駅前",
    "stop": "阪本",
    "passTime": "20:48",
    "vehicleType": "南海バス(車椅子・ベビーカー・ノンステップ)",
    "updateTime": "2026/07/23 20:49"
  },
  {
    "vehicleNum": "092578",
    "vehicleCd": "147",
    "vehicleCorpCd": "1",
    "running": true,
    "lat": 34.467194,
    "lon": 135.559583,
    "route": "千代田駅前→貴望ヶ丘",
    "stop": "南貴望ヶ丘",
    "passTime": "20:48",
    "vehicleType": "南海バス(車椅子・ベビーカー・ノンステップ)",
    "updateTime": "2026/07/23 20:49"
  },
  {
    "vehicleNum": "092936",
    "vehicleCd": "322",
    "vehicleCorpCd": "1",
    "running": true,
    "lat": 34.432,
    "lon": 135.234083,
    "route": "空港駅→国際循環→空港駅",
    "stop": "機内食前",
    "passTime": "20:47",
    "vehicleType": "南海バス(車椅子・ベビーカー・ノンステップ)",
    "updateTime": "2026/07/23 20:49"
  },
  {
    "vehicleNum": "092937",
    "vehicleCd": "73",
    "vehicleCorpCd": "1",
    "running": true,
    "lat": 34.536278,
    "lon": 135.463389,
    "route": "光明池駅→山田→堺東駅前",
    "stop": "鳳北口",
    "passTime": "20:48",
    "vehicleType": "南海バス(車椅子・ベビーカー・ノンステップ)",
    "updateTime": "2026/07/23 20:49"
  },
  {
    "vehicleNum": "092952",
    "vehicleCd": "113",
    "vehicleCorpCd": "1",
    "running": true,
    "lat": 34.459,
    "lon": 135.4555,
    "route": "和泉中央駅→はつが野六丁目→和泉中央駅",
    "stop": "万町弘法寺前",
    "passTime": "20:46",
    "vehicleType": "南海バス(車椅子・ベビーカー・ノンステップ)",
    "updateTime": "2026/07/23 20:49"
  },
  {
    "vehicleNum": "092950",
    "vehicleCd": "257",
    "vehicleCorpCd": "1",
    "running": true,
    "lat": 34.455778,
    "lon": 135.445889,
    "route": "テクノステージセンター前→府立産技研前→和泉中央駅",
    "stop": "あゆみ野二丁目中",
    "passTime": "20:44",
    "vehicleType": "南海バス(車椅子・ベビーカー・ノンステップ)",
    "updateTime": "2026/07/23 20:49"
  },
  {
    "vehicleNum": "092978",
    "vehicleCd": "325",
    "vehicleCorpCd": "1",
    "running": true,
    "lat": 34.505278,
    "lon": 135.4485,
    "route": "北信太駅筋→鶴山台団地→北信太駅筋",
    "stop": "信太中学校前",
    "passTime": "20:49",
    "vehicleType": "南海バス(車椅子・ベビーカー・ノンステップ)",
    "updateTime": "2026/07/23 20:49"
  },
  {
    "vehicleNum": "093003",
    "vehicleCd": "111",
    "vehicleCorpCd": "1",
    "running": true,
    "lat": 34.446583,
    "lon": 135.453583,
    "route": "和泉中央駅→のぞみ野南→美術館",
    "stop": "内田上",
    "passTime": "20:48",
    "vehicleType": "南海バス(車椅子・ベビーカー・ノンステップ)",
    "updateTime": "2026/07/23 20:49"
  },
  {
    "vehicleNum": "092975",
    "vehicleCd": "115",
    "vehicleCorpCd": "1",
    "running": true,
    "lat": 34.4735,
    "lon": 135.474083,
    "route": "光明池駅→山田→堺東駅前",
    "stop": "光明池駅",
    "passTime": "20:47",
    "vehicleType": "南海バス(車椅子・ベビーカー・ノンステップ)",
    "updateTime": "2026/07/23 20:49"
  },
  {
    "vehicleNum": "093032",
    "vehicleCd": "231",
    "vehicleCorpCd": "1",
    "running": true,
    "lat": 34.438,
    "lon": 135.232694,
    "route": "エアロプラザ→第２ターミナル(国内線・国際線)→エアロプラザ",
    "stop": "第2ターミナル国際線",
    "passTime": "20:48",
    "vehicleType": "南海バス",
    "updateTime": "2026/07/23 20:49"
  },
  {
    "vehicleNum": "093054",
    "vehicleCd": "396",
    "vehicleCorpCd": "1",
    "running": true,
    "lat": 34.470972,
    "lon": 135.434278,
    "route": "泉大津駅前→和泉府中駅前→和泉中央駅",
    "stop": "寺田住宅",
    "passTime": "20:49",
    "vehicleType": "南海バス(車椅子・ベビーカー・ノンステップ)",
    "updateTime": "2026/07/23 20:49"
  }
]