[
  {
    "vehicleNum": "070104",
    "vehicleCd": "402",
    "vehicleCorpCd": "1",
    "running": true,
    "lat": 34.484694,
    "lon": 135.5275,
    "route": "金剛駅前→狭山ニュータウンセンター→泉ヶ丘駅",
    "stop": "槙塚台センター",
    "passTime": "17:47",
    "vehicleType": "泉北コミュニティバス(車椅子・ベビーカー・ノンステップ)",
    "updateTime": "2026/07/19 17:47"
  },
  {
    "vehicleNum": "070109",
    "vehicleCd": "407",
    "vehicleCorpCd": "1",
    "running": true,
    "lat": 34.498694,
    "lon": 135.555278,
    "route": "泉ヶ丘駅→狭山ニュータウンセンター→金剛駅前",
    "stop": "北村",
    "passTime": "17:45",
    "vehicleType": "泉北コミュニティバス(車椅子・ベビーカー・ノンステップ)",
    "updateTime": "2026/07/19 17:47"
  },
  {
    "vehicleNum": "070108",
    "vehicleCd": "406",
    "vehicleCorpCd": "1",
    "running": true,
    "lat": 34.484778,
    "lon": 135.526889,
    "route": "泉ヶ丘駅→狭山ニュータウンセンター→金剛駅前",
    "stop": "槙塚台１丁",
    "passTime": "17:45",
    "vehicleType": "泉北コミュニティバス(車椅子・ベビーカー・ノンステップ)",
    "updateTime": "2026/07/19 17:47"
  },
  {
    "vehicleNum": "071283",
    "vehicleCd": "430",
    "vehicleCorpCd": "1",
    "running": true,
    "lat": 34.656583,
    "lon": 135.434,
    "route": "堺東駅前→ＡＴＣ→海遊館→堺東駅前",
    "stop": "海遊館",
    "passTime": "17:46",
    "vehicleType": "南海バス",
    "updateTime": "2026/07/19 17:47"
  },
  {
    "vehicleNum": "071606",
    "vehicleCd": "413",
    "vehicleCorpCd": "1",
    "running": true,
    "lat": 34.574194,
    "lon": 135.484194,
    "route": "堺東駅前→大小路→堺駅前",
    "stop": "堺東駅前",
    "passTime": "17:46",
    "vehicleType": "堺シャトル(車椅子・ベビーカー・ノンステップ)",
    "updateTime": "2026/07/19 17:47"
  },
  {
    "vehicleNum": "080105",
    "vehicleCd": "127",
    "vehicleCorpCd": "2",
    "running": true,
    "lat": 34.459889,
    "lon": 135.455,
    "route": "和泉中央駅→包近→道の駅愛彩ランド",
    "stop": "和泉中央駅",
    "passTime": "17:45",
    "vehicleType": "南海ウイングバス(車椅子・ベビーカー・ワンステップ)",
    "updateTime": "2026/07/19 17:47"
  },
  {
    "vehicleNum": "080137",
    "vehicleCd": "459",
    "vehicleCorpCd": "1",
    "running": true,
    "lat": 34.557889,
    "lon": 135.489583,
    "route": "堺旧港・ポルトマーレ→利晶→古墳→堺旧港・ポルトマーレ",
    "stop": "さかい利晶の杜",
    "passTime": "17:35",
    "vehicleType": "南海バス",
    "updateTime": "2026/07/19 17:47"
  },
  {
    "vehicleNum": "080180",
    "vehicleCd": "68",
    "vehicleCorpCd": "2",
    "running": true,
    "lat": 34.461194,
    "lon": 135.413583,
    "route": "白原車庫→内畑→岸和田駅前",
    "stop": "池尻",
    "passTime": "17:46",
    "vehicleType": "南海ウイングバス(車椅子・ベビーカー・ワンステップ)",
    "updateTime": "2026/07/19 17:47"
  },
  {
    "vehicleNum": "080146",
    "vehicleCd": "6",
    "vehicleCorpCd": "2",
    "running": true,
    "lat": 34.379694,
    "lon": 135.356694,
    "route": "大阪体育大学前→熊取駅前",
    "stop": "浪商学園前",
    "passTime": "17:46",
    "vehicleType": "南海ウイングバス(車椅子・ワンステップ)",
    "updateTime": "2026/07/19 17:47"
  },
  {
    "vehicleNum": "080178",
    "vehicleCd": "56",
    "vehicleCorpCd": "2",
    "running": true,
    "lat": 34.462389,
    "lon": 135.442389,
    "route": "和泉中央駅→荒木町→岸和田駅前",
    "stop": "箕形",
    "passTime": "17:45",
    "vehicleType": "南海ウイングバス(車椅子・ベビーカー・ワンステップ)",
    "updateTime": "2026/07/19 17:47"
  },
  {
    "vehicleNum": "080184",
    "vehicleCd": "34",
    "vehicleCorpCd": "2",
    "running": true,
    "lat": 34.410083,
    "lon": 135.320083,
    "route": "つばさが丘北口→大阪体育大学前→熊取駅前→ダンバラ公園前→泉佐野駅前",
    "stop": "上町１丁目",
    "passTime": "17:44",
    "vehicleType": "南海ウイングバス(車椅子・ベビーカー・ノンステップ)",
    "updateTime": "2026/07/19 17:47"
  },
  {
    "vehicleNum": "080270",
    "vehicleCd": "86",
    "vehicleCorpCd": "2",
    "running": true,
    "lat": 34.384,
    "lon": 135.364278,
    "route": "泉佐野駅前→ダンバラ公園前→熊取駅前→つばさが丘北口",
    "stop": "和田山大橋",
    "passTime": "17:47",
    "vehicleType": "南海バス(車椅子・ワンステップ)",
    "updateTime": "2026/07/19 17:47"
  },
  {
    "vehicleNum": "080627",
    "vehicleCd": "446",
    "vehicleCorpCd": "1",
    "running": true,
    "lat": 34.5385,
    "lon": 135.542278,
    "route": "北野田駅前→多治井北（循環）→北野田駅前",
    "stop": "余部西口",
    "passTime": "17:46",
    "vehicleType": "南海バス(車椅子・ベビーカー・ノンステップ)",
    "updateTime": "2026/07/19 17:47"
  },
  {
    "vehicleNum": "080652",
    "vehicleCd": "456",
    "vehicleCorpCd": "1",
    "running": true,
    "lat": 34.540889,
    "lon": 135.558583,
    "route": "美原区役所→初芝駅前→美原区役所",
    "stop": "美原区役所前",
    "passTime": "17:43",
    "vehicleType": "南海バス",
    "updateTime": "2026/07/19 17:47"
  },
  {
    "vehicleNum": "080676",
    "vehicleCd": "158",
    "vehicleCorpCd": "1",
    "running": true,
    "lat": 34.556278,
    "lon": 135.541778,
    "route": "地下鉄新金岡駅前→野遠→美原区役所",
    "stop": "出屋敷",
    "passTime": "17:47",
    "vehicleType": "南海バス",
    "updateTime": "2026/07/19 17:47"
  },
  {
    "vehicleNum": "080709",
    "vehicleCd": "5",
    "vehicleCorpCd": "2",
    "running": true,
    "lat": 34.3945,
    "lon": 135.284583,
    "route": "イオンモール→ワシントンホテル→イオンモールりんくう泉南",
    "stop": "イオンモールりんくう泉南",
    "passTime": "17:40",
    "vehicleType": "南海ウイングバス(車椅子・ベビーカー・ノンステップ)",
    "updateTime": "2026/07/19 17:47"
  },
  {
    "vehicleNum": "080734",
    "vehicleCd": "415",
    "vehicleCorpCd": "1",
    "running": true,
    "lat": 34.542778,
    "lon": 135.5265,
    "route": "美原区役所→初芝駅前→美原区役所",
    "stop": "初芝駅前",
    "passTime": "17:46",
    "vehicleType": "南海バス",
    "updateTime": "2026/07/19 17:47"
  },
  {
    "vehicleNum": "080711",
    "vehicleCd": "79",
    "vehicleCorpCd": "2",
    "running": true,
    "lat": 34.370778,
    "lon": 135.354889,
    "route": "泉佐野駅前→野々地蔵北→日根野駅前→犬鳴山",
    "stop": "土丸",
    "passTime": "17:47",
    "vehicleType": "南海ウイングバス(車椅子・ベビーカー・ノンステップ)",
    "updateTime": "2026/07/19 17:47"
  },
  {
    "vehicleNum": "080747",
    "vehicleCd": "161",
    "vehicleCorpCd": "1",
    "running": true,
    "lat": 34.583194,
    "lon": 135.514889,
    "route": "地下鉄北花田駅前→蔵前西→ＪＲ堺市駅前→地下鉄北花田駅前",
    "stop": "新堀町",
    "passTime": "17:48",
    "vehicleType": "南海バス(車椅子・ベビーカー・ノンステップ)",
    "updateTime": "2026/07/19 17:47"
  },
  {
    "vehicleNum": "080746",
    "vehicleCd": "395",
    "vehicleCorpCd": "1",
    "running": true,
    "lat": 34.500778,
    "lon": 135.580194,
    "route": "金剛駅前→高辺台小学校前→金剛駅前",
    "stop": "中央センター前",
    "passTime": "17:46",
    "vehicleType": "南海バス(車椅子・ベビーカー・ノンステップ)",
    "updateTime": "2026/07/19 17:47"
  },
  {
    "vehicleNum": "080751",
    "vehicleCd": "551",
    "vehicleCorpCd": "1",
    "running": true,
    "lat": 34.542889,
    "lon": 135.5265,
    "route": "美原区役所前→船戸下→初芝駅前→中もず駅前",
    "stop": "初芝駅前",
    "passTime": "17:45",
    "vehicleType": "南海バス(車椅子・ベビーカー・ノンステップ)",
    "updateTime": "2026/07/19 17:47"
  },
  {
    "vehicleNum": "080758",
    "vehicleCd": "511",
    "vehicleCorpCd": "1",
    "running": true,
    "lat": 34.536694,
    "lon": 135.474194,
    "route": "泉ヶ丘駅→深阪→津久野駅前",
    "stop": "文珠前",
    "passTime": "17:47",
    "vehicleType": "南海バス(車椅子・ベビーカー・ノンステップ)",
    "updateTime": "2026/07/19 17:47"
  },
  {
    "vehicleNum": "080763",
    "vehicleCd": "562",
    "vehicleCorpCd": "1",
    "running": true,
    "lat": 34.527389,
    "lon": 135.488472,
    "route": "堺東駅前→上野芝→泉ヶ丘駅",
    "stop": "八田荘団地",
    "passTime": "17:46",
    "vehicleType": "南海バス(車椅子・ベビーカー・ノンステップ)",
    "updateTime": "2026/07/19 17:47"
  },
  {
    "vehicleNum": "080761",
    "vehicleCd": "560",
    "vehicleCorpCd": "1",
    "running": true,
    "lat": 34.570083,
    "lon": 135.482194,
    "route": "堺東駅前→白鷺駅前→堺東駅前（循環）",
    "stop": "一条通",
    "passTime": "17:47",
    "vehicleType": "南海バス(車椅子・ベビーカー・ノンステップ)",
    "updateTime": "2026/07/19 17:47"
  },
  {
    "vehicleNum": "080760",
    "vehicleCd": "559",
    "vehicleCorpCd": "1",
    "running": true,
    "lat": 34.536278,
    "lon": 135.559778,
    "route": "中もず駅前→初芝駅前→船戸下→美原区役所前",
    "stop": "黒山",
    "passTime": "17:44",
    "vehicleType": "南海バス(車椅子・ベビーカー・ノンステップ)",
    "updateTime": "2026/07/19 17:47"
  },
  {
    "vehicleNum": "080764",
    "vehicleCd": "563",
    "vehicleCorpCd": "1",
    "running": true,
    "lat": 34.502472,
    "lon": 135.498694,
    "route": "泉ヶ丘駅→宮山台中学校前→堺東駅前",
    "stop": "宮山台２丁",
    "passTime": "17:46",
    "vehicleType": "南海バス(車椅子・ベビーカー・ノンステップ)",
    "updateTime": "2026/07/19 17:47"
  },
  {
    "vehicleNum": "080766",
    "vehicleCd": "565",
    "vehicleCorpCd": "1",
    "running": true,
    "lat": 34.5235,
    "lon": 135.542083,
    "route": "北野田駅前→福町→深井駅→鳳駅前",
    "stop": "北野田駅前",
    "passTime": "17:45",
    "vehicleType": "南海バス(車椅子・ベビーカー・ノンステップ)",
    "updateTime": "2026/07/19 17:47"
  },
  {
    "vehicleNum": "080787",
    "vehicleCd": "301",
    "vehicleCorpCd": "1",
    "running": true,
    "lat": 34.559278,
    "lon": 135.519389,
    "route": "堺東駅前→白鷺駅前→堺東駅前（循環）",
    "stop": "金岡神社前",
    "passTime": "17:47",
    "vehicleType": "南海バス(車椅子・ベビーカー・ノンステップ)",
    "updateTime": "2026/07/19 17:47"
  },
  {
    "vehicleNum": "080790",
    "vehicleCd": "106",
    "vehicleCorpCd": "1",
    "running": true,
    "lat": 34.578278,
    "lon": 135.495,
    "route": "河内松原駅前→阪和堺市駅前→堺駅前",
    "stop": "阪和堺市駅筋",
    "passTime": "17:40",
    "vehicleType": "南海バス(車椅子・ベビーカー・ノンステップ)",
    "updateTime": "2026/07/19 17:47"
  },
  {
    "vehicleNum": "080794",
    "vehicleCd": "344",
    "vehicleCorpCd": "1",
    "running": true,
    "lat": 34.575694,
    "lon": 135.484194,
    "route": "海浜匠町→匠町→堺駅西口→堺東駅前→阪和堺市駅前",
    "stop": "堺東駅前",
    "passTime": "17:49",
    "vehicleType": "南海バス(車椅子・ベビーカー・ノンステップ)",
    "updateTime": "2026/07/19 17:47"
  },
  {
    "vehicleNum": "080796",
    "vehicleCd": "108",
    "vehicleCorpCd": "1",
    "running": true,
    "lat": 34.588889,
    "lon": 135.534583,
    "route": "河内天美駅前→天美我堂→堺東駅前",
    "stop": "河内天美駅前",
    "passTime": "17:45",
    "vehicleType": "南海バス(車椅子・ベビーカー・ノンステップ)",
    "updateTime": "2026/07/19 17:47"
  },
  {
    "vehicleNum": "080795",
    "vehicleCd": "43",
    "vehicleCorpCd": "1",
    "running": true,
    "lat": 34.583,
    "lon": 135.506,
    "route": "堺東駅前→錦綾町→河内天美駅前",
    "stop": "東浅香山町",
    "passTime": "17:46",
    "vehicleType": "南海バス(車椅子・ベビーカー・ノンステップ)",
    "updateTime": "2026/07/19 17:47"
  },
  {
    "vehicleNum": "080800",
    "vehicleCd": "304",
    "vehicleCorpCd": "1",
    "running": true,
    "lat": 34.599389,
    "lon": 135.470889,
    "route": "匠町→住之江公園駅前→匠町",
    "stop": "松屋大和川通３丁",
    "passTime": "17:44",
    "vehicleType": "南海バス(車椅子・ベビーカー・ノンステップ)",
    "updateTime": "2026/07/19 17:47"
  },
  {
    "vehicleNum": "080806",
    "vehicleCd": "307",
    "vehicleCorpCd": "1",
    "running": true,
    "lat": 34.574694,
    "lon": 135.501694,
    "route": "堺駅前→堺東駅前→河内松原駅前",
    "stop": "長尾町",
    "passTime": "17:47",
    "vehicleType": "南海バス(車椅子・ベビーカー・ノンステップ)",
    "updateTime": "2026/07/19 17:47"
  },
  {
    "vehicleNum": "080814",
    "vehicleCd": "193",
    "vehicleCorpCd": "1",
    "running": true,
    "lat": 34.501694,
    "lon": 135.498889,
    "route": "泉ヶ丘駅→泉北２号線→津久野駅前",
    "stop": "竹城台口",
    "passTime": "17:46",
    "vehicleType": "南海バス(車椅子・ベビーカー・ノンステップ)",
    "updateTime": "2026/07/19 17:47"
  },
  {
    "vehicleNum": "080815",
    "vehicleCd": "575",
    "vehicleCorpCd": "1",
    "running": true,
    "lat": 34.494889,
    "lon": 135.53,
    "route": "泉ヶ丘駅→帝塚山学院泉ヶ丘校前→金剛駅前",
    "stop": "晴美台１丁",
    "passTime": "17:46",
    "vehicleType": "南海バス(車椅子・ベビーカー・ノンステップ)",
    "updateTime": "2026/07/19 17:47"
  },
  {
    "vehicleNum": "080822",
    "vehicleCd": "576",
    "vehicleCorpCd": "1",
    "running": true,
    "lat": 34.541694,
    "lon": 135.476583,
    "route": "堺東駅前→堀上緑町１丁→堺東駅前",
    "stop": "神野",
    "passTime": "17:46",
    "vehicleType": "南海バス(車椅子・ベビーカー・ノンステップ)",
    "updateTime": "2026/07/19 17:47"
  },
  {
    "vehicleNum": "080826",
    "vehicleCd": "152",
    "vehicleCorpCd": "1",
    "running": true,
    "lat": 34.5385,
    "lon": 135.542278,
    "route": "初芝駅前→平尾→初芝駅前",
    "stop": "余部西口",
    "passTime": "17:47",
    "vehicleType": "南海バス(車椅子・ベビーカー・ノンステップ)",
    "updateTime": "2026/07/19 17:47"
  },
  {
    "vehicleNum": "080847",
    "vehicleCd": "583",
    "vehicleCorpCd": "1",
    "running": true,
    "lat": 34.527583,
    "lon": 135.470889,
    "route": "津久野駅前→堺市立総合医療センター前→泉北２号線→泉ヶ丘駅",
    "stop": "毛穴南",
    "passTime": "17:46",
    "vehicleType": "南海バス(車椅子・ベビーカー・ノンステップ)",
    "updateTime": "2026/07/19 17:47"
  },
  {
    "vehicleNum": "080854",
    "vehicleCd": "17",
    "vehicleCorpCd": "1",
    "running": true,
    "lat": 34.596194,
    "lon": 135.447278,
    "route": "堺東駅前→材木町→堺駅西口",
    "stop": "堺浜シーサイドステージ",
    "passTime": "17:46",
    "vehicleType": "南海バス(車椅子・ベビーカー・ノンステップ)",
    "updateTime": "2026/07/19 17:47"
  },
  {
    "vehicleNum": "080845",
    "vehicleCd": "319",
    "vehicleCorpCd": "1",
    "running": true,
    "lat": 34.560889,
    "lon": 135.484583,
    "route": "堺東駅前→もず駅前→深井駅→あみだ池",
    "stop": "大仙公園西",
    "passTime": "17:46",
    "vehicleType": "南海バス(車椅子・ベビーカー・ノンステップ)",
    "updateTime": "2026/07/19 17:47"
  },
  {
    "vehicleNum": "080857",
    "vehicleCd": "226",
    "vehicleCorpCd": "1",
    "running": true,
    "lat": 34.576083,
    "lon": 135.471083,
    "route": "堺駅前→堺駅南口",
    "stop": "宿院",
    "passTime": "17:46",
    "vehicleType": "南海バス(車椅子・ベビーカー・ノンステップ)",
    "updateTime": "2026/07/19 17:47"
  },
  {
    "vehicleNum": "080864",
    "vehicleCd": "146",
    "vehicleCorpCd": "1",
    "running": true,
    "lat": 34.567389,
    "lon": 135.505583,
    "route": "堺駅南口→地下鉄新金岡駅前",
    "stop": "金岡公園前",
    "passTime": "17:47",
    "vehicleType": "南海バス(車椅子・ベビーカー・ノンステップ)",
    "updateTime": "2026/07/19 17:47"
  },
  {
    "vehicleNum": "080866",
    "vehicleCd": "497",
    "vehicleCorpCd": "1",
    "running": true,
    "lat": 34.506278,
    "lon": 135.575389,
    "route": "金剛駅前→向陽・藤沢回り→金剛駅前",
    "stop": "向陽台３丁目",
    "passTime": "17:46",
    "vehicleType": "南海バス(車椅子・ベビーカー・ノンステップ)",
    "updateTime": "2026/07/19 17:47"
  },
  {
    "vehicleNum": "080867",
    "vehicleCd": "364",
    "vehicleCorpCd": "1",
    "running": true,
    "lat": 34.496472,
    "lon": 135.512694,
    "route": "金剛駅前→帝塚山学院泉ヶ丘校前→泉ヶ丘駅前",
    "stop": "茶山台２丁",
    "passTime": "17:44",
    "vehicleType": "南海バス(車椅子・ベビーカー・ノンステップ)",
    "updateTime": "2026/07/19 17:47"
  },
  {
    "vehicleNum": "080865",
    "vehicleCd": "504",
    "vehicleCorpCd": "1",
    "running": true,
    "lat": 34.591778,
    "lon": 135.440472,
    "route": "海浜匠町→匠町→堺駅西口→堺東駅前→阪和堺市駅前",
    "stop": "海浜匠町",
    "passTime": "17:43",
    "vehicleType": "南海バス(車椅子・ベビーカー・ノンステップ)",
    "updateTime": "2026/07/19 17:47"
  },
  {
    "vehicleNum": "080869",
    "vehicleCd": "316",
    "vehicleCorpCd": "1",
    "running": true,
    "lat": 34.533778,
    "lon": 135.487694,
    "route": "津久野駅前→堺市立総合医療センター前→八田荘団地→泉ヶ丘駅",
    "stop": "中深井南",
    "passTime": "17:46",
    "vehicleType": "南海バス(車椅子・ベビーカー・ノンステップ)",
    "updateTime": "2026/07/19 17:47"
  },
  {
    "vehicleNum": "080874",
    "vehicleCd": "352",
    "vehicleCorpCd": "1",
    "running": true,
    "lat": 34.492389,
    "lon": 135.543389,
    "route": "泉ヶ丘駅→狭山ニュータウンセンター→金剛駅前",
    "stop": "今熊",
    "passTime": "17:47",
    "vehicleType": "南海バス(車椅子・ベビーカー・ノンステップ)",
    "updateTime": "2026/07/19 17:47"
  },
  {
    "vehicleNum": "080870",
    "vehicleCd": "153",
    "vehicleCorpCd": "1",
    "running": true,
    "lat": 34.5935,
    "lon": 135.468889,
    "route": "堺駅西口→錦綾町→堺東駅前",
    "stop": "松屋大和川通３丁",
    "passTime": "17:44",
    "vehicleType": "南海バス(車椅子・ベビーカー・ノンステップ)",
    "updateTime": "2026/07/19 17:47"
  },
  {
    "vehicleNum": "080880",
    "vehicleCd": "360",
    "vehicleCorpCd": "1",
    "running": true,
    "lat": 34.569,
    "lon": 135.483694,
    "route": "地下鉄新金岡駅前→堺駅南口",
    "stop": "一条通",
    "passTime": "17:47",
    "vehicleType": "南海バス(車椅子・ベビーカー・ノンステップ)",
    "updateTime": "2026/07/19 17:47"
  },
  {
    "vehicleNum": "080878",
    "vehicleCd": "368",
    "vehicleCorpCd": "1",
    "running": true,
    "lat": 34.544194,
    "lon": 135.511389,
    "route": "堺駅南口→福町→北野田駅前",
    "stop": "府大研究所前",
    "passTime": "17:46",
    "vehicleType": "南海バス(車椅子・ベビーカー・ノンステップ)",
    "updateTime": "2026/07/19 17:47"
  },
  {
    "vehicleNum": "080882",
    "vehicleCd": "343",
    "vehicleCorpCd": "1",
    "running": true,
    "lat": 34.485694,
    "lon": 135.503194,
    "route": "畑→片蔵→泉ヶ丘駅",
    "stop": "片蔵",
    "passTime": "17:47",
    "vehicleType": "南海バス(車椅子・ベビーカー・ノンステップ)",
    "updateTime": "2026/07/19 17:47"
  },
  {
    "vehicleNum": "080894",
    "vehicleCd": "350",
    "vehicleCorpCd": "1",
    "running": true,
    "lat": 34.564194,
    "lon": 135.517583,
    "route": "北野田駅前→菩提→地下鉄新金岡駅前",
    "stop": "金岡口",
    "passTime": "17:44",
    "vehicleType": "南海バス(車椅子・ベビーカー・ノンステップ)",
    "updateTime": "2026/07/19 17:47"
  },
  {
    "vehicleNum": "080895",
    "vehicleCd": "167",
    "vehicleCorpCd": "1",
    "running": true,
    "lat": 34.544778,
    "lon": 135.543694,
    "route": "美原区役所→野遠→地下鉄新金岡駅前",
    "stop": "大饗",
    "passTime": "17:46",
    "vehicleType": "南海バス(車椅子・ベビーカー・ノンステップ)",
    "updateTime": "2026/07/19 17:47"
  },
  {
    "vehicleNum": "080905",
    "vehicleCd": "353",
    "vehicleCorpCd": "1",
    "running": true,
    "lat": 34.482778,
    "lon": 135.495889,
    "route": "栂・美木多駅→原山台回り→栂・美木多駅",
    "stop": "原山台中学校前",
    "passTime": "17:46",
    "vehicleType": "南海バス(車椅子・ベビーカー・ノンステップ)",
    "updateTime": "2026/07/19 17:47"
  },
  {
    "vehicleNum": "080912",
    "vehicleCd": "372",
    "vehicleCorpCd": "1",
    "running": true,
    "lat": 34.585194,
    "lon": 135.492694,
    "route": "河内天美駅前→天美我堂→堺東駅前",
    "stop": "香ヶ丘",
    "passTime": "17:47",
    "vehicleType": "南海バス(車椅子・ベビーカー・ノンステップ)",
    "updateTime": "2026/07/19 17:47"
  },
  {
    "vehicleNum": "080917",
    "vehicleCd": "70",
    "vehicleCorpCd": "1",
    "running": true,
    "lat": 34.489389,
    "lon": 135.525694,
    "route": "泉ヶ丘駅→スマ・エコタウン晴美台→高倉台左回り→泉ヶ丘駅",
    "stop": "晴美台２丁",
    "passTime": "17:47",
    "vehicleType": "南海バス(車椅子・ベビーカー・ノンステップ)",
    "updateTime": "2026/07/19 17:47"
  },
  {
    "vehicleNum": "080927",
    "vehicleCd": "79",
    "vehicleCorpCd": "1",
    "running": true,
    "lat": 34.499583,
    "lon": 135.5115,
    "route": "泉ヶ丘駅→近大キャンパス前→金剛駅前",
    "stop": "泉ヶ丘駅（北側）",
    "passTime": "17:46",
    "vehicleType": "南海バス(車椅子・ベビーカー・ノンステップ)",
    "updateTime": "2026/07/19 17:47"
  },
  {
    "vehicleNum": "080994",
    "vehicleCd": "130",
    "vehicleCorpCd": "1",
    "running": true,
    "lat": 34.464889,
    "lon": 135.499389,
    "route": "栂・美木多駅→御池台回り→栂・美木多駅",
    "stop": "御池台１丁",
    "passTime": "17:46",
    "vehicleType": "南海バス(車椅子・ベビーカー・ノンステップ)",
    "updateTime": "2026/07/19 17:47"
  },
  {
    "vehicleNum": "080995",
    "vehicleCd": "118",
    "vehicleCorpCd": "1",
    "running": true,
    "lat": 34.481,
    "lon": 135.491,
    "route": "泉ヶ丘駅→庭代台右回り→栂・美木多駅",
    "stop": "原山公園前",
    "passTime": "17:47",
    "vehicleType": "南海バス(車椅子・ベビーカー・ノンステップ)",
    "updateTime": "2026/07/19 17:47"
  },
  {
    "vehicleNum": "080978",
    "vehicleCd": "431",
    "vehicleCorpCd": "1",
    "running": true,
    "lat": 34.555389,
    "lon": 135.497972,
    "route": "堺駅南口→三国ヶ丘駅前→北野田駅前",
    "stop": "梅北町",
    "passTime": "17:45",
    "vehicleType": "南海バス(車椅子・ベビーカー・ノンステップ)",
    "updateTime": "2026/07/19 17:47"
  },
  {
    "vehicleNum": "081003",
    "vehicleCd": "610",
    "vehicleCorpCd": "1",
    "running": true,
    "lat": 34.567278,
    "lon": 135.478778,
    "route": "東山車庫前→小阪→堺東駅前",
    "stop": "大仙中町",
    "passTime": "17:46",
    "vehicleType": "南海バス(車椅子・ベビーカー・ノンステップ)",
    "updateTime": "2026/07/19 17:47"
  },
  {
    "vehicleNum": "081005",
    "vehicleCd": "272",
    "vehicleCorpCd": "1",
    "running": true,
    "lat": 34.527,
    "lon": 135.505083,
    "route": "深井駅→田園→泉ヶ丘駅",
    "stop": "畑山",
    "passTime": "17:47",
    "vehicleType": "南海バス(車椅子・ベビーカー・ノンステップ)",
    "updateTime": "2026/07/19 17:47"
  },
  {
    "vehicleNum": "081004",
    "vehicleCd": "271",
    "vehicleCorpCd": "1",
    "running": true,
    "lat": 34.576389,
    "lon": 135.471278,
    "route": "堺駅南口→福町→北野田駅前",
    "stop": "宿院",
    "passTime": "17:47",
    "vehicleType": "南海バス(車椅子・ベビーカー・ノンステップ)",
    "updateTime": "2026/07/19 17:47"
  },
  {
    "vehicleNum": "081007",
    "vehicleCd": "127",
    "vehicleCorpCd": "1",
    "running": true,
    "lat": 34.561278,
    "lon": 135.473778,
    "route": "堺東駅前→上野芝→泉ヶ丘駅",
    "stop": "旭ヶ丘北町",
    "passTime": "17:47",
    "vehicleType": "南海バス(車椅子・ベビーカー・ノンステップ)",
    "updateTime": "2026/07/19 17:47"
  },
  {
    "vehicleNum": "081014",
    "vehicleCd": "229",
    "vehicleCorpCd": "1",
    "running": true,
    "lat": 34.523778,
    "lon": 135.542,
    "route": "堺駅南口→三国ヶ丘駅前→北野田駅前",
    "stop": "大美野噴水前",
    "passTime": "17:45",
    "vehicleType": "南海バス(車椅子・ベビーカー・ノンステップ)",
    "updateTime": "2026/07/19 17:47"
  },
  {
    "vehicleNum": "081019",
    "vehicleCd": "267",
    "vehicleCorpCd": "1",
    "running": true,
    "lat": 34.527278,
    "lon": 135.529194,
    "route": "北野田駅前→西口園→堺駅南口",
    "stop": "西小学校前",
    "passTime": "17:47",
    "vehicleType": "南海バス(車椅子・ベビーカー・ノンステップ)",
    "updateTime": "2026/07/19 17:47"
  },
  {
    "vehicleNum": "081020",
    "vehicleCd": "163",
    "vehicleCorpCd": "1",
    "running": true,
    "lat": 34.556083,
    "lon": 135.503972,
    "route": "北野田駅前→福町→堺駅南口",
    "stop": "中もず駅前通",
    "passTime": "17:43",
    "vehicleType": "南海バス(車椅子・ベビーカー・ノンステップ)",
    "updateTime": "2026/07/19 17:47"
  },
  {
    "vehicleNum": "081024",
    "vehicleCd": "270",
    "vehicleCorpCd": "1",
    "running": true,
    "lat": 34.554778,
    "lon": 135.500778,
    "route": "中もず駅前→北条→堺市立総合医療センター前",
    "stop": "中もず駅前（南側）",
    "passTime": "17:46",
    "vehicleType": "南海バス(車椅子・ベビーカー・ノンステップ)",
    "updateTime": "2026/07/19 17:47"
  },
  {
    "vehicleNum": "081035",
    "vehicleCd": "491",
    "vehicleCorpCd": "1",
    "running": true,
    "lat": 34.4765,
    "lon": 135.548083,
    "route": "金剛駅前→狭山ニュータウンセンター→泉ヶ丘駅",
    "stop": "南中学校前",
    "passTime": "17:46",
    "vehicleType": "南海バス(車椅子・ベビーカー・ノンステップ)",
    "updateTime": "2026/07/19 17:47"
  },
  {
    "vehicleNum": "081034",
    "vehicleCd": "120",
    "vehicleCorpCd": "1",
    "running": true,
    "lat": 34.496389,
    "lon": 135.517778,
    "route": "泉ヶ丘駅→スマ・エコタウン晴美台→高倉台左回り→泉ヶ丘駅",
    "stop": "三原台１丁",
    "passTime": "17:44",
    "vehicleType": "南海バス(車椅子・ベビーカー・ノンステップ)",
    "updateTime": "2026/07/19 17:47"
  },
  {
    "vehicleNum": "081036",
    "vehicleCd": "293",
    "vehicleCorpCd": "1",
    "running": true,
    "lat": 34.490778,
    "lon": 135.499583,
    "route": "泉ヶ丘駅→鉢ヶ峯→泉ヶ丘駅",
    "stop": "泉北高校前",
    "passTime": "17:46",
    "vehicleType": "南海バス(車椅子・ベビーカー・ノンステップ)",
    "updateTime": "2026/07/19 17:47"
  },
  {
    "vehicleNum": "081041",
    "vehicleCd": "611",
    "vehicleCorpCd": "1",
    "running": true,
    "lat": 34.467194,
    "lon": 135.499278,
    "route": "ハーベストの丘→別所→泉ヶ丘駅",
    "stop": "御池台南",
    "passTime": "17:42",
    "vehicleType": "南海バス(車椅子・ベビーカー・ノンステップ)",
    "updateTime": "2026/07/19 17:47"
  },
  {
    "vehicleNum": "090103",
    "vehicleCd": "49",
    "vehicleCorpCd": "2",
    "running": true,
    "lat": 34.444389,
    "lon": 135.388278,
    "route": "岸和田駅前→天神山・一の宮循環　左回り→岸和田駅前",
    "stop": "土生",
    "passTime": "17:46",
    "vehicleType": "南海ウイングバス(車椅子・ベビーカー・ワンステップ)",
    "updateTime": "2026/07/19 17:47"
  },
  {
    "vehicleNum": "081045",
    "vehicleCd": "188",
    "vehicleCorpCd": "1",
    "running": true,
    "lat": 34.520889,
    "lon": 135.507,
    "route": "あみだ池→深井駅→もず駅前→堺東駅前",
    "stop": "東中学校前（堺市）",
    "passTime": "17:46",
    "vehicleType": "南海バス(車椅子・ベビーカー・ノンステップ)",
    "updateTime": "2026/07/19 17:47"
  },
  {
    "vehicleNum": "090104",
    "vehicleCd": "53",
    "vehicleCorpCd": "2",
    "running": true,
    "lat": 34.425889,
    "lon": 135.439,
    "route": "牛滝温泉→内畑→岸和田駅前",
    "stop": "積川神社前",
    "passTime": "17:47",
    "vehicleType": "南海ウイングバス(車椅子・ベビーカー・ワンステップ)",
    "updateTime": "2026/07/19 17:47"
  },
  {
    "vehicleNum": "090144",
    "vehicleCd": "82",
    "vehicleCorpCd": "2",
    "running": true,
    "lat": 34.457583,
    "lon": 135.381694,
    "route": "岸和田駅前→天神山・一の宮循環　右回り→岸和田駅前",
    "stop": "岸和田駅前",
    "passTime": "17:45",
    "vehicleType": "南海ウイングバス(車椅子・ベビーカー・ワンステップ)",
    "updateTime": "2026/07/19 17:47"
  },
  {
    "vehicleNum": "091070",
    "vehicleCd": "487",
    "vehicleCorpCd": "1",
    "running": true,
    "lat": 34.436778,
    "lon": 135.241583,
    "route": "エアロプラザ→第２ターミナル(国内線・国際線)→エアロプラザ",
    "stop": "第2ターミナル国際線",
    "passTime": "17:43",
    "vehicleType": "南海バス",
    "updateTime": "2026/07/19 17:47"
  },
  {
    "vehicleNum": "090766",
    "vehicleCd": "137",
    "vehicleCorpCd": "2",
    "running": true,
    "lat": 34.328,
    "lon": 135.216,
    "route": "箱作駅前→桃の木台回り→箱作駅前",
    "stop": "桃の木台５丁目",
    "passTime": "17:47",
    "vehicleType": "南海ウイングバス(車椅子・ワンステップ)",
    "updateTime": "2026/07/19 17:47"
  },
  {
    "vehicleNum": "091580",
    "vehicleCd": "85",
    "vehicleCorpCd": "2",
    "running": true,
    "lat": 34.380389,
    "lon": 135.266389,
    "route": "泉南市コミュニティバス 新家回り",
    "stop": "イオンモールりんくう泉南",
    "passTime": "17:45",
    "vehicleType": "南海ウイングバス(車椅子・ベビーカー・ノンステップ)",
    "updateTime": "2026/07/19 17:47"
  },
  {
    "vehicleNum": "091600",
    "vehicleCd": "201",
    "vehicleCorpCd": "1",
    "running": true,
    "lat": 34.435278,
    "lon": 135.239194,
    "route": "空港駅→国際循環→空港駅",
    "stop": "機内食前",
    "passTime": "17:45",
    "vehicleType": "南海バス(車椅子・ノンステップ)",
    "updateTime": "2026/07/19 17:47"
  },
  {
    "vehicleNum": "091596",
    "vehicleCd": "200",
    "vehicleCorpCd": "1",
    "running": true,
    "lat": 34.435,
    "lon": 135.2435,
    "route": "ポートターミナル→第２ターミナル",
    "stop": "旅客ターミナル",
    "passTime": "17:47",
    "vehicleType": "南海バス(車椅子・ノンステップ)",
    "updateTime": "2026/07/19 17:47"
  },
  {
    "vehicleNum": "091658",
    "vehicleCd": "203",
    "vehicleCorpCd": "1",
    "running": true,
    "lat": 34.424778,
    "lon": 135.225389,
    "route": "給油地区→空港駅",
    "stop": "浄化センター前",
    "passTime": "17:47",
    "vehicleType": "南海バス(車椅子・ノンステップ)",
    "updateTime": "2026/07/19 17:47"
  },
  {
    "vehicleNum": "091736",
    "vehicleCd": "65",
    "vehicleCorpCd": "2",
    "running": true,
    "lat": 34.424194,
    "lon": 135.4395,
    "route": "岸和田駅前→内畑→白原車庫",
    "stop": "積川神社前",
    "passTime": "17:46",
    "vehicleType": "南海ウイングバス(車椅子・ワンステップ)",
    "updateTime": "2026/07/19 17:47"
  },
  {
    "vehicleNum": "091743",
    "vehicleCd": "45",
    "vehicleCorpCd": "2",
    "running": true,
    "lat": 34.429472,
    "lon": 135.430694,
    "route": "道の駅愛彩ランド→包近→和泉中央駅",
    "stop": "職業能力開発大学",
    "passTime": "17:46",
    "vehicleType": "南海ウイングバス(車椅子・ワンステップ)",
    "updateTime": "2026/07/19 17:47"
  },
  {
    "vehicleNum": "091785",
    "vehicleCd": "120",
    "vehicleCorpCd": "2",
    "running": true,
    "lat": 34.385583,
    "lon": 135.363083,
    "route": "熊取町　つばさが丘循環コース",
    "stop": "和田",
    "passTime": "17:46",
    "vehicleType": "熊取町コミュニティバス(メジーナちゃん号)",
    "updateTime": "2026/07/19 17:47"
  },
  {
    "vehicleNum": "091744",
    "vehicleCd": "148",
    "vehicleCorpCd": "2",
    "running": true,
    "lat": 34.466778,
    "lon": 135.386778,
    "route": "岸和田駅前→荒木町→和泉中央駅",
    "stop": "和泉大宮駅前",
    "passTime": "17:46",
    "vehicleType": "南海ウイングバス(車椅子・ベビーカー・ワンステップ)",
    "updateTime": "2026/07/19 17:47"
  },
  {
    "vehicleNum": "091784",
    "vehicleCd": "119",
    "vehicleCorpCd": "2",
    "running": true,
    "lat": 34.397278,
    "lon": 135.342,
    "route": "熊取町　青葉台方面循環コース",
    "stop": "平見",
    "passTime": "17:47",
    "vehicleType": "熊取町コミュニティバス(ジャンプ君号)",
    "updateTime": "2026/07/19 17:47"
  },
  {
    "vehicleNum": "091792",
    "vehicleCd": "59",
    "vehicleCorpCd": "1",
    "running": true,
    "lat": 34.433278,
    "lon": 135.236389,
    "route": "空港駅→ＦｅｄＥｘ先行→空港駅（循環）",
    "stop": "空港駅",
    "passTime": "17:45",
    "vehicleType": "南海バス(車椅子・ノンステップ)",
    "updateTime": "2026/07/19 17:47"
  },
  {
    "vehicleNum": "091894",
    "vehicleCd": "3",
    "vehicleCorpCd": "2",
    "running": true,
    "lat": 34.3705,
    "lon": 135.279778,
    "route": "泉南市コミュニティバス 一丘Ａ回り",
    "stop": "市場大発団地前",
    "passTime": "17:47",
    "vehicleType": "泉南市コミュニティバス(紫)",
    "updateTime": "2026/07/19 17:47"
  },
  {
    "vehicleNum": "091895",
    "vehicleCd": "4",
    "vehicleCorpCd": "2",
    "running": true,
    "lat": 34.362083,
    "lon": 135.272278,
    "route": "泉南市コミュニティバス 山回り",
    "stop": "図書館・文化ホール前",
    "passTime": "17:46",
    "vehicleType": "泉南市コミュニティバス(ピンク)",
    "updateTime": "2026/07/19 17:47"
  },
  {
    "vehicleNum": "092046",
    "vehicleCd": "464",
    "vehicleCorpCd": "1",
    "running": true,
    "lat": 34.450583,
    "lon": 135.572694,
    "route": "ﾓｯｸﾙ 美加～木戸東町～美加",
    "stop": "ラブリーホール前",
    "passTime": "17:39",
    "vehicleType": "南海バス(車椅子・ベビーカー・ノンステップ)",
    "updateTime": "2026/07/19 17:47"
  },
  {
    "vehicleNum": "092204",
    "vehicleCd": "416",
    "vehicleCorpCd": "1",
    "running": true,
    "lat": 34.442278,
    "lon": 135.549083,
    "route": "長野→天野山→旭",
    "stop": "水落",
    "passTime": "17:47",
    "vehicleType": "南海バス",
    "updateTime": "2026/07/19 17:47"
  },
  {
    "vehicleNum": "092153",
    "vehicleCd": "529",
    "vehicleCorpCd": "1",
    "running": true,
    "lat": 34.436889,
    "lon": 135.234,
    "route": "エアロプラザ→第２ターミナル(国内線・国際線)→エアロプラザ",
    "stop": "第2ターミナル国際線",
    "passTime": "17:47",
    "vehicleType": "南海バス",
    "updateTime": "2026/07/19 17:47"
  },
  {
    "vehicleNum": "092044",
    "vehicleCd": "462",
    "vehicleCorpCd": "1",
    "running": true,
    "lat": 34.456889,
    "lon": 135.5645,
    "route": "ﾓｯｸﾙ 美加～木戸東町～美加",
    "stop": "河内長野市役所前",
    "passTime": "17:45",
    "vehicleType": "南海バス(車椅子・ベビーカー・ノンステップ)",
    "updateTime": "2026/07/19 17:47"
  },
  {
    "vehicleNum": "092345",
    "vehicleCd": "160",
    "vehicleCorpCd": "1",
    "running": true,
    "lat": 34.436694,
    "lon": 135.2415,
    "route": "第１ターミナル→ポートターミナル",
    "stop": "旅客ターミナル",
    "passTime": "17:45",
    "vehicleType": "南海バス",
    "updateTime": "2026/07/19 17:48"
  },
  {
    "vehicleNum": "092372",
    "vehicleCd": "159",
    "vehicleCorpCd": "1",
    "running": true,
    "lat": 34.471889,
    "lon": 135.477583,
    "route": "光明池駅→城山台５丁→みずき台２丁目西",
    "stop": "光明池駅",
    "passTime": "17:45",
    "vehicleType": "南海バス(車椅子・ベビーカー・ノンステップ)",
    "updateTime": "2026/07/19 17:48"
  },
  {
    "vehicleNum": "092382",
    "vehicleCd": "556",
    "vehicleCorpCd": "1",
    "running": true,
    "lat": 34.470778,
    "lon": 135.475889,
    "route": "堺東駅前→鳳駅前→光明池駅",
    "stop": "変電所前",
    "passTime": "17:45",
    "vehicleType": "南海バス(車椅子・ベビーカー・ノンステップ)",
    "updateTime": "2026/07/19 17:48"
  },
  {
    "vehicleNum": "092383",
    "vehicleCd": "44",
    "vehicleCorpCd": "1",
    "running": true,
    "lat": 34.487694,
    "lon": 135.424,
    "route": "光明池駅→光明池車庫→和泉中央駅→泉大津駅前",
    "stop": "府中町南",
    "passTime": "17:41",
    "vehicleType": "南海バス(車椅子・ベビーカー・ワンステップ)",
    "updateTime": "2026/07/19 17:48"
  },
  {
    "vehicleNum": "092398",
    "vehicleCd": "41",
    "vehicleCorpCd": "1",
    "running": true,
    "lat": 34.436083,
    "lon": 135.233194,
    "route": "エアロプラザ→第２ターミナル(国内線・国際線)→エアロプラザ",
    "stop": "エアロプラザ",
    "passTime": "17:44",
    "vehicleType": "南海バス(車椅子・ノンステップ)",
    "updateTime": "2026/07/19 17:48"
  },
  {
    "vehicleNum": "092467",
    "vehicleCd": "50",
    "vehicleCorpCd": "1",
    "running": true,
    "lat": 34.448194,
    "lon": 135.556194,
    "route": "旭ヶ丘→水落→河内長野駅前",
    "stop": "上原口",
    "passTime": "17:45",
    "vehicleType": "南海バス(車椅子・ベビーカー・ノンステップ)",
    "updateTime": "2026/07/19 17:48"
  },
  {
    "vehicleNum": "092454",
    "vehicleCd": "125",
    "vehicleCorpCd": "2",
    "running": true,
    "lat": 34.374278,
    "lon": 135.272889,
    "route": "泉南市コミュニティバス 南Ａ回り",
    "stop": "鳴滝",
    "passTime": "17:47",
    "vehicleType": "泉南市コミュニティバス(橙)",
    "updateTime": "2026/07/19 17:48"
  },
  {
    "vehicleNum": "092470",
    "vehicleCd": "105",
    "vehicleCorpCd": "1",
    "running": true,
    "lat": 34.433083,
    "lon": 135.561,
    "route": "大矢船西町→三日市町駅前",
    "stop": "南花台１丁目南",
    "passTime": "17:46",
    "vehicleType": "南海バス(車椅子・ベビーカー・ノンステップ)",
    "updateTime": "2026/07/19 17:48"
  },
  {
    "vehicleNum": "092482",
    "vehicleCd": "528",
    "vehicleCorpCd": "1",
    "running": true,
    "lat": 34.438194,
    "lon": 135.588694,
    "route": "河内長野駅前→河合寺→小吹台",
    "stop": "葛の口",
    "passTime": "17:47",
    "vehicleType": "南海バス(車椅子・ベビーカー・ノンステップ)",
    "updateTime": "2026/07/19 17:48"
  },
  {
    "vehicleNum": "092498",
    "vehicleCd": "8",
    "vehicleCorpCd": "1",
    "running": true,
    "lat": 34.532389,
    "lon": 135.459472,
    "route": "堺東駅前→鳳駅前→栂・美木多駅",
    "stop": "西区役所前",
    "passTime": "17:44",
    "vehicleType": "南海バス(車椅子・ベビーカー・ノンステップ)",
    "updateTime": "2026/07/19 17:48"
  },
  {
    "vehicleNum": "092653",
    "vehicleCd": "357",
    "vehicleCorpCd": "1",
    "running": true,
    "lat": 34.4225,
    "lon": 135.593278,
    "route": "美加の台駅前→美加の台口→美加の台駅前",
    "stop": "延命寺口",
    "passTime": "17:47",
    "vehicleType": "南海バス(車椅子・ベビーカー・ノンステップ)",
    "updateTime": "2026/07/19 17:48"
  },
  {
    "vehicleNum": "092577",
    "vehicleCd": "578",
    "vehicleCorpCd": "1",
    "running": true,
    "lat": 34.458083,
    "lon": 135.555583,
    "route": "千代田駅前→赤峯→荘園町",
    "stop": "赤峰",
    "passTime": "17:46",
    "vehicleType": "南海バス(車椅子・ベビーカー・ノンステップ)",
    "updateTime": "2026/07/19 17:48"
  },
  {
    "vehicleNum": "092595",
    "vehicleCd": "326",
    "vehicleCorpCd": "1",
    "running": true,
    "lat": 34.430194,
    "lon": 135.556778,
    "route": "三日市町駅前→南花台１丁目北→南ヶ丘",
    "stop": "南花台３丁目北",
    "passTime": "17:48",
    "vehicleType": "南海バス(車椅子・ベビーカー・ノンステップ)",
    "updateTime": "2026/07/19 17:48"
  },
  {
    "vehicleNum": "092648",
    "vehicleCd": "486",
    "vehicleCorpCd": "1",
    "running": true,
    "lat": 34.436583,
    "lon": 135.571,
    "route": "三日市町駅前→清見台回り→三日市町駅前",
    "stop": "三日市町駅前通",
    "passTime": "17:45",
    "vehicleType": "南海バス(車椅子・ベビーカー・ノンステップ)",
    "updateTime": "2026/07/19 17:48"
  },
  {
    "vehicleNum": "092587",
    "vehicleCd": "124",
    "vehicleCorpCd": "1",
    "running": true,
    "lat": 34.437583,
    "lon": 135.550194,
    "route": "滝畑ダム→河内長野駅前",
    "stop": "上高向",
    "passTime": "17:47",
    "vehicleType": "南海バス(車椅子・ベビーカー・ノンステップ)",
    "updateTime": "2026/07/19 17:48"
  },
  {
    "vehicleNum": "092711",
    "vehicleCd": "355",
    "vehicleCorpCd": "1",
    "running": true,
    "lat": 34.445583,
    "lon": 135.4745,
    "route": "和泉中央駅→和泉青葉台",
    "stop": "納花",
    "passTime": "17:47",
    "vehicleType": "南海バス(車椅子・ベビーカー・ノンステップ)",
    "updateTime": "2026/07/19 17:48"
  },
  {
    "vehicleNum": "092830",
    "vehicleCd": "367",
    "vehicleCorpCd": "1",
    "running": true,
    "lat": 34.460694,
    "lon": 135.472278,
    "route": "和泉中央駅→はつが野→和泉青葉台→和泉中央駅（左回り）",
    "stop": "和泉和田",
    "passTime": "17:47",
    "vehicleType": "南海バス(車椅子・ベビーカー・ノンステップ)",
    "updateTime": "2026/07/19 17:48"
  },
  {
    "vehicleNum": "092857",
    "vehicleCd": "516",
    "vehicleCorpCd": "1",
    "running": true,
    "lat": 34.505278,
    "lon": 135.448278,
    "route": "北信太駅筋→鶴山台団地→北信太駅筋",
    "stop": "信太中学校前",
    "passTime": "17:47",
    "vehicleType": "南海バス(車椅子・ベビーカー・ノンステップ)",
    "updateTime": "2026/07/19 17:48"
  },
  {
    "vehicleNum": "092858",
    "vehicleCd": "320",
    "vehicleCorpCd": "1",
    "running": true,
    "lat": 34.454194,
    "lon": 135.445278,
    "route": "ららぽーと和泉前→和泉中央駅→和泉府中駅前",
    "stop": "ららぽーと和泉前",
    "passTime": "17:44",
    "vehicleType": "南海バス(車椅子・ベビーカー・ノンステップ)",
    "updateTime": "2026/07/19 17:48"
  },
  {
    "vehicleNum": "092859",
    "vehicleCd": "32",
    "vehicleCorpCd": "1",
    "running": true,
    "lat": 34.402194,
    "lon": 135.5325,
    "route": "河内長野駅前→滝畑ダム",
    "stop": "清掃工場前",
    "passTime": "17:43",
    "vehicleType": "南海バス(車椅子・ベビーカー・ノンステップ)",
    "updateTime": "2026/07/19 17:48"
  },
  {
    "vehicleNum": "092860",
    "vehicleCd": "379",
    "vehicleCorpCd": "1",
    "running": true,
    "lat": 34.4585,
    "lon": 135.5555,
    "route": "千代→緑→小山田→千代",
    "stop": "小山田口",
    "passTime": "17:47",
    "vehicleType": "南海バス(車椅子・ベビーカー・ノンステップ)",
    "updateTime": "2026/07/19 17:48"
  },
  {
    "vehicleNum": "092873",
    "vehicleCd": "234",
    "vehicleCorpCd": "1",
    "running": true,
    "lat": 34.554389,
    "lon": 135.467583,
    "route": "光明池駅→山田→堺東駅前",
    "stop": "霞ヶ丘",
    "passTime": "17:46",
    "vehicleType": "南海バス(車椅子・ベビーカー・ノンステップ)",
    "updateTime": "2026/07/19 17:48"
  },
  {
    "vehicleNum": "092872",
    "vehicleCd": "500",
    "vehicleCorpCd": "1",
    "running": true,
    "lat": 34.574583,
    "lon": 135.484,
    "route": "堺東駅前→鳳駅前→光明池駅",
    "stop": "堺東駅前",
    "passTime": "17:47",
    "vehicleType": "南海バス(車椅子・ベビーカー・ノンステップ)",
    "updateTime": "2026/07/19 17:48"
  },
  {
    "vehicleNum": "092914",
    "vehicleCd": "75",
    "vehicleCorpCd": "1",
    "running": true,
    "lat": 34.458,
    "lon": 135.449889,
    "route": "泉大津駅前→和泉府中駅前→和泉中央駅",
    "stop": "唐国南",
    "passTime": "17:47",
    "vehicleType": "南海バス(車椅子・ベビーカー・ノンステップ)",
    "updateTime": "2026/07/19 17:48"
  },
  {
    "vehicleNum": "092913",
    "vehicleCd": "154",
    "vehicleCorpCd": "1",
    "running": true,
    "lat": 34.537389,
    "lon": 135.463389,
    "route": "国分峠東→栂・美木多駅→堺東駅前",
    "stop": "鳳北口",
    "passTime": "17:48",
    "vehicleType": "南海バス(車椅子・ベビーカー・ノンステップ)",
    "updateTime": "2026/07/19 17:48"
  },
  {
    "vehicleNum": "092915",
    "vehicleCd": "346",
    "vehicleCorpCd": "1",
    "running": true,
    "lat": 34.450778,
    "lon": 135.574583,
    "route": "こんごう福祉→長野",
    "stop": "河内長野駅前",
    "passTime": "17:43",
    "vehicleType": "南海バス(車椅子・ベビーカー・ノンステップ)",
    "updateTime": "2026/07/19 17:48"
  },
  {
    "vehicleNum": "092916",
    "vehicleCd": "235",
    "vehicleCorpCd": "1",
    "running": true,
    "lat": 34.482278,
    "lon": 135.427389,
    "route": "和泉中央駅→いぶき野→和泉府中駅前",
    "stop": "府中町南",
    "passTime": "17:47",
    "vehicleType": "南海バス(車椅子・ベビーカー・ノンステップ)",
    "updateTime": "2026/07/19 17:48"
  },
  {
    "vehicleNum": "092919",
    "vehicleCd": "230",
    "vehicleCorpCd": "1",
    "running": true,
    "lat": 34.453083,
    "lon": 135.573694,
    "route": "金剛山ﾛｰﾌﾟｳｪｲ前→日東町東口→河内長野駅前",
    "stop": "河合寺",
    "passTime": "17:44",
    "vehicleType": "南海バス(車椅子・ベビーカー・ノンステップ)",
    "updateTime": "2026/07/19 17:48"
  },
  {
    "vehicleNum": "092918",
    "vehicleCd": "114",
    "vehicleCorpCd": "1",
    "running": true,
    "lat": 34.516278,
    "lon": 135.464083,
    "route": "光明池駅→山田→堺東駅前",
    "stop": "山田北",
    "passTime": "17:45",
    "vehicleType": "南海バス(車椅子・ベビーカー・ノンステップ)",
    "updateTime": "2026/07/19 17:48"
  },
  {
    "vehicleNum": "092951",
    "vehicleCd": "340",
    "vehicleCorpCd": "1",
    "running": true,
    "lat": 34.483389,
    "lon": 135.474583,
    "route": "光明池駅→新檜尾台センター→光明池駅",
    "stop": "赤坂台三丁",
    "passTime": "17:47",
    "vehicleType": "南海バス(車椅子・ベビーカー・ノンステップ)",
    "updateTime": "2026/07/19 17:48"
  },
  {
    "vehicleNum": "092952",
    "vehicleCd": "113",
    "vehicleCorpCd": "1",
    "running": true,
    "lat": 34.485083,
    "lon": 135.424889,
    "route": "泉大津駅前→和泉中央駅→和泉青葉台",
    "stop": "和泉府中駅前",
    "passTime": "17:44",
    "vehicleType": "南海バス(車椅子・ベビーカー・ノンステップ)",
    "updateTime": "2026/07/19 17:48"
  },
  {
    "vehicleNum": "092976",
    "vehicleCd": "138",
    "vehicleCorpCd": "1",
    "running": true,
    "lat": 34.465778,
    "lon": 135.462889,
    "route": "泉大津駅前→和泉府中駅前→和泉中央駅→光明池駅",
    "stop": "和泉中央駅",
    "passTime": "17:39",
    "vehicleType": "南海バス(車椅子・ベビーカー・ノンステップ)",
    "updateTime": "2026/07/19 17:48"
  },
  {
    "vehicleNum": "092977",
    "vehicleCd": "608",
    "vehicleCorpCd": "1",
    "running": true,
    "lat": 34.431194,
    "lon": 135.495694,
    "route": "堺東駅前→鳳駅前→国分峠東",
    "stop": "別所南",
    "passTime": "17:45",
    "vehicleType": "南海バス(車椅子・ベビーカー・ノンステップ)",
    "updateTime": "2026/07/19 17:48"
  },
  {
    "vehicleNum": "093035",
    "vehicleCd": "609",
    "vehicleCorpCd": "1",
    "running": true,
    "lat": 34.436083,
    "lon": 135.241583,
    "route": "エアロプラザ→第２ターミナル(国内線・国際線)→エアロプラザ",
    "stop": "第2ターミナル国際線",
    "passTime": "17:40",
    "vehicleType": "南海バス",
    "updateTime": "2026/07/19 17:48"
  },
  {
    "vehicleNum": "093071",
    "vehicleCd": "274",
    "vehicleCorpCd": "1",
    "running": true,
    "lat": 34.458889,
    "lon": 135.489083,
    "route": "みずき台２丁目西→光明池駅",
    "stop": "光明台一丁目",
    "passTime": "17:47",
    "vehicleType": "南海バス(車椅子・ベビーカー・ノンステップ)",
    "updateTime": "2026/07/19 17:48"
  },
  {
    "vehicleNum": "093113",
    "vehicleCd": "133",
    "vehicleCorpCd": "1",
    "running": true,
    "lat": 34.526694,
    "lon": 135.462278,
    "route": "堺東駅前→鳳駅前→光明池駅",
    "stop": "上北",
    "passTime": "17:48",
    "vehicleType": "南海バス(車椅子・ベビーカー・ノンステップ)",
    "updateTime": "2026/07/19 17:48"
  }
]