[
  {
    "vehicleNum": "070101",
    "vehicleCd": "400",
    "vehicleCorpCd": "1",
    "running": true,
    "lat": 34.488083,
    "lon": 135.522194,
    "route": "金剛駅前→狭山ニュータウンセンター→泉ヶ丘駅",
    "stop": "茶山台南口",
    "passTime": "09:15",
    "vehicleType": "泉北コミュニティバス(車椅子・ベビーカー・ノンステップ)",
    "updateTime": "2026/07/21 09:15"
  },
  {
    "vehicleNum": "071117",
    "vehicleCd": "251",
    "vehicleCorpCd": "1",
    "running": true,
    "lat": 34.597583,
    "lon": 135.446472,
    "route": "堺東駅前→錦綾町→堺駅西口",
    "stop": "堺浜シーサイドステージ",
    "passTime": "09:15",
    "vehicleType": "南海バス(車椅子・ベビーカー・ワンステップ)",
    "updateTime": "2026/07/21 09:15"
  },
  {
    "vehicleNum": "072501",
    "vehicleCd": "598",
    "vehicleCorpCd": "1",
    "running": true,
    "lat": 34.586,
    "lon": 135.488,
    "route": "河内天美駅前→天美我堂→堺東駅前",
    "stop": "香ヶ丘",
    "passTime": "09:11",
    "vehicleType": "南海バス(車椅子・ベビーカー・ノンステップ)",
    "updateTime": "2026/07/21 09:16"
  },
  {
    "vehicleNum": "071607",
    "vehicleCd": "414",
    "vehicleCorpCd": "1",
    "running": true,
    "lat": 34.579694,
    "lon": 135.472694,
    "route": "堺東駅前→大小路→堺駅前",
    "stop": "市小学校前",
    "passTime": "09:15",
    "vehicleType": "堺シャトル(車椅子・ベビーカー・ノンステップ)",
    "updateTime": "2026/07/21 09:16"
  },
  {
    "vehicleNum": "071606",
    "vehicleCd": "413",
    "vehicleCorpCd": "1",
    "running": true,
    "lat": 34.574583,
    "lon": 135.481194,
    "route": "堺東駅前→大小路→堺駅前",
    "stop": "堺市役所前",
    "passTime": "09:14",
    "vehicleType": "堺シャトル(車椅子・ベビーカー・ノンステップ)",
    "updateTime": "2026/07/21 09:16"
  },
  {
    "vehicleNum": "071605",
    "vehicleCd": "412",
    "vehicleCorpCd": "1",
    "running": true,
    "lat": 34.578583,
    "lon": 135.474694,
    "route": "堺駅前→大小路→堺東駅前",
    "stop": "大小路",
    "passTime": "09:15",
    "vehicleType": "堺シャトル(車椅子・ベビーカー・ノンステップ)",
    "updateTime": "2026/07/21 09:16"
  },
  {
    "vehicleNum": "080088",
    "vehicleCd": "442",
    "vehicleCorpCd": "1",
    "running": true,
    "lat": 34.506194,
    "lon": 135.5745,
    "route": "金剛駅前→向陽・藤沢回り→金剛駅前",
    "stop": "藤沢台６丁目",
    "passTime": "09:15",
    "vehicleType": "南海バス(車椅子・ベビーカー・ワンステップ)",
    "updateTime": "2026/07/21 09:16"
  },
  {
    "vehicleNum": "080134",
    "vehicleCd": "118",
    "vehicleCorpCd": "2",
    "running": true,
    "lat": 34.4045,
    "lon": 135.348,
    "route": "熊取ニュータウン→熊取駅前（フリー乗降）",
    "stop": "北紺屋",
    "passTime": "09:14",
    "vehicleType": "南海ウイングバス(車椅子・ベビーカー・ワンステップ)",
    "updateTime": "2026/07/21 09:16"
  },
  {
    "vehicleNum": "080179",
    "vehicleCd": "66",
    "vehicleCorpCd": "2",
    "running": true,
    "lat": 34.389278,
    "lon": 135.353694,
    "route": "熊取駅前→大阪体育大学前",
    "stop": "熊取団地",
    "passTime": "09:15",
    "vehicleType": "南海ウイングバス(車椅子・ワンステップ)",
    "updateTime": "2026/07/21 09:16"
  },
  {
    "vehicleNum": "080180",
    "vehicleCd": "68",
    "vehicleCorpCd": "2",
    "running": true,
    "lat": 34.441889,
    "lon": 135.394,
    "route": "岸和田駅前→上古城→河合→白原車庫",
    "stop": "東土生",
    "passTime": "09:15",
    "vehicleType": "南海ウイングバス(車椅子・ベビーカー・ワンステップ)",
    "updateTime": "2026/07/21 09:16"
  },
  {
    "vehicleNum": "080268",
    "vehicleCd": "114",
    "vehicleCorpCd": "2",
    "running": true,
    "lat": 34.379083,
    "lon": 135.359083,
    "route": "つばさが丘北口→大阪体育大学前→熊取駅前→ダンバラ公園前→泉佐野駅前",
    "stop": "大阪体育大学前",
    "passTime": "09:15",
    "vehicleType": "南海ウイングバス(車椅子・ベビーカー・ノンステップ)",
    "updateTime": "2026/07/21 09:16"
  },
  {
    "vehicleNum": "080270",
    "vehicleCd": "86",
    "vehicleCorpCd": "2",
    "running": true,
    "lat": 34.332389,
    "lon": 135.220889,
    "route": "箱作駅前→桃の木台回り→箱作駅前",
    "stop": "桃の木台１丁目",
    "passTime": "09:15",
    "vehicleType": "南海バス(車椅子・ワンステップ)",
    "updateTime": "2026/07/21 09:16"
  },
  {
    "vehicleNum": "080315",
    "vehicleCd": "80",
    "vehicleCorpCd": "1",
    "running": true,
    "lat": 34.591083,
    "lon": 135.440278,
    "route": "海浜匠町→匠町→堺駅西口→堺東駅前→阪和堺市駅前",
    "stop": "海浜匠町",
    "passTime": "09:11",
    "vehicleType": "南海バス(車椅子・ベビーカー・ワンステップ)",
    "updateTime": "2026/07/21 09:16"
  },
  {
    "vehicleNum": "080316",
    "vehicleCd": "81",
    "vehicleCorpCd": "1",
    "running": true,
    "lat": 34.575194,
    "lon": 135.472694,
    "route": "地下鉄新金岡駅前→労災病院前→堺駅南口",
    "stop": "大寺南門山之口前",
    "passTime": "09:14",
    "vehicleType": "南海バス(車椅子・ベビーカー・ワンステップ)",
    "updateTime": "2026/07/21 09:16"
  },
  {
    "vehicleNum": "080319",
    "vehicleCd": "84",
    "vehicleCorpCd": "1",
    "running": true,
    "lat": 34.609083,
    "lon": 135.473583,
    "route": "住之江公園駅前→匠町",
    "stop": "住之江公園駅前",
    "passTime": "09:15",
    "vehicleType": "南海バス(車椅子・ベビーカー・ワンステップ)",
    "updateTime": "2026/07/21 09:16"
  },
  {
    "vehicleNum": "080322",
    "vehicleCd": "116",
    "vehicleCorpCd": "2",
    "running": true,
    "lat": 34.395278,
    "lon": 135.329694,
    "route": "犬鳴山→日根野駅前→野々地蔵北→泉佐野駅前",
    "stop": "野々地蔵北",
    "passTime": "09:15",
    "vehicleType": "南海ウイングバス(車椅子・ワンステップ)",
    "updateTime": "2026/07/21 09:16"
  },
  {
    "vehicleNum": "080340",
    "vehicleCd": "131",
    "vehicleCorpCd": "2",
    "running": true,
    "lat": 34.408694,
    "lon": 135.336889,
    "route": "大阪体育大学前→熊取駅前→ダンバラ公園前→泉佐野駅前",
    "stop": "佐野台口",
    "passTime": "09:13",
    "vehicleType": "南海ウイングバス(車椅子・ベビーカー・ワンステップ)",
    "updateTime": "2026/07/21 09:16"
  },
  {
    "vehicleNum": "080381",
    "vehicleCd": "88",
    "vehicleCorpCd": "1",
    "running": true,
    "lat": 34.638278,
    "lon": 135.422889,
    "route": "堺東駅前→ＡＴＣ／フェリー→堺東駅前",
    "stop": "コスモタワー",
    "passTime": "09:12",
    "vehicleType": "南海バス(車椅子・ワンステップ)",
    "updateTime": "2026/07/21 09:16"
  },
  {
    "vehicleNum": "080384",
    "vehicleCd": "444",
    "vehicleCorpCd": "1",
    "running": true,
    "lat": 34.5815,
    "lon": 135.469889,
    "route": "堺東駅前→ＡＴＣ→堺東駅前",
    "stop": "堺駅前",
    "passTime": "09:16",
    "vehicleType": "南海バス(車椅子・ワンステップ)",
    "updateTime": "2026/07/21 09:16"
  },
  {
    "vehicleNum": "080594",
    "vehicleCd": "437",
    "vehicleCorpCd": "1",
    "running": true,
    "lat": 34.541778,
    "lon": 135.558083,
    "route": "地下鉄新金岡駅前→野遠→美原区役所",
    "stop": "下黒山西",
    "passTime": "09:14",
    "vehicleType": "南海バス(車椅子・ベビーカー・ノンステップ)",
    "updateTime": "2026/07/21 09:16"
  },
  {
    "vehicleNum": "080629",
    "vehicleCd": "447",
    "vehicleCorpCd": "1",
    "running": true,
    "lat": 34.557083,
    "lon": 135.541778,
    "route": "美原区役所→野遠→地下鉄新金岡駅前",
    "stop": "出屋敷",
    "passTime": "09:14",
    "vehicleType": "南海バス(車椅子・ベビーカー・ノンステップ)",
    "updateTime": "2026/07/21 09:16"
  },
  {
    "vehicleNum": "080643",
    "vehicleCd": "94",
    "vehicleCorpCd": "1",
    "running": true,
    "lat": 34.573583,
    "lon": 135.483694,
    "route": "光明池駅→山田→堺東駅前",
    "stop": "一条通",
    "passTime": "09:11",
    "vehicleType": "南海バス(車椅子・ベビーカー・ノンステップ)",
    "updateTime": "2026/07/21 09:16"
  },
  {
    "vehicleNum": "080652",
    "vehicleCd": "456",
    "vehicleCorpCd": "1",
    "running": true,
    "lat": 34.544194,
    "lon": 135.533583,
    "route": "美原区役所→初芝駅前→美原区役所",
    "stop": "初芝東",
    "passTime": "09:15",
    "vehicleType": "南海バス",
    "updateTime": "2026/07/21 09:16"
  },
  {
    "vehicleNum": "080651",
    "vehicleCd": "455",
    "vehicleCorpCd": "1",
    "running": true,
    "lat": 34.522889,
    "lon": 135.542389,
    "route": "北野田駅前→多治井北（循環）→北野田駅前",
    "stop": "登美丘東小学校前",
    "passTime": "09:09",
    "vehicleType": "南海バス",
    "updateTime": "2026/07/21 09:16"
  },
  {
    "vehicleNum": "080644",
    "vehicleCd": "452",
    "vehicleCorpCd": "1",
    "running": true,
    "lat": 34.556278,
    "lon": 135.504889,
    "route": "堺駅南口→中もず団地前→初芝駅前",
    "stop": "中もず駅前（北側）",
    "passTime": "09:15",
    "vehicleType": "南海バス(車椅子・ベビーカー・ノンステップ)",
    "updateTime": "2026/07/21 09:16"
  },
  {
    "vehicleNum": "080698",
    "vehicleCd": "531",
    "vehicleCorpCd": "1",
    "running": true,
    "lat": 34.593389,
    "lon": 135.468083,
    "route": "阪和堺市駅前→堺東駅前→堺駅西口→匠町",
    "stop": "浅香山通",
    "passTime": "09:15",
    "vehicleType": "南海バス",
    "updateTime": "2026/07/21 09:16"
  },
  {
    "vehicleNum": "080706",
    "vehicleCd": "543",
    "vehicleCorpCd": "1",
    "running": true,
    "lat": 34.574694,
    "lon": 135.510389,
    "route": "堺駅前→堺東駅前→河内松原駅前",
    "stop": "公園北口",
    "passTime": "09:16",
    "vehicleType": "南海バス(車椅子・ベビーカー・ノンステップ)",
    "updateTime": "2026/07/21 09:16"
  },
  {
    "vehicleNum": "080711",
    "vehicleCd": "79",
    "vehicleCorpCd": "2",
    "running": true,
    "lat": 34.397389,
    "lon": 135.345694,
    "route": "つばさが丘北口→熊取駅前",
    "stop": "熊取西小学校前",
    "passTime": "09:15",
    "vehicleType": "南海ウイングバス(車椅子・ベビーカー・ノンステップ)",
    "updateTime": "2026/07/21 09:16"
  },
  {
    "vehicleNum": "080740",
    "vehicleCd": "181",
    "vehicleCorpCd": "1",
    "running": true,
    "lat": 34.555083,
    "lon": 135.500889,
    "route": "北野田駅前→福町→堺駅南口",
    "stop": "中もず駅前（南側）",
    "passTime": "09:14",
    "vehicleType": "南海バス(車椅子・ベビーカー・ノンステップ)",
    "updateTime": "2026/07/21 09:16"
  },
  {
    "vehicleNum": "080744",
    "vehicleCd": "550",
    "vehicleCorpCd": "1",
    "running": true,
    "lat": 34.471278,
    "lon": 135.502278,
    "route": "栂・美木多駅→庭代台左回り→栂・美木多駅",
    "stop": "庭代台４丁",
    "passTime": "09:16",
    "vehicleType": "南海バス(車椅子・ベビーカー・ノンステップ)",
    "updateTime": "2026/07/21 09:16"
  },
  {
    "vehicleNum": "080741",
    "vehicleCd": "549",
    "vehicleCorpCd": "1",
    "running": true,
    "lat": 34.561194,
    "lon": 135.493889,
    "route": "北野田駅前→西口園→堺駅南口",
    "stop": "梅北２丁",
    "passTime": "09:16",
    "vehicleType": "南海バス(車椅子・ベビーカー・ノンステップ)",
    "updateTime": "2026/07/21 09:16"
  },
  {
    "vehicleNum": "080745",
    "vehicleCd": "57",
    "vehicleCorpCd": "1",
    "running": true,
    "lat": 34.500778,
    "lon": 135.577194,
    "route": "金剛駅前→高辺台小学校前→金剛駅前",
    "stop": "藤沢台１丁目",
    "passTime": "09:16",
    "vehicleType": "南海バス(車椅子・ベビーカー・ノンステップ)",
    "updateTime": "2026/07/21 09:16"
  },
  {
    "vehicleNum": "080746",
    "vehicleCd": "395",
    "vehicleCorpCd": "1",
    "running": true,
    "lat": 34.498194,
    "lon": 135.571,
    "route": "金剛駅前→向陽・藤沢回り→金剛駅前",
    "stop": "公園前",
    "passTime": "09:15",
    "vehicleType": "南海バス(車椅子・ベビーカー・ノンステップ)",
    "updateTime": "2026/07/21 09:16"
  },
  {
    "vehicleNum": "080751",
    "vehicleCd": "551",
    "vehicleCorpCd": "1",
    "running": true,
    "lat": 34.543778,
    "lon": 135.5265,
    "route": "中もず駅前→初芝駅前→船戸下→美原区役所前",
    "stop": "引野",
    "passTime": "09:11",
    "vehicleType": "南海バス(車椅子・ベビーカー・ノンステップ)",
    "updateTime": "2026/07/21 09:16"
  },
  {
    "vehicleNum": "080753",
    "vehicleCd": "552",
    "vehicleCorpCd": "1",
    "running": true,
    "lat": 34.4925,
    "lon": 135.512,
    "route": "泉ヶ丘駅→鉢ヶ峯→泉ヶ丘駅",
    "stop": "泉ヶ丘駅（南側）",
    "passTime": "09:14",
    "vehicleType": "南海バス(車椅子・ベビーカー・ノンステップ)",
    "updateTime": "2026/07/21 09:16"
  },
  {
    "vehicleNum": "080756",
    "vehicleCd": "315",
    "vehicleCorpCd": "1",
    "running": true,
    "lat": 34.498194,
    "lon": 135.5475,
    "route": "金剛駅前→帝塚山学院泉ヶ丘校前→泉ヶ丘駅前",
    "stop": "亀の甲",
    "passTime": "09:14",
    "vehicleType": "南海バス(車椅子・ベビーカー・ノンステップ)",
    "updateTime": "2026/07/21 09:16"
  },
  {
    "vehicleNum": "080761",
    "vehicleCd": "560",
    "vehicleCorpCd": "1",
    "running": true,
    "lat": 34.575889,
    "lon": 135.480889,
    "route": "河内松原駅前→阪和堺市駅前→堺駅前",
    "stop": "瓦町公園前",
    "passTime": "09:15",
    "vehicleType": "南海バス(車椅子・ベビーカー・ノンステップ)",
    "updateTime": "2026/07/21 09:16"
  },
  {
    "vehicleNum": "080762",
    "vehicleCd": "561",
    "vehicleCorpCd": "1",
    "running": true,
    "lat": 34.575194,
    "lon": 135.526972,
    "route": "河内松原駅前→阪和堺市駅前→堺駅前",
    "stop": "南花田町東",
    "passTime": "09:15",
    "vehicleType": "南海バス(車椅子・ベビーカー・ノンステップ)",
    "updateTime": "2026/07/21 09:16"
  },
  {
    "vehicleNum": "080764",
    "vehicleCd": "563",
    "vehicleCorpCd": "1",
    "running": true,
    "lat": 34.5345,
    "lon": 135.470389,
    "route": "深井駅→鈴の宮団地→堺市立総合医療センター前→津久野駅前",
    "stop": "平岡西口",
    "passTime": "09:15",
    "vehicleType": "南海バス(車椅子・ベビーカー・ノンステップ)",
    "updateTime": "2026/07/21 09:16"
  },
  {
    "vehicleNum": "080767",
    "vehicleCd": "566",
    "vehicleCorpCd": "1",
    "running": true,
    "lat": 34.523,
    "lon": 135.542583,
    "route": "深井駅→東山車庫前→北野田駅前",
    "stop": "大美野噴水前",
    "passTime": "09:12",
    "vehicleType": "南海バス(車椅子・ベビーカー・ノンステップ)",
    "updateTime": "2026/07/21 09:16"
  },
  {
    "vehicleNum": "080788",
    "vehicleCd": "299",
    "vehicleCorpCd": "1",
    "running": true,
    "lat": 34.567389,
    "lon": 135.5055,
    "route": "堺東駅前→労災病院前→白鷺駅前（循環）",
    "stop": "金岡公園前",
    "passTime": "09:15",
    "vehicleType": "南海バス(車椅子・ベビーカー・ノンステップ)",
    "updateTime": "2026/07/21 09:16"
  },
  {
    "vehicleNum": "080789",
    "vehicleCd": "300",
    "vehicleCorpCd": "1",
    "running": true,
    "lat": 34.589778,
    "lon": 135.479389,
    "route": "堺駅西口→南島町→堺東駅前",
    "stop": "内川橋",
    "passTime": "09:15",
    "vehicleType": "南海バス(車椅子・ベビーカー・ノンステップ)",
    "updateTime": "2026/07/21 09:16"
  },
  {
    "vehicleNum": "080790",
    "vehicleCd": "106",
    "vehicleCorpCd": "1",
    "running": true,
    "lat": 34.5655,
    "lon": 135.492889,
    "route": "堺駅南口→労災病院前→阪和堺市駅前",
    "stop": "三国ヶ丘駅前",
    "passTime": "09:15",
    "vehicleType": "南海バス(車椅子・ベビーカー・ノンステップ)",
    "updateTime": "2026/07/21 09:16"
  },
  {
    "vehicleNum": "080794",
    "vehicleCd": "344",
    "vehicleCorpCd": "1",
    "running": true,
    "lat": 34.580083,
    "lon": 135.465194,
    "route": "堺駅前→堺駅南口",
    "stop": "堺駅南口",
    "passTime": "09:13",
    "vehicleType": "南海バス(車椅子・ベビーカー・ノンステップ)",
    "updateTime": "2026/07/21 09:16"
  },
  {
    "vehicleNum": "080796",
    "vehicleCd": "108",
    "vehicleCorpCd": "1",
    "running": true,
    "lat": 34.5385,
    "lon": 135.542389,
    "route": "中もず駅前→初芝駅前→船戸下→美原区役所前",
    "stop": "余部西口",
    "passTime": "09:15",
    "vehicleType": "南海バス(車椅子・ベビーカー・ノンステップ)",
    "updateTime": "2026/07/21 09:16"
  },
  {
    "vehicleNum": "080795",
    "vehicleCd": "43",
    "vehicleCorpCd": "1",
    "running": true,
    "lat": 34.579278,
    "lon": 135.4745,
    "route": "堺東→住之江公園→堺東",
    "stop": "大小路",
    "passTime": "09:16",
    "vehicleType": "南海バス(車椅子・ベビーカー・ノンステップ)",
    "updateTime": "2026/07/21 09:16"
  },
  {
    "vehicleNum": "080807",
    "vehicleCd": "223",
    "vehicleCorpCd": "1",
    "running": true,
    "lat": 34.557694,
    "lon": 135.470694,
    "route": "鳳駅前→堺東駅前",
    "stop": "緑ヶ丘",
    "passTime": "09:16",
    "vehicleType": "南海バス(車椅子・ベビーカー・ノンステップ)",
    "updateTime": "2026/07/21 09:16"
  },
  {
    "vehicleNum": "080809",
    "vehicleCd": "215",
    "vehicleCorpCd": "1",
    "running": true,
    "lat": 34.5735,
    "lon": 135.476778,
    "route": "堺駅前→堺駅南口",
    "stop": "堺東駅前",
    "passTime": "09:11",
    "vehicleType": "南海バス(車椅子・ベビーカー・ノンステップ)",
    "updateTime": "2026/07/21 09:16"
  },
  {
    "vehicleNum": "080822",
    "vehicleCd": "576",
    "vehicleCorpCd": "1",
    "running": true,
    "lat": 34.573889,
    "lon": 135.483889,
    "route": "堺東駅前→上野芝→泉ヶ丘駅",
    "stop": "堺東駅前",
    "passTime": "09:15",
    "vehicleType": "南海バス(車椅子・ベビーカー・ノンステップ)",
    "updateTime": "2026/07/21 09:16"
  },
  {
    "vehicleNum": "080827",
    "vehicleCd": "317",
    "vehicleCorpCd": "1",
    "running": true,
    "lat": 34.538194,
    "lon": 135.560694,
    "route": "初芝駅前→船戸下→美原区役所前",
    "stop": "船戸下",
    "passTime": "09:10",
    "vehicleType": "南海バス(車椅子・ベビーカー・ノンステップ)",
    "updateTime": "2026/07/21 09:16"
  },
  {
    "vehicleNum": "080826",
    "vehicleCd": "152",
    "vehicleCorpCd": "1",
    "running": true,
    "lat": 34.537972,
    "lon": 135.502694,
    "route": "堺東駅前→もず駅前→深井駅→あみだ池",
    "stop": "土師南",
    "passTime": "09:15",
    "vehicleType": "南海バス(車椅子・ベビーカー・ノンステップ)",
    "updateTime": "2026/07/21 09:16"
  },
  {
    "vehicleNum": "080835",
    "vehicleCd": "310",
    "vehicleCorpCd": "1",
    "running": true,
    "lat": 34.494972,
    "lon": 135.560389,
    "route": "金剛駅前→向陽・藤沢回り→金剛駅前",
    "stop": "久野喜台二丁目",
    "passTime": "09:13",
    "vehicleType": "南海バス(車椅子・ベビーカー・ノンステップ)",
    "updateTime": "2026/07/21 09:16"
  },
  {
    "vehicleNum": "080837",
    "vehicleCd": "351",
    "vehicleCorpCd": "1",
    "running": true,
    "lat": 34.531583,
    "lon": 135.487889,
    "route": "堺東駅前→上野芝駅前→東山車庫前",
    "stop": "中深井南",
    "passTime": "09:14",
    "vehicleType": "南海バス(車椅子・ベビーカー・ノンステップ)",
    "updateTime": "2026/07/21 09:16"
  },
  {
    "vehicleNum": "080838",
    "vehicleCd": "129",
    "vehicleCorpCd": "1",
    "running": true,
    "lat": 34.569,
    "lon": 135.501889,
    "route": "三国ヶ丘駅前→近畿中央呼吸器センター前",
    "stop": "黒土口",
    "passTime": "09:15",
    "vehicleType": "南海バス(車椅子・ベビーカー・ノンステップ)",
    "updateTime": "2026/07/21 09:16"
  },
  {
    "vehicleNum": "080856",
    "vehicleCd": "358",
    "vehicleCorpCd": "1",
    "running": true,
    "lat": 34.475083,
    "lon": 135.546,
    "route": "泉ヶ丘駅→狭山ニュータウンセンター→金剛駅前",
    "stop": "大野口",
    "passTime": "09:15",
    "vehicleType": "南海バス(車椅子・ベビーカー・ワンステップ)",
    "updateTime": "2026/07/21 09:16"
  },
  {
    "vehicleNum": "080855",
    "vehicleCd": "16",
    "vehicleCorpCd": "1",
    "running": true,
    "lat": 34.478889,
    "lon": 135.548389,
    "route": "金剛駅前→狭山ニュータウンセンター→泉ヶ丘駅",
    "stop": "南中学校前",
    "passTime": "09:15",
    "vehicleType": "南海バス(車椅子・ベビーカー・ノンステップ)",
    "updateTime": "2026/07/21 09:16"
  },
  {
    "vehicleNum": "080854",
    "vehicleCd": "17",
    "vehicleCorpCd": "1",
    "running": true,
    "lat": 34.563889,
    "lon": 135.464,
    "route": "堺駅南口→堺駅前",
    "stop": "高砂町",
    "passTime": "09:15",
    "vehicleType": "南海バス(車椅子・ベビーカー・ノンステップ)",
    "updateTime": "2026/07/21 09:16"
  },
  {
    "vehicleNum": "080850",
    "vehicleCd": "24",
    "vehicleCorpCd": "1",
    "running": true,
    "lat": 34.490778,
    "lon": 135.532278,
    "route": "泉ヶ丘駅→帝塚山学院泉ヶ丘校前→金剛駅前",
    "stop": "はるみ小学校前",
    "passTime": "09:15",
    "vehicleType": "南海バス(車椅子・ベビーカー・ノンステップ)",
    "updateTime": "2026/07/21 09:16"
  },
  {
    "vehicleNum": "080857",
    "vehicleCd": "226",
    "vehicleCorpCd": "1",
    "running": true,
    "lat": 34.574278,
    "lon": 135.483,
    "route": "堺東駅前→河内松原駅前",
    "stop": "堺東駅前",
    "passTime": "09:16",
    "vehicleType": "南海バス(車椅子・ベビーカー・ノンステップ)",
    "updateTime": "2026/07/21 09:16"
  },
  {
    "vehicleNum": "080858",
    "vehicleCd": "225",
    "vehicleCorpCd": "1",
    "running": true,
    "lat": 34.547194,
    "lon": 135.522583,
    "route": "美原区役所前→船戸下→初芝駅前→中もず駅前",
    "stop": "引野",
    "passTime": "09:15",
    "vehicleType": "南海バス(車椅子・ベビーカー・ノンステップ)",
    "updateTime": "2026/07/21 09:16"
  },
  {
    "vehicleNum": "080859",
    "vehicleCd": "227",
    "vehicleCorpCd": "1",
    "running": true,
    "lat": 34.585278,
    "lon": 135.491778,
    "route": "堺東駅前→錦綾町→河内天美駅前",
    "stop": "香ヶ丘",
    "passTime": "09:15",
    "vehicleType": "南海バス(車椅子・ベビーカー・ノンステップ)",
    "updateTime": "2026/07/21 09:16"
  },
  {
    "vehicleNum": "080870",
    "vehicleCd": "153",
    "vehicleCorpCd": "1",
    "running": true,
    "lat": 34.551472,
    "lon": 135.517778,
    "route": "堺東駅前→労災病院前→白鷺駅前（循環）",
    "stop": "金岡町",
    "passTime": "09:13",
    "vehicleType": "南海バス(車椅子・ベビーカー・ノンステップ)",
    "updateTime": "2026/07/21 09:16"
  },
  {
    "vehicleNum": "080880",
    "vehicleCd": "360",
    "vehicleCorpCd": "1",
    "running": true,
    "lat": 34.560278,
    "lon": 135.451889,
    "route": "石津川駅前→臨港７区→臨港６区→石津川駅前",
    "stop": "石津西町",
    "passTime": "09:10",
    "vehicleType": "南海バス(車椅子・ベビーカー・ノンステップ)",
    "updateTime": "2026/07/21 09:16"
  },
  {
    "vehicleNum": "080878",
    "vehicleCd": "368",
    "vehicleCorpCd": "1",
    "running": true,
    "lat": 34.556889,
    "lon": 135.495389,
    "route": "堺駅南口→福町→北野田駅前",
    "stop": "梅北２丁",
    "passTime": "09:14",
    "vehicleType": "南海バス(車椅子・ベビーカー・ノンステップ)",
    "updateTime": "2026/07/21 09:16"
  },
  {
    "vehicleNum": "080879",
    "vehicleCd": "359",
    "vehicleCorpCd": "1",
    "running": true,
    "lat": 34.525778,
    "lon": 135.479583,
    "route": "津久野駅前→鈴の宮団地センター→深井駅",
    "stop": "鈴の宮団地東口",
    "passTime": "09:16",
    "vehicleType": "南海バス(車椅子・ベビーカー・ノンステップ)",
    "updateTime": "2026/07/21 09:16"
  },
  {
    "vehicleNum": "080882",
    "vehicleCd": "343",
    "vehicleCorpCd": "1",
    "running": true,
    "lat": 34.519889,
    "lon": 135.477694,
    "route": "津久野駅前→堺市立総合医療センター前→泉北２号線→泉ヶ丘駅",
    "stop": "八田西団地",
    "passTime": "09:15",
    "vehicleType": "南海バス(車椅子・ベビーカー・ノンステップ)",
    "updateTime": "2026/07/21 09:16"
  },
  {
    "vehicleNum": "080883",
    "vehicleCd": "361",
    "vehicleCorpCd": "1",
    "running": true,
    "lat": 34.458389,
    "lon": 135.504278,
    "route": "栂・美木多駅→御池台回り→泉ヶ丘駅",
    "stop": "御池台５丁",
    "passTime": "09:15",
    "vehicleType": "南海バス(車椅子・ベビーカー・ノンステップ)",
    "updateTime": "2026/07/21 09:16"
  },
  {
    "vehicleNum": "080895",
    "vehicleCd": "167",
    "vehicleCorpCd": "1",
    "running": true,
    "lat": 34.534194,
    "lon": 135.536194,
    "route": "北野田駅前→多治井北（循環）→北野田駅前",
    "stop": "高松北",
    "passTime": "09:16",
    "vehicleType": "南海バス(車椅子・ベビーカー・ノンステップ)",
    "updateTime": "2026/07/21 09:16"
  },
  {
    "vehicleNum": "080913",
    "vehicleCd": "128",
    "vehicleCorpCd": "1",
    "running": true,
    "lat": 34.573278,
    "lon": 135.469194,
    "route": "堺駅南口→堺駅前",
    "stop": "寺地町",
    "passTime": "09:15",
    "vehicleType": "南海バス(車椅子・ベビーカー・ノンステップ)",
    "updateTime": "2026/07/21 09:16"
  },
  {
    "vehicleNum": "080917",
    "vehicleCd": "70",
    "vehicleCorpCd": "1",
    "running": true,
    "lat": 34.467278,
    "lon": 135.496583,
    "route": "栂・美木多駅→御池台回り→栂・美木多駅",
    "stop": "庭代台１丁南",
    "passTime": "09:15",
    "vehicleType": "南海バス(車椅子・ベビーカー・ノンステップ)",
    "updateTime": "2026/07/21 09:16"
  },
  {
    "vehicleNum": "080921",
    "vehicleCd": "143",
    "vehicleCorpCd": "1",
    "running": true,
    "lat": 34.485194,
    "lon": 135.530694,
    "route": "泉ヶ丘駅→晴美台右回り→泉ヶ丘駅",
    "stop": "槙塚台３丁",
    "passTime": "09:15",
    "vehicleType": "南海バス(車椅子・ベビーカー・ノンステップ)",
    "updateTime": "2026/07/21 09:16"
  },
  {
    "vehicleNum": "080918",
    "vehicleCd": "419",
    "vehicleCorpCd": "1",
    "running": true,
    "lat": 34.577889,
    "lon": 135.486194,
    "route": "海浜匠町→匠町→堺駅西口→堺東駅前→阪和堺市駅前",
    "stop": "瓦町公園前",
    "passTime": "09:13",
    "vehicleType": "南海バス(車椅子・ベビーカー・ノンステップ)",
    "updateTime": "2026/07/21 09:16"
  },
  {
    "vehicleNum": "080937",
    "vehicleCd": "595",
    "vehicleCorpCd": "1",
    "running": true,
    "lat": 34.579583,
    "lon": 135.467083,
    "route": "堺駅南口→三国ヶ丘駅前→北野田駅前",
    "stop": "堺駅南口",
    "passTime": "09:15",
    "vehicleType": "南海バス(車椅子・ベビーカー・ノンステップ)",
    "updateTime": "2026/07/21 09:16"
  },
  {
    "vehicleNum": "080934",
    "vehicleCd": "594",
    "vehicleCorpCd": "1",
    "running": true,
    "lat": 34.592694,
    "lon": 135.468278,
    "route": "堺駅西口→錦綾町→堺東駅前",
    "stop": "三宝",
    "passTime": "09:14",
    "vehicleType": "南海バス(車椅子・ベビーカー・ノンステップ)",
    "updateTime": "2026/07/21 09:16"
  },
  {
    "vehicleNum": "080951",
    "vehicleCd": "597",
    "vehicleCorpCd": "1",
    "running": true,
    "lat": 34.488389,
    "lon": 135.516694,
    "route": "泉ヶ丘駅→槙塚台右回り→泉ヶ丘駅",
    "stop": "茶山台センター",
    "passTime": "09:15",
    "vehicleType": "南海バス(車椅子・ベビーカー・ノンステップ)",
    "updateTime": "2026/07/21 09:16"
  },
  {
    "vehicleNum": "080957",
    "vehicleCd": "34",
    "vehicleCorpCd": "1",
    "running": true,
    "lat": 34.620278,
    "lon": 135.4345,
    "route": "堺東駅前→ＡＴＣ→堺東駅前",
    "stop": "堺駅前",
    "passTime": "08:58",
    "vehicleType": "南海バス",
    "updateTime": "2026/07/21 09:16"
  },
  {
    "vehicleNum": "080967",
    "vehicleCd": "605",
    "vehicleCorpCd": "1",
    "running": true,
    "lat": 34.542,
    "lon": 135.527694,
    "route": "初芝駅前→平尾→初芝駅前",
    "stop": "初芝駅前",
    "passTime": "09:12",
    "vehicleType": "南海バス(車椅子・ベビーカー・ノンステップ)",
    "updateTime": "2026/07/21 09:16"
  },
  {
    "vehicleNum": "080978",
    "vehicleCd": "431",
    "vehicleCorpCd": "1",
    "running": true,
    "lat": 34.552778,
    "lon": 135.503278,
    "route": "堺駅南口→福町→北野田駅前",
    "stop": "中もず駅前通",
    "passTime": "09:15",
    "vehicleType": "南海バス(車椅子・ベビーカー・ノンステップ)",
    "updateTime": "2026/07/21 09:16"
  },
  {
    "vehicleNum": "080989",
    "vehicleCd": "259",
    "vehicleCorpCd": "1",
    "running": true,
    "lat": 34.538389,
    "lon": 135.477,
    "route": "堺東駅前→堀上緑町１丁→堺東駅前",
    "stop": "家原寺町",
    "passTime": "09:15",
    "vehicleType": "南海バス(車椅子・ベビーカー・ノンステップ)",
    "updateTime": "2026/07/21 09:16"
  },
  {
    "vehicleNum": "080994",
    "vehicleCd": "130",
    "vehicleCorpCd": "1",
    "running": true,
    "lat": 34.540083,
    "lon": 135.472083,
    "route": "泉ヶ丘駅→泉北２号線→堺市立総合医療センター前→津久野駅前",
    "stop": "堺市立総合医療センター前",
    "passTime": "09:15",
    "vehicleType": "南海バス(車椅子・ベビーカー・ノンステップ)",
    "updateTime": "2026/07/21 09:16"
  },
  {
    "vehicleNum": "080999",
    "vehicleCd": "493",
    "vehicleCorpCd": "1",
    "running": true,
    "lat": 34.536583,
    "lon": 135.516694,
    "route": "北野田駅前→西口園→堺駅南口",
    "stop": "関茶屋",
    "passTime": "09:13",
    "vehicleType": "南海バス(車椅子・ベビーカー・ノンステップ)",
    "updateTime": "2026/07/21 09:16"
  },
  {
    "vehicleNum": "081005",
    "vehicleCd": "272",
    "vehicleCorpCd": "1",
    "running": true,
    "lat": 34.575083,
    "lon": 135.484,
    "route": "堺東駅前→堀上緑町１丁→堺東駅前",
    "stop": "一条通",
    "passTime": "09:12",
    "vehicleType": "南海バス(車椅子・ベビーカー・ノンステップ)",
    "updateTime": "2026/07/21 09:16"
  },
  {
    "vehicleNum": "081007",
    "vehicleCd": "127",
    "vehicleCorpCd": "1",
    "running": true,
    "lat": 34.5495,
    "lon": 135.479778,
    "route": "東山車庫前→小阪→堺東駅前",
    "stop": "上野芝駅前",
    "passTime": "09:12",
    "vehicleType": "南海バス(車椅子・ベビーカー・ノンステップ)",
    "updateTime": "2026/07/21 09:16"
  },
  {
    "vehicleNum": "081008",
    "vehicleCd": "47",
    "vehicleCorpCd": "1",
    "running": true,
    "lat": 34.5245,
    "lon": 135.533194,
    "route": "堺駅南口→三国ヶ丘駅前→北野田駅前",
    "stop": "中大美野",
    "passTime": "09:15",
    "vehicleType": "南海バス(車椅子・ベビーカー・ノンステップ)",
    "updateTime": "2026/07/21 09:16"
  },
  {
    "vehicleNum": "081013",
    "vehicleCd": "554",
    "vehicleCorpCd": "1",
    "running": true,
    "lat": 34.530194,
    "lon": 135.498778,
    "route": "深井駅→東山車庫前→北野田駅前",
    "stop": "深井駅",
    "passTime": "09:15",
    "vehicleType": "南海バス(車椅子・ベビーカー・ノンステップ)",
    "updateTime": "2026/07/21 09:16"
  },
  {
    "vehicleNum": "081018",
    "vehicleCd": "263",
    "vehicleCorpCd": "1",
    "running": true,
    "lat": 34.529583,
    "lon": 135.500389,
    "route": "あみだ池→深井駅→もず駅前→堺東駅前",
    "stop": "畑山",
    "passTime": "09:14",
    "vehicleType": "南海バス(車椅子・ベビーカー・ノンステップ)",
    "updateTime": "2026/07/21 09:16"
  },
  {
    "vehicleNum": "081034",
    "vehicleCd": "120",
    "vehicleCorpCd": "1",
    "running": true,
    "lat": 34.496778,
    "lon": 135.556778,
    "route": "泉ヶ丘駅→狭山ニュータウンセンター→金剛駅前",
    "stop": "半田",
    "passTime": "09:14",
    "vehicleType": "南海バス(車椅子・ベビーカー・ノンステップ)",
    "updateTime": "2026/07/21 09:16"
  },
  {
    "vehicleNum": "081035",
    "vehicleCd": "491",
    "vehicleCorpCd": "1",
    "running": true,
    "lat": 34.499778,
    "lon": 135.513278,
    "route": "泉ヶ丘駅→三原台左回り→泉ヶ丘駅",
    "stop": "東大谷高校前",
    "passTime": "09:12",
    "vehicleType": "南海バス(車椅子・ベビーカー・ノンステップ)",
    "updateTime": "2026/07/21 09:16"
  },
  {
    "vehicleNum": "081037",
    "vehicleCd": "236",
    "vehicleCorpCd": "1",
    "running": true,
    "lat": 34.497583,
    "lon": 135.519694,
    "route": "泉ヶ丘駅→スマ・エコタウン晴美台→高倉台右回り→泉ヶ丘駅",
    "stop": "三原台１丁",
    "passTime": "09:16",
    "vehicleType": "南海バス(車椅子・ベビーカー・ノンステップ)",
    "updateTime": "2026/07/21 09:16"
  },
  {
    "vehicleNum": "081044",
    "vehicleCd": "132",
    "vehicleCorpCd": "1",
    "running": true,
    "lat": 34.527389,
    "lon": 135.488472,
    "route": "泉ヶ丘駅→八田荘団地→堺市立総合医療センター前→津久野駅前",
    "stop": "八田荘団地",
    "passTime": "09:16",
    "vehicleType": "南海バス(車椅子・ベビーカー・ノンステップ)",
    "updateTime": "2026/07/21 09:16"
  },
  {
    "vehicleNum": "090103",
    "vehicleCd": "49",
    "vehicleCorpCd": "2",
    "running": true,
    "lat": 34.463889,
    "lon": 135.423778,
    "route": "岸和田駅前→徳洲会病院→和泉中央駅",
    "stop": "今木",
    "passTime": "09:15",
    "vehicleType": "南海ウイングバス(車椅子・ベビーカー・ワンステップ)",
    "updateTime": "2026/07/21 09:16"
  },
  {
    "vehicleNum": "082245",
    "vehicleCd": "438",
    "vehicleCorpCd": "1",
    "running": true,
    "lat": 34.580889,
    "lon": 135.463583,
    "route": "堺東駅前→ＡＴＣ→堺東駅前",
    "stop": "ポートタウン東",
    "passTime": "09:02",
    "vehicleType": "南海バス",
    "updateTime": "2026/07/21 09:16"
  },
  {
    "vehicleNum": "090104",
    "vehicleCd": "53",
    "vehicleCorpCd": "2",
    "running": true,
    "lat": 34.430778,
    "lon": 135.405,
    "route": "白原車庫→河合→上古城→岸和田駅前",
    "stop": "真上",
    "passTime": "09:16",
    "vehicleType": "南海ウイングバス(車椅子・ベビーカー・ワンステップ)",
    "updateTime": "2026/07/21 09:16"
  },
  {
    "vehicleNum": "090144",
    "vehicleCd": "82",
    "vehicleCorpCd": "2",
    "running": true,
    "lat": 34.432778,
    "lon": 135.423889,
    "route": "下松駅前→道の駅愛彩ランド",
    "stop": "蜻蛉池公園前",
    "passTime": "09:14",
    "vehicleType": "南海ウイングバス(車椅子・ベビーカー・ワンステップ)",
    "updateTime": "2026/07/21 09:16"
  },
  {
    "vehicleNum": "090279",
    "vehicleCd": "16",
    "vehicleCorpCd": "2",
    "running": true,
    "lat": 34.393778,
    "lon": 135.372972,
    "route": "熊取町　自然公園方面循環コース",
    "stop": "ひまわりドーム前",
    "passTime": "09:14",
    "vehicleType": "南海ウイングバス(車椅子)",
    "updateTime": "2026/07/21 09:16"
  },
  {
    "vehicleNum": "090766",
    "vehicleCd": "137",
    "vehicleCorpCd": "2",
    "running": true,
    "lat": 34.411,
    "lon": 135.318083,
    "route": "泉佐野駅前→ダンバラ公園前→熊取駅前→大阪体育大学前→つばさが丘北口",
    "stop": "泉佐野駅前",
    "passTime": "09:15",
    "vehicleType": "南海ウイングバス(車椅子・ワンステップ)",
    "updateTime": "2026/07/21 09:16"
  },
  {
    "vehicleNum": "091070",
    "vehicleCd": "487",
    "vehicleCorpCd": "1",
    "running": true,
    "lat": 34.427583,
    "lon": 135.229889,
    "route": "給油地区→空港駅",
    "stop": "大阪国際郵便局前",
    "passTime": "09:16",
    "vehicleType": "南海バス",
    "updateTime": "2026/07/21 09:16"
  },
  {
    "vehicleNum": "091147",
    "vehicleCd": "255",
    "vehicleCorpCd": "1",
    "running": true,
    "lat": 34.503,
    "lon": 135.449889,
    "route": "北信太駅筋→鶴山台団地→北信太駅筋",
    "stop": "鶴山台センター",
    "passTime": "09:15",
    "vehicleType": "南海バス(車椅子・ベビーカー・ワンステップ)",
    "updateTime": "2026/07/21 09:16"
  },
  {
    "vehicleNum": "091186",
    "vehicleCd": "106",
    "vehicleCorpCd": "2",
    "running": true,
    "lat": 34.461583,
    "lon": 135.393583,
    "route": "白原車庫→内畑→岸和田駅前",
    "stop": "市民病院前",
    "passTime": "09:13",
    "vehicleType": "南海ウイングバス(車椅子・ベビーカー・ワンステップ)",
    "updateTime": "2026/07/21 09:16"
  },
  {
    "vehicleNum": "091381",
    "vehicleCd": "330",
    "vehicleCorpCd": "1",
    "running": true,
    "lat": 34.447278,
    "lon": 135.493083,
    "route": "光明池駅→城山台５丁→みずき台２丁目西",
    "stop": "みずき台一丁目",
    "passTime": "09:15",
    "vehicleType": "南海バス(車椅子・ベビーカー・ワンステップ)",
    "updateTime": "2026/07/21 09:16"
  },
  {
    "vehicleNum": "091445",
    "vehicleCd": "426",
    "vehicleCorpCd": "1",
    "running": true,
    "lat": 34.462389,
    "lon": 135.561,
    "route": "千代田駅前→赤峯→荘園町",
    "stop": "千代田台",
    "passTime": "09:15",
    "vehicleType": "南海バス(車椅子・ベビーカー・ノンステップ)",
    "updateTime": "2026/07/21 09:16"
  },
  {
    "vehicleNum": "091580",
    "vehicleCd": "85",
    "vehicleCorpCd": "2",
    "running": true,
    "lat": 34.362889,
    "lon": 135.277278,
    "route": "泉南市コミュニティバス 山回り",
    "stop": "砂川駅前通り",
    "passTime": "09:15",
    "vehicleType": "南海ウイングバス(車椅子・ベビーカー・ノンステップ)",
    "updateTime": "2026/07/21 09:16"
  },
  {
    "vehicleNum": "091658",
    "vehicleCd": "203",
    "vehicleCorpCd": "1",
    "running": true,
    "lat": 34.430194,
    "lon": 135.225389,
    "route": "空港駅→ＦｅｄＥｘ→給油地区",
    "stop": "二期島国際貨物駐車場前",
    "passTime": "09:16",
    "vehicleType": "南海バス(車椅子・ノンステップ)",
    "updateTime": "2026/07/21 09:16"
  },
  {
    "vehicleNum": "091737",
    "vehicleCd": "48",
    "vehicleCorpCd": "2",
    "running": true,
    "lat": 34.445083,
    "lon": 135.434194,
    "route": "和泉中央駅→包近→道の駅愛彩ランド",
    "stop": "包近",
    "passTime": "09:16",
    "vehicleType": "南海ウイングバス(車椅子・ベビーカー・ワンステップ)",
    "updateTime": "2026/07/21 09:16"
  },
  {
    "vehicleNum": "091740",
    "vehicleCd": "105",
    "vehicleCorpCd": "2",
    "running": true,
    "lat": 34.468278,
    "lon": 135.4045,
    "route": "和泉中央駅→徳洲会病院→岸和田駅前",
    "stop": "下池田",
    "passTime": "09:16",
    "vehicleType": "南海ウイングバス(車椅子・ベビーカー・ワンステップ)",
    "updateTime": "2026/07/21 09:16"
  },
  {
    "vehicleNum": "091744",
    "vehicleCd": "148",
    "vehicleCorpCd": "2",
    "running": true,
    "lat": 34.459083,
    "lon": 135.379889,
    "route": "岸和田駅前→天神山・一の宮循環　左回り→岸和田駅前",
    "stop": "岸和田駅前",
    "passTime": "09:15",
    "vehicleType": "南海ウイングバス(車椅子・ベビーカー・ワンステップ)",
    "updateTime": "2026/07/21 09:16"
  },
  {
    "vehicleNum": "081024",
    "vehicleCd": "270",
    "vehicleCorpCd": "1",
    "running": true,
    "lat": 34.547583,
    "lon": 135.484389,
    "route": "泉ヶ丘駅→宮山台中学校前→堺東駅前",
    "stop": "北条",
    "passTime": "09:14",
    "vehicleType": "南海バス(車椅子・ベビーカー・ノンステップ)",
    "updateTime": "2026/07/21 09:16"
  },
  {
    "vehicleNum": "091745",
    "vehicleCd": "103",
    "vehicleCorpCd": "2",
    "running": true,
    "lat": 34.435583,
    "lon": 135.391278,
    "route": "岸和田駅前→天神山・一の宮循環　右回り→岸和田駅前",
    "stop": "流木",
    "passTime": "09:15",
    "vehicleType": "南海ウイングバス",
    "updateTime": "2026/07/21 09:16"
  },
  {
    "vehicleNum": "091746",
    "vehicleCd": "8",
    "vehicleCorpCd": "2",
    "running": true,
    "lat": 34.401278,
    "lon": 135.325083,
    "route": "泉佐野駅前→野々地蔵北→日根野駅前→犬鳴山",
    "stop": "上市場",
    "passTime": "09:14",
    "vehicleType": "南海ウイングバス(車椅子・ベビーカー・ワンステップ)",
    "updateTime": "2026/07/21 09:16"
  },
  {
    "vehicleNum": "091785",
    "vehicleCd": "120",
    "vehicleCorpCd": "2",
    "running": true,
    "lat": 34.408083,
    "lon": 135.364778,
    "route": "熊取町　七山方面循環コース",
    "stop": "七山東",
    "passTime": "09:15",
    "vehicleType": "熊取町コミュニティバス(メジーナちゃん号)",
    "updateTime": "2026/07/21 09:16"
  },
  {
    "vehicleNum": "091792",
    "vehicleCd": "59",
    "vehicleCorpCd": "1",
    "running": true,
    "lat": 34.432389,
    "lon": 135.235083,
    "route": "空港駅→給油地区",
    "stop": "空港駅",
    "passTime": "09:14",
    "vehicleType": "南海バス(車椅子・ノンステップ)",
    "updateTime": "2026/07/21 09:16"
  },
  {
    "vehicleNum": "091894",
    "vehicleCd": "3",
    "vehicleCorpCd": "2",
    "running": true,
    "lat": 34.377083,
    "lon": 135.276194,
    "route": "泉南市コミュニティバス 新家回り",
    "stop": "イオンモールりんくう泉南",
    "passTime": "09:12",
    "vehicleType": "泉南市コミュニティバス(紫)",
    "updateTime": "2026/07/21 09:16"
  },
  {
    "vehicleNum": "091895",
    "vehicleCd": "4",
    "vehicleCorpCd": "2",
    "running": true,
    "lat": 34.370389,
    "lon": 135.285,
    "route": "泉南市コミュニティバス 一丘Ａ回り",
    "stop": "市場青年会場前",
    "passTime": "09:15",
    "vehicleType": "泉南市コミュニティバス(ピンク)",
    "updateTime": "2026/07/21 09:16"
  },
  {
    "vehicleNum": "091910",
    "vehicleCd": "441",
    "vehicleCorpCd": "1",
    "running": true,
    "lat": 34.437778,
    "lon": 135.231194,
    "route": "エアロプラザ→第２ターミナル(国内線・国際線)→エアロプラザ",
    "stop": "エアロプラザ",
    "passTime": "09:12",
    "vehicleType": "南海バス(車椅子・ノンステップ)",
    "updateTime": "2026/07/21 09:16"
  },
  {
    "vehicleNum": "092045",
    "vehicleCd": "463",
    "vehicleCorpCd": "1",
    "running": true,
    "lat": 34.474778,
    "lon": 135.574,
    "route": "ﾓｯｸﾙ 美加～木戸東町～美加",
    "stop": "木戸東町",
    "passTime": "09:15",
    "vehicleType": "南海バス(車椅子・ベビーカー・ノンステップ)",
    "updateTime": "2026/07/21 09:16"
  },
  {
    "vehicleNum": "092046",
    "vehicleCd": "464",
    "vehicleCorpCd": "1",
    "running": true,
    "lat": 34.424,
    "lon": 135.577194,
    "route": "ﾓｯｸﾙ 美加～木戸東町～美加",
    "stop": "美加の台駅前",
    "passTime": "09:15",
    "vehicleType": "南海バス(車椅子・ベビーカー・ノンステップ)",
    "updateTime": "2026/07/21 09:16"
  },
  {
    "vehicleNum": "092135",
    "vehicleCd": "525",
    "vehicleCorpCd": "1",
    "running": true,
    "lat": 34.436083,
    "lon": 135.241694,
    "route": "エアロプラザ→第２ターミナル(国内線・国際線)→エアロプラザ",
    "stop": "エアロプラザ",
    "passTime": "09:16",
    "vehicleType": "南海バス",
    "updateTime": "2026/07/21 09:16"
  },
  {
    "vehicleNum": "092141",
    "vehicleCd": "527",
    "vehicleCorpCd": "1",
    "running": true,
    "lat": 34.574278,
    "lon": 135.484194,
    "route": "堺東駅前→ＡＴＣ→堺東駅前",
    "stop": "堺東駅前",
    "passTime": "09:10",
    "vehicleType": "南海バス",
    "updateTime": "2026/07/21 09:16"
  },
  {
    "vehicleNum": "092153",
    "vehicleCd": "529",
    "vehicleCorpCd": "1",
    "running": true,
    "lat": 34.439389,
    "lon": 135.2455,
    "route": "エアロプラザ→第２ターミナル(国内線・国際線)→エアロプラザ",
    "stop": "第2ターミナル国際線",
    "passTime": "09:11",
    "vehicleType": "南海バス",
    "updateTime": "2026/07/21 09:16"
  },
  {
    "vehicleNum": "092233",
    "vehicleCd": "533",
    "vehicleCorpCd": "1",
    "running": true,
    "lat": 34.519083,
    "lon": 135.463,
    "route": "堺東駅前→鳳駅前→栂・美木多駅",
    "stop": "石橋",
    "passTime": "09:15",
    "vehicleType": "南海バス(車椅子・ベビーカー・ノンステップ)",
    "updateTime": "2026/07/21 09:16"
  },
  {
    "vehicleNum": "092372",
    "vehicleCd": "159",
    "vehicleCorpCd": "1",
    "running": true,
    "lat": 34.471778,
    "lon": 135.4775,
    "route": "光明池駅→城山台５丁→光明池車庫",
    "stop": "光明池駅",
    "passTime": "09:14",
    "vehicleType": "南海バス(車椅子・ベビーカー・ノンステップ)",
    "updateTime": "2026/07/21 09:16"
  },
  {
    "vehicleNum": "092382",
    "vehicleCd": "556",
    "vehicleCorpCd": "1",
    "running": true,
    "lat": 34.484278,
    "lon": 135.425194,
    "route": "和泉中央駅→医療センター玄関口→和泉府中駅前",
    "stop": "府中町南",
    "passTime": "09:14",
    "vehicleType": "南海バス(車椅子・ベビーカー・ノンステップ)",
    "updateTime": "2026/07/21 09:16"
  },
  {
    "vehicleNum": "092394",
    "vehicleCd": "42",
    "vehicleCorpCd": "1",
    "running": true,
    "lat": 34.438,
    "lon": 135.232694,
    "route": "エアロプラザ→第２ターミナル(国内線・国際線)→エアロプラザ",
    "stop": "第2ターミナル国内線",
    "passTime": "09:15",
    "vehicleType": "南海バス(車椅子・ノンステップ)",
    "updateTime": "2026/07/21 09:16"
  },
  {
    "vehicleNum": "092454",
    "vehicleCd": "125",
    "vehicleCorpCd": "2",
    "running": true,
    "lat": 34.374278,
    "lon": 135.2715,
    "route": "泉南市コミュニティバス 岡田A回り",
    "stop": "前畑団地",
    "passTime": "09:15",
    "vehicleType": "泉南市コミュニティバス(橙)",
    "updateTime": "2026/07/21 09:16"
  },
  {
    "vehicleNum": "092483",
    "vehicleCd": "110",
    "vehicleCorpCd": "1",
    "running": true,
    "lat": 34.434083,
    "lon": 135.534278,
    "route": "旭→天野山→長野",
    "stop": "門前",
    "passTime": "09:15",
    "vehicleType": "南海バス(車椅子・ベビーカー・ノンステップ)",
    "updateTime": "2026/07/21 09:16"
  },
  {
    "vehicleNum": "092502",
    "vehicleCd": "140",
    "vehicleCorpCd": "2",
    "running": true,
    "lat": 34.471278,
    "lon": 135.375389,
    "route": "ローズバス　左回り",
    "stop": "下野町",
    "passTime": "09:14",
    "vehicleType": "岸和田市コミュニティバス(ローズバス)",
    "updateTime": "2026/07/21 09:16"
  },
  {
    "vehicleNum": "092503",
    "vehicleCd": "146",
    "vehicleCorpCd": "2",
    "running": true,
    "lat": 34.469083,
    "lon": 135.382194,
    "route": "ローズバス　右回り",
    "stop": "上野町東",
    "passTime": "09:16",
    "vehicleType": "岸和田市コミュニティバス(ローズバス)",
    "updateTime": "2026/07/21 09:16"
  },
  {
    "vehicleNum": "092561",
    "vehicleCd": "74",
    "vehicleCorpCd": "1",
    "running": true,
    "lat": 34.506194,
    "lon": 135.574389,
    "route": "PL病院→金剛駅前（東側）→寺池台3丁目→PL病院",
    "stop": "藤沢台６丁目",
    "passTime": "09:16",
    "vehicleType": "南海バス(車椅子・ベビーカー・ノンステップ)",
    "updateTime": "2026/07/21 09:16"
  },
  {
    "vehicleNum": "092572",
    "vehicleCd": "313",
    "vehicleCorpCd": "1",
    "running": true,
    "lat": 34.460278,
    "lon": 135.488278,
    "route": "光明池車庫→城山台５丁→光明池駅",
    "stop": "光明台一丁目",
    "passTime": "09:15",
    "vehicleType": "南海バス(車椅子・ベビーカー・ノンステップ)",
    "updateTime": "2026/07/21 09:16"
  },
  {
    "vehicleNum": "092570",
    "vehicleCd": "577",
    "vehicleCorpCd": "1",
    "running": true,
    "lat": 34.4565,
    "lon": 135.4485,
    "route": "和泉中央駅→寺田→泉大津駅前",
    "stop": "唐国南",
    "passTime": "09:15",
    "vehicleType": "南海バス(車椅子・ベビーカー・ノンステップ)",
    "updateTime": "2026/07/21 09:16"
  },
  {
    "vehicleNum": "092579",
    "vehicleCd": "579",
    "vehicleCorpCd": "1",
    "running": true,
    "lat": 34.433889,
    "lon": 135.562083,
    "route": "三日市町駅前→南花台１丁目北→南ヶ丘",
    "stop": "南花台１丁目北",
    "passTime": "09:16",
    "vehicleType": "南海バス(車椅子・ベビーカー・ノンステップ)",
    "updateTime": "2026/07/21 09:16"
  },
  {
    "vehicleNum": "092580",
    "vehicleCd": "377",
    "vehicleCorpCd": "1",
    "running": true,
    "lat": 34.4595,
    "lon": 135.454194,
    "route": "和泉府中駅前→玄関→和泉中央駅→ららぽｰと和泉前",
    "stop": "和泉中央駅",
    "passTime": "09:15",
    "vehicleType": "南海バス(車椅子・ベビーカー・ノンステップ)",
    "updateTime": "2026/07/21 09:16"
  },
  {
    "vehicleNum": "092620",
    "vehicleCd": "311",
    "vehicleCorpCd": "1",
    "running": true,
    "lat": 34.447,
    "lon": 135.549194,
    "route": "千代田駅前→赤峯→緑ヶ丘北町",
    "stop": "東峯口",
    "passTime": "09:16",
    "vehicleType": "南海バス(車椅子・ベビーカー・ノンステップ)",
    "updateTime": "2026/07/21 09:16"
  },
  {
    "vehicleNum": "092623",
    "vehicleCd": "15",
    "vehicleCorpCd": "1",
    "running": true,
    "lat": 34.485889,
    "lon": 135.425278,
    "route": "泉大津駅前→和泉府中駅前→和泉中央駅→光明池駅",
    "stop": "泉大津急性期メディカルセンター前",
    "passTime": "09:12",
    "vehicleType": "南海バス(車椅子・ベビーカー・ノンステップ)",
    "updateTime": "2026/07/21 09:16"
  },
  {
    "vehicleNum": "092696",
    "vehicleCd": "589",
    "vehicleCorpCd": "1",
    "running": true,
    "lat": 34.444778,
    "lon": 135.470472,
    "route": "和泉中央駅→和泉青葉台→はつが野→和泉中央駅（右回り）",
    "stop": "和泉青葉台口",
    "passTime": "09:16",
    "vehicleType": "南海バス(車椅子・ベビーカー・ノンステップ)",
    "updateTime": "2026/07/21 09:16"
  },
  {
    "vehicleNum": "092711",
    "vehicleCd": "355",
    "vehicleCorpCd": "1",
    "running": true,
    "lat": 34.532083,
    "lon": 135.459778,
    "route": "栂・美木多駅→鳳駅前→堺東駅前",
    "stop": "西堺警察署前",
    "passTime": "09:13",
    "vehicleType": "南海バス(車椅子・ベビーカー・ノンステップ)",
    "updateTime": "2026/07/21 09:16"
  },
  {
    "vehicleNum": "092734",
    "vehicleCd": "289",
    "vehicleCorpCd": "1",
    "running": true,
    "lat": 34.414194,
    "lon": 135.571583,
    "route": "三日市町駅前→南青葉台→三日市町駅前",
    "stop": "南青葉台中央",
    "passTime": "09:15",
    "vehicleType": "南海バス(車椅子・ベビーカー・ノンステップ)",
    "updateTime": "2026/07/21 09:16"
  },
  {
    "vehicleNum": "092758",
    "vehicleCd": "363",
    "vehicleCorpCd": "1",
    "running": true,
    "lat": 34.413778,
    "lon": 135.561583,
    "route": "南ヶ丘→南花台４丁目→三日市町駅前",
    "stop": "南ヶ丘",
    "passTime": "09:15",
    "vehicleType": "南海バス(車椅子・ベビーカー・ノンステップ)",
    "updateTime": "2026/07/21 09:16"
  },
  {
    "vehicleNum": "092762",
    "vehicleCd": "570",
    "vehicleCorpCd": "1",
    "running": true,
    "lat": 34.4865,
    "lon": 135.474778,
    "route": "光明池駅→赤坂台４丁→光明池駅→泉ヶ丘駅",
    "stop": "赤坂台小学校前",
    "passTime": "09:16",
    "vehicleType": "南海バス(車椅子・ベビーカー・ノンステップ)",
    "updateTime": "2026/07/21 09:16"
  },
  {
    "vehicleNum": "092761",
    "vehicleCd": "23",
    "vehicleCorpCd": "1",
    "running": true,
    "lat": 34.425083,
    "lon": 135.578778,
    "route": "美加の台駅前→美加の台西→美加の台駅前",
    "stop": "美加の台駅前",
    "passTime": "09:14",
    "vehicleType": "南海バス(車椅子・ベビーカー・ノンステップ)",
    "updateTime": "2026/07/21 09:16"
  },
  {
    "vehicleNum": "092831",
    "vehicleCd": "417",
    "vehicleCorpCd": "1",
    "running": true,
    "lat": 34.438778,
    "lon": 135.449889,
    "route": "和泉中央駅→テクノステージセンター前→グリーンポリス前→和泉中央駅",
    "stop": "大阪技術研前",
    "passTime": "09:12",
    "vehicleType": "南海バス(車椅子・ベビーカー・ノンステップ)",
    "updateTime": "2026/07/21 09:16"
  },
  {
    "vehicleNum": "092829",
    "vehicleCd": "488",
    "vehicleCorpCd": "1",
    "running": true,
    "lat": 34.539083,
    "lon": 135.463389,
    "route": "堺東駅前→鳳駅前→光明池駅",
    "stop": "下田南",
    "passTime": "09:14",
    "vehicleType": "南海バス(車椅子・ベビーカー・ノンステップ)",
    "updateTime": "2026/07/21 09:16"
  },
  {
    "vehicleNum": "092857",
    "vehicleCd": "516",
    "vehicleCorpCd": "1",
    "running": true,
    "lat": 34.494,
    "lon": 135.466694,
    "route": "堺東駅前→鳳駅前→光明池駅",
    "stop": "日本工機前",
    "passTime": "09:15",
    "vehicleType": "南海バス(車椅子・ベビーカー・ノンステップ)",
    "updateTime": "2026/07/21 09:16"
  },
  {
    "vehicleNum": "092858",
    "vehicleCd": "320",
    "vehicleCorpCd": "1",
    "running": true,
    "lat": 34.502472,
    "lon": 135.406583,
    "route": "和泉中央駅→寺田→泉大津駅前",
    "stop": "旭町",
    "passTime": "09:15",
    "vehicleType": "南海バス(車椅子・ベビーカー・ノンステップ)",
    "updateTime": "2026/07/21 09:16"
  },
  {
    "vehicleNum": "092859",
    "vehicleCd": "32",
    "vehicleCorpCd": "1",
    "running": true,
    "lat": 34.463,
    "lon": 135.561194,
    "route": "緑ヶ丘北町→千代田駅前",
    "stop": "市民グランド前",
    "passTime": "09:16",
    "vehicleType": "南海バス(車椅子・ベビーカー・ノンステップ)",
    "updateTime": "2026/07/21 09:16"
  },
  {
    "vehicleNum": "092860",
    "vehicleCd": "379",
    "vehicleCorpCd": "1",
    "running": true,
    "lat": 34.436694,
    "lon": 135.549778,
    "route": "河内長野駅前→奥河内くろまろの郷→滝畑ダム",
    "stop": "高向公民館前",
    "passTime": "09:14",
    "vehicleType": "南海バス(車椅子・ベビーカー・ノンステップ)",
    "updateTime": "2026/07/21 09:16"
  },
  {
    "vehicleNum": "092913",
    "vehicleCd": "154",
    "vehicleCorpCd": "1",
    "running": true,
    "lat": 34.521778,
    "lon": 135.462889,
    "route": "光明池駅→山田→堺東駅前",
    "stop": "石橋",
    "passTime": "09:14",
    "vehicleType": "南海バス(車椅子・ベビーカー・ノンステップ)",
    "updateTime": "2026/07/21 09:16"
  },
  {
    "vehicleNum": "092914",
    "vehicleCd": "75",
    "vehicleCorpCd": "1",
    "running": true,
    "lat": 34.457778,
    "lon": 135.449583,
    "route": "和泉中央駅→テクノステージセンター前→直行→和泉中央駅",
    "stop": "唐国南",
    "passTime": "09:16",
    "vehicleType": "南海バス(車椅子・ベビーカー・ノンステップ)",
    "updateTime": "2026/07/21 09:16"
  },
  {
    "vehicleNum": "092916",
    "vehicleCd": "235",
    "vehicleCorpCd": "1",
    "running": true,
    "lat": 34.490278,
    "lon": 135.417389,
    "route": "和泉青葉台→和泉中央駅→泉大津駅前",
    "stop": "泉大津急性期メディカルセンター前",
    "passTime": "09:16",
    "vehicleType": "南海バス(車椅子・ベビーカー・ノンステップ)",
    "updateTime": "2026/07/21 09:16"
  },
  {
    "vehicleNum": "092951",
    "vehicleCd": "340",
    "vehicleCorpCd": "1",
    "running": true,
    "lat": 34.460694,
    "lon": 135.455,
    "route": "美術館前→のぞみ野南→和泉中央駅",
    "stop": "万町弘法寺前",
    "passTime": "09:13",
    "vehicleType": "南海バス(車椅子・ベビーカー・ノンステップ)",
    "updateTime": "2026/07/21 09:16"
  },
  {
    "vehicleNum": "092974",
    "vehicleCd": "260",
    "vehicleCorpCd": "1",
    "running": true,
    "lat": 34.457694,
    "lon": 135.449583,
    "route": "泉大津駅前→和泉府中駅前→和泉中央駅",
    "stop": "唐国南",
    "passTime": "09:16",
    "vehicleType": "南海バス(車椅子・ベビーカー・ノンステップ)",
    "updateTime": "2026/07/21 09:16"
  },
  {
    "vehicleNum": "092952",
    "vehicleCd": "113",
    "vehicleCorpCd": "1",
    "running": true,
    "lat": 34.553389,
    "lon": 135.466083,
    "route": "光明池駅→山田→堺東駅前",
    "stop": "神石橋",
    "passTime": "09:14",
    "vehicleType": "南海バス(車椅子・ベビーカー・ノンステップ)",
    "updateTime": "2026/07/21 09:16"
  },
  {
    "vehicleNum": "092976",
    "vehicleCd": "138",
    "vehicleCorpCd": "1",
    "running": true,
    "lat": 34.460583,
    "lon": 135.455083,
    "route": "和泉中央駅→はつが野六丁目→和泉中央駅",
    "stop": "万町弘法寺前",
    "passTime": "09:12",
    "vehicleType": "南海バス(車椅子・ベビーカー・ノンステップ)",
    "updateTime": "2026/07/21 09:16"
  },
  {
    "vehicleNum": "092978",
    "vehicleCd": "325",
    "vehicleCorpCd": "1",
    "running": true,
    "lat": 34.494972,
    "lon": 135.411472,
    "route": "泉大津駅前→和泉府中駅前→和泉中央駅",
    "stop": "池浦",
    "passTime": "09:15",
    "vehicleType": "南海バス(車椅子・ベビーカー・ノンステップ)",
    "updateTime": "2026/07/21 09:16"
  },
  {
    "vehicleNum": "093071",
    "vehicleCd": "274",
    "vehicleCorpCd": "1",
    "running": true,
    "lat": 34.460278,
    "lon": 135.455694,
    "route": "光明池駅→光明池車庫→和泉中央駅→泉大津駅前",
    "stop": "室堂",
    "passTime": "09:13",
    "vehicleType": "南海バス(車椅子・ベビーカー・ノンステップ)",
    "updateTime": "2026/07/21 09:16"
  },
  {
    "vehicleNum": "093054",
    "vehicleCd": "396",
    "vehicleCorpCd": "1",
    "running": true,
    "lat": 34.484472,
    "lon": 135.483889,
    "route": "国分峠東→栂・美木多駅→堺東駅前",
    "stop": "桧尾",
    "passTime": "09:16",
    "vehicleType": "南海バス(車椅子・ベビーカー・ノンステップ)",
    "updateTime": "2026/07/21 09:16"
  },
  {
    "vehicleNum": "093113",
    "vehicleCd": "133",
    "vehicleCorpCd": "1",
    "running": true,
    "lat": 34.541889,
    "lon": 135.463389,
    "route": "堺東駅前→鳳駅前→栂・美木多駅",
    "stop": "下田",
    "passTime": "09:14",
    "vehicleType": "南海バス(車椅子・ベビーカー・ノンステップ)",
    "updateTime": "2026/07/21 09:16"
  },
  {
    "vehicleNum": "093114",
    "vehicleCd": "262",
    "vehicleCorpCd": "1",
    "running": true,
    "lat": 34.567278,
    "lon": 135.478889,
    "route": "堺東駅前→鳳駅前→光明池駅",
    "stop": "賑町",
    "passTime": "09:16",
    "vehicleType": "南海バス(車椅子・ベビーカー・ノンステップ)",
    "updateTime": "2026/07/21 09:16"
  }
]