[
  {
    "vehicleNum": "070101",
    "vehicleCd": "400",
    "vehicleCorpCd": "1",
    "running": true,
    "lat": 34.485194,
    "lon": 135.530694,
    "route": "金剛駅前→狭山ニュータウンセンター→泉ヶ丘駅",
    "stop": "槙塚台３丁",
    "passTime": "16:14",
    "vehicleType": "泉北コミュニティバス(車椅子・ベビーカー・ノンステップ)",
    "updateTime": "2026/07/23 16:14"
  },
  {
    "vehicleNum": "070103",
    "vehicleCd": "425",
    "vehicleCorpCd": "1",
    "running": true,
    "lat": 34.490694,
    "lon": 135.542472,
    "route": "金剛駅前→狭山ニュータウンセンター→泉ヶ丘駅",
    "stop": "西山台北",
    "passTime": "16:14",
    "vehicleType": "泉北コミュニティバス(車椅子・ベビーカー・ノンステップ)",
    "updateTime": "2026/07/23 16:14"
  },
  {
    "vehicleNum": "070109",
    "vehicleCd": "407",
    "vehicleCorpCd": "1",
    "running": true,
    "lat": 34.4775,
    "lon": 135.54,
    "route": "泉ヶ丘駅→狭山ニュータウンセンター→金剛駅前",
    "stop": "南第二小学校前",
    "passTime": "16:14",
    "vehicleType": "泉北コミュニティバス(車椅子・ベビーカー・ノンステップ)",
    "updateTime": "2026/07/23 16:14"
  },
  {
    "vehicleNum": "070189",
    "vehicleCd": "67",
    "vehicleCorpCd": "1",
    "running": true,
    "lat": 34.575083,
    "lon": 135.4805,
    "route": "河内松原駅前→阪和堺市駅前→堺駅前",
    "stop": "瓦町公園前",
    "passTime": "16:13",
    "vehicleType": "南海バス(車椅子・ベビーカー・ワンステップ)",
    "updateTime": "2026/07/23 16:14"
  },
  {
    "vehicleNum": "071601",
    "vehicleCd": "408",
    "vehicleCorpCd": "1",
    "running": true,
    "lat": 34.579583,
    "lon": 135.473,
    "route": "堺駅前→大小路→堺東駅前",
    "stop": "市小学校前",
    "passTime": "16:13",
    "vehicleType": "堺シャトル(車椅子・ベビーカー・ノンステップ)",
    "updateTime": "2026/07/23 16:14"
  },
  {
    "vehicleNum": "071604",
    "vehicleCd": "217",
    "vehicleCorpCd": "1",
    "running": true,
    "lat": 34.5785,
    "lon": 135.474583,
    "route": "堺東駅前→大小路→堺駅前",
    "stop": "大小路",
    "passTime": "16:14",
    "vehicleType": "堺シャトル(車椅子・ベビーカー・ノンステップ)",
    "updateTime": "2026/07/23 16:14"
  },
  {
    "vehicleNum": "080020",
    "vehicleCd": "374",
    "vehicleCorpCd": "1",
    "running": true,
    "lat": 34.501583,
    "lon": 135.582583,
    "route": "金剛駅前→向陽・藤沢回り→金剛駅前",
    "stop": "中央センター前",
    "passTime": "16:11",
    "vehicleType": "南海バス(車椅子・ベビーカー・ワンステップ)",
    "updateTime": "2026/07/23 16:14"
  },
  {
    "vehicleNum": "080105",
    "vehicleCd": "127",
    "vehicleCorpCd": "2",
    "running": true,
    "lat": 34.399,
    "lon": 135.357278,
    "route": "泉佐野駅前→泉陽ヶ丘→熊取駅前→山の手台→小谷→熊取駅前",
    "stop": "大浦口",
    "passTime": "16:13",
    "vehicleType": "南海ウイングバス(車椅子・ベビーカー・ワンステップ)",
    "updateTime": "2026/07/23 16:15"
  },
  {
    "vehicleNum": "080115",
    "vehicleCd": "466",
    "vehicleCorpCd": "1",
    "running": true,
    "lat": 34.456389,
    "lon": 135.553083,
    "route": "千代→緑→小山田→千代",
    "stop": "小山田集会所前",
    "passTime": "16:14",
    "vehicleType": "南海バス",
    "updateTime": "2026/07/23 16:15"
  },
  {
    "vehicleNum": "080177",
    "vehicleCd": "126",
    "vehicleCorpCd": "2",
    "running": true,
    "lat": 34.397194,
    "lon": 135.327083,
    "route": "犬鳴山→泉佐野駅前",
    "stop": "野々地蔵",
    "passTime": "16:13",
    "vehicleType": "南海ウイングバス(車椅子・ベビーカー・ワンステップ)",
    "updateTime": "2026/07/23 16:15"
  },
  {
    "vehicleNum": "080171",
    "vehicleCd": "40",
    "vehicleCorpCd": "2",
    "running": true,
    "lat": 34.432583,
    "lon": 135.393694,
    "route": "岸和田駅前→天神山・一の宮循環　右回り→岸和田駅前",
    "stop": "天神山町１丁目",
    "passTime": "16:13",
    "vehicleType": "南海ウイングバス(車椅子・ベビーカー・ワンステップ)",
    "updateTime": "2026/07/23 16:15"
  },
  {
    "vehicleNum": "080178",
    "vehicleCd": "56",
    "vehicleCorpCd": "2",
    "running": true,
    "lat": 34.388778,
    "lon": 135.449083,
    "route": "岸和田駅前→内畑→牛滝温泉",
    "stop": "上大沢",
    "passTime": "16:14",
    "vehicleType": "南海ウイングバス(車椅子・ベビーカー・ワンステップ)",
    "updateTime": "2026/07/23 16:15"
  },
  {
    "vehicleNum": "080184",
    "vehicleCd": "34",
    "vehicleCorpCd": "2",
    "running": true,
    "lat": 34.403278,
    "lon": 135.363,
    "route": "泉佐野駅前→上瓦屋町→熊取駅前→熊取ニュータウン（フリー乗降）",
    "stop": "希望が丘中",
    "passTime": "16:14",
    "vehicleType": "南海ウイングバス(車椅子・ベビーカー・ノンステップ)",
    "updateTime": "2026/07/23 16:15"
  },
  {
    "vehicleNum": "080187",
    "vehicleCd": "66",
    "vehicleCorpCd": "1",
    "running": true,
    "lat": 34.5935,
    "lon": 135.468083,
    "route": "【急行】海浜匠町→堺駅西口",
    "stop": "海浜匠町",
    "passTime": "16:00",
    "vehicleType": "南海バス(車椅子・ベビーカー・ノンステップ)",
    "updateTime": "2026/07/23 16:15"
  },
  {
    "vehicleNum": "080268",
    "vehicleCd": "114",
    "vehicleCorpCd": "2",
    "running": true,
    "lat": 34.388889,
    "lon": 135.352778,
    "route": "熊取駅前→大阪体育大学前",
    "stop": "原子力研究所前",
    "passTime": "16:13",
    "vehicleType": "南海ウイングバス(車椅子・ベビーカー・ノンステップ)",
    "updateTime": "2026/07/23 16:15"
  },
  {
    "vehicleNum": "080316",
    "vehicleCd": "81",
    "vehicleCorpCd": "1",
    "running": true,
    "lat": 34.584694,
    "lon": 135.496278,
    "route": "堺東駅前→錦綾町→河内天美駅前",
    "stop": "愛泉学園前",
    "passTime": "16:14",
    "vehicleType": "南海バス(車椅子・ベビーカー・ワンステップ)",
    "updateTime": "2026/07/23 16:15"
  },
  {
    "vehicleNum": "080322",
    "vehicleCd": "116",
    "vehicleCorpCd": "2",
    "running": true,
    "lat": 34.463694,
    "lon": 135.433083,
    "route": "岸和田駅前→荒木町→和泉中央駅",
    "stop": "摩湯",
    "passTime": "16:15",
    "vehicleType": "南海ウイングバス(車椅子・ワンステップ)",
    "updateTime": "2026/07/23 16:15"
  },
  {
    "vehicleNum": "080627",
    "vehicleCd": "446",
    "vehicleCorpCd": "1",
    "running": true,
    "lat": 34.54,
    "lon": 135.559278,
    "route": "美原区役所→初芝駅前→美原区役所",
    "stop": "美原区役所前",
    "passTime": "16:12",
    "vehicleType": "南海バス(車椅子・ベビーカー・ノンステップ)",
    "updateTime": "2026/07/23 16:15"
  },
  {
    "vehicleNum": "080644",
    "vehicleCd": "452",
    "vehicleCorpCd": "1",
    "running": true,
    "lat": 34.5535,
    "lon": 135.513694,
    "route": "堺駅南口→中もず団地前→初芝駅前",
    "stop": "中もず団地前",
    "passTime": "16:14",
    "vehicleType": "南海バス(車椅子・ベビーカー・ノンステップ)",
    "updateTime": "2026/07/23 16:15"
  },
  {
    "vehicleNum": "080651",
    "vehicleCd": "455",
    "vehicleCorpCd": "1",
    "running": true,
    "lat": 34.552583,
    "lon": 135.544889,
    "route": "美原区役所→初芝駅前→美原区役所",
    "stop": "小寺",
    "passTime": "16:14",
    "vehicleType": "南海バス",
    "updateTime": "2026/07/23 16:15"
  },
  {
    "vehicleNum": "080676",
    "vehicleCd": "158",
    "vehicleCorpCd": "1",
    "running": true,
    "lat": 34.543972,
    "lon": 135.551889,
    "route": "美原区役所→野遠→地下鉄新金岡駅前",
    "stop": "下黒山西",
    "passTime": "16:12",
    "vehicleType": "南海バス",
    "updateTime": "2026/07/23 16:15"
  },
  {
    "vehicleNum": "080697",
    "vehicleCd": "461",
    "vehicleCorpCd": "1",
    "running": true,
    "lat": 34.575389,
    "lon": 135.471194,
    "route": "堺駅南口→堺駅前",
    "stop": "宿院",
    "passTime": "16:14",
    "vehicleType": "南海バス",
    "updateTime": "2026/07/23 16:15"
  },
  {
    "vehicleNum": "080703",
    "vehicleCd": "219",
    "vehicleCorpCd": "1",
    "running": true,
    "lat": 34.577583,
    "lon": 135.476194,
    "route": "堺東→住之江公園→堺東",
    "stop": "大寺北門山之口前",
    "passTime": "16:14",
    "vehicleType": "南海バス(車椅子・ベビーカー・ノンステップ)",
    "updateTime": "2026/07/23 16:15"
  },
  {
    "vehicleNum": "080705",
    "vehicleCd": "542",
    "vehicleCorpCd": "1",
    "running": true,
    "lat": 34.575,
    "lon": 135.517694,
    "route": "河内松原駅前→阪和堺市駅前→堺駅前",
    "stop": "蔵前町",
    "passTime": "16:14",
    "vehicleType": "南海バス(車椅子・ベビーカー・ノンステップ)",
    "updateTime": "2026/07/23 16:15"
  },
  {
    "vehicleNum": "080706",
    "vehicleCd": "543",
    "vehicleCorpCd": "1",
    "running": true,
    "lat": 34.573583,
    "lon": 135.477194,
    "route": "堺駅前→堺駅南口",
    "stop": "堺東駅前",
    "passTime": "16:14",
    "vehicleType": "南海バス(車椅子・ベビーカー・ノンステップ)",
    "updateTime": "2026/07/23 16:15"
  },
  {
    "vehicleNum": "080711",
    "vehicleCd": "79",
    "vehicleCorpCd": "2",
    "running": true,
    "lat": 34.407583,
    "lon": 135.322,
    "route": "泉佐野駅前→野々地蔵北→日根野駅前→犬鳴山",
    "stop": "上町１丁目",
    "passTime": "16:13",
    "vehicleType": "南海ウイングバス(車椅子・ベビーカー・ノンステップ)",
    "updateTime": "2026/07/23 16:15"
  },
  {
    "vehicleNum": "080750",
    "vehicleCd": "103",
    "vehicleCorpCd": "1",
    "running": true,
    "lat": 34.582889,
    "lon": 135.511583,
    "route": "地下鉄北花田駅前→浅香→ＪＲ堺市駅前→地下鉄北花田駅前",
    "stop": "奥本町",
    "passTime": "16:14",
    "vehicleType": "南海バス(車椅子・ベビーカー・ノンステップ)",
    "updateTime": "2026/07/23 16:15"
  },
  {
    "vehicleNum": "080753",
    "vehicleCd": "552",
    "vehicleCorpCd": "1",
    "running": true,
    "lat": 34.501194,
    "lon": 135.539778,
    "route": "金剛駅前→泉ヶ丘駅→近大キャンパス前→金剛駅前",
    "stop": "近大おおさかメディカルキャンパス前",
    "passTime": "16:04",
    "vehicleType": "南海バス(車椅子・ベビーカー・ノンステップ)",
    "updateTime": "2026/07/23 16:15"
  },
  {
    "vehicleNum": "080757",
    "vehicleCd": "182",
    "vehicleCorpCd": "1",
    "running": true,
    "lat": 34.490472,
    "lon": 135.512472,
    "route": "泉ヶ丘駅→片蔵→畑",
    "stop": "茶山台",
    "passTime": "16:14",
    "vehicleType": "南海バス(車椅子・ベビーカー・ノンステップ)",
    "updateTime": "2026/07/23 16:15"
  },
  {
    "vehicleNum": "080756",
    "vehicleCd": "315",
    "vehicleCorpCd": "1",
    "running": true,
    "lat": 34.533694,
    "lon": 135.487694,
    "route": "泉ヶ丘駅→八田荘団地→堺市立総合医療センター前→津久野駅前",
    "stop": "中深井南",
    "passTime": "16:15",
    "vehicleType": "南海バス(車椅子・ベビーカー・ノンステップ)",
    "updateTime": "2026/07/23 16:15"
  },
  {
    "vehicleNum": "080758",
    "vehicleCd": "511",
    "vehicleCorpCd": "1",
    "running": true,
    "lat": 34.488278,
    "lon": 135.500472,
    "route": "泉ヶ丘駅→鉢ヶ峯→泉ヶ丘駅",
    "stop": "栂",
    "passTime": "16:14",
    "vehicleType": "南海バス(車椅子・ベビーカー・ノンステップ)",
    "updateTime": "2026/07/23 16:15"
  },
  {
    "vehicleNum": "080760",
    "vehicleCd": "559",
    "vehicleCorpCd": "1",
    "running": true,
    "lat": 34.536194,
    "lon": 135.557778,
    "route": "中もず駅前→初芝駅前→船戸下→美原区役所前",
    "stop": "黒山",
    "passTime": "16:13",
    "vehicleType": "南海バス(車椅子・ベビーカー・ノンステップ)",
    "updateTime": "2026/07/23 16:15"
  },
  {
    "vehicleNum": "080761",
    "vehicleCd": "560",
    "vehicleCorpCd": "1",
    "running": true,
    "lat": 34.5655,
    "lon": 135.512389,
    "route": "堺東駅前→労災病院前→白鷺駅前（循環）",
    "stop": "長曽根住宅前",
    "passTime": "16:11",
    "vehicleType": "南海バス(車椅子・ベビーカー・ノンステップ)",
    "updateTime": "2026/07/23 16:15"
  },
  {
    "vehicleNum": "080762",
    "vehicleCd": "561",
    "vehicleCorpCd": "1",
    "running": true,
    "lat": 34.547083,
    "lon": 135.522583,
    "route": "美原区役所前→船戸下→初芝駅前→中もず駅前",
    "stop": "引野",
    "passTime": "16:14",
    "vehicleType": "南海バス(車椅子・ベビーカー・ノンステップ)",
    "updateTime": "2026/07/23 16:15"
  },
  {
    "vehicleNum": "080766",
    "vehicleCd": "565",
    "vehicleCorpCd": "1",
    "running": true,
    "lat": 34.497583,
    "lon": 135.508889,
    "route": "堺東駅前→上野芝→泉ヶ丘駅",
    "stop": "竹城台２丁",
    "passTime": "16:13",
    "vehicleType": "南海バス(車椅子・ベビーカー・ノンステップ)",
    "updateTime": "2026/07/23 16:15"
  },
  {
    "vehicleNum": "080767",
    "vehicleCd": "566",
    "vehicleCorpCd": "1",
    "running": true,
    "lat": 34.559194,
    "lon": 135.4725,
    "route": "泉ヶ丘駅→宮山台中学校前→堺東駅前",
    "stop": "旭ヶ丘（堺市）",
    "passTime": "16:09",
    "vehicleType": "南海バス(車椅子・ベビーカー・ノンステップ)",
    "updateTime": "2026/07/23 16:15"
  },
  {
    "vehicleNum": "080787",
    "vehicleCd": "301",
    "vehicleCorpCd": "1",
    "running": true,
    "lat": 34.577,
    "lon": 135.497,
    "route": "【急行】海浜匠町→堺東駅前→阪和堺市駅前",
    "stop": "瓦町公園前",
    "passTime": "16:09",
    "vehicleType": "南海バス(車椅子・ベビーカー・ノンステップ)",
    "updateTime": "2026/07/23 16:15"
  },
  {
    "vehicleNum": "080789",
    "vehicleCd": "300",
    "vehicleCorpCd": "1",
    "running": true,
    "lat": 34.5745,
    "lon": 135.482083,
    "route": "阪和堺市駅前→堺東駅前→堺駅西口→匠町→海浜匠町",
    "stop": "堺東駅前",
    "passTime": "16:13",
    "vehicleType": "南海バス(車椅子・ベビーカー・ノンステップ)",
    "updateTime": "2026/07/23 16:15"
  },
  {
    "vehicleNum": "080791",
    "vehicleCd": "61",
    "vehicleCorpCd": "1",
    "running": true,
    "lat": 34.593889,
    "lon": 135.446889,
    "route": "堺東駅前→錦綾町→堺駅西口",
    "stop": "堺浜シーサイドステージ",
    "passTime": "16:10",
    "vehicleType": "南海バス(車椅子・ベビーカー・ノンステップ)",
    "updateTime": "2026/07/23 16:15"
  },
  {
    "vehicleNum": "080765",
    "vehicleCd": "564",
    "vehicleCorpCd": "1",
    "running": true,
    "lat": 34.526583,
    "lon": 135.5055,
    "route": "深井駅→田園→泉ヶ丘駅",
    "stop": "畑山",
    "passTime": "16:13",
    "vehicleType": "南海バス(車椅子・ベビーカー・ノンステップ)",
    "updateTime": "2026/07/23 16:15"
  },
  {
    "vehicleNum": "080794",
    "vehicleCd": "344",
    "vehicleCorpCd": "1",
    "running": true,
    "lat": 34.575083,
    "lon": 135.528389,
    "route": "イオンモール堺北花田→蔵前町→河内松原駅前",
    "stop": "南花田町東",
    "passTime": "16:15",
    "vehicleType": "南海バス(車椅子・ベビーカー・ノンステップ)",
    "updateTime": "2026/07/23 16:15"
  },
  {
    "vehicleNum": "080793",
    "vehicleCd": "112",
    "vehicleCorpCd": "1",
    "running": true,
    "lat": 34.566389,
    "lon": 135.5015,
    "route": "堺東駅前→労災病院前→白鷺駅前（循環）",
    "stop": "黒土町",
    "passTime": "16:11",
    "vehicleType": "南海バス(車椅子・ベビーカー・ノンステップ)",
    "updateTime": "2026/07/23 16:15"
  },
  {
    "vehicleNum": "080792",
    "vehicleCd": "302",
    "vehicleCorpCd": "1",
    "running": true,
    "lat": 34.559389,
    "lon": 135.472194,
    "route": "堺駅南口→堺駅前",
    "stop": "塩穴通",
    "passTime": "16:13",
    "vehicleType": "南海バス(車椅子・ベビーカー・ノンステップ)",
    "updateTime": "2026/07/23 16:15"
  },
  {
    "vehicleNum": "080795",
    "vehicleCd": "43",
    "vehicleCorpCd": "1",
    "running": true,
    "lat": 34.566278,
    "lon": 135.5015,
    "route": "阪和堺市駅前→労災病院前→近畿中央呼吸器センター前→堺駅南口",
    "stop": "近畿中央呼吸器センター前",
    "passTime": "16:08",
    "vehicleType": "南海バス(車椅子・ベビーカー・ノンステップ)",
    "updateTime": "2026/07/23 16:15"
  },
  {
    "vehicleNum": "080799",
    "vehicleCd": "339",
    "vehicleCorpCd": "1",
    "running": true,
    "lat": 34.574778,
    "lon": 135.514083,
    "route": "堺駅前→堺東駅前→河内松原駅前",
    "stop": "蔵前西",
    "passTime": "16:12",
    "vehicleType": "南海バス(車椅子・ベビーカー・ノンステップ)",
    "updateTime": "2026/07/23 16:15"
  },
  {
    "vehicleNum": "080809",
    "vehicleCd": "215",
    "vehicleCorpCd": "1",
    "running": true,
    "lat": 34.576278,
    "lon": 135.480889,
    "route": "匠町→堺駅西口→堺東駅前→阪和堺市駅前",
    "stop": "瓦町公園前",
    "passTime": "16:14",
    "vehicleType": "南海バス(車椅子・ベビーカー・ノンステップ)",
    "updateTime": "2026/07/23 16:15"
  },
  {
    "vehicleNum": "080835",
    "vehicleCd": "310",
    "vehicleCorpCd": "1",
    "running": true,
    "lat": 34.495083,
    "lon": 135.5585,
    "route": "金剛駅前→泉ヶ丘駅→近大キャンパス前→金剛駅前",
    "stop": "金剛駅前（西側）",
    "passTime": "16:15",
    "vehicleType": "南海バス(車椅子・ベビーカー・ノンステップ)",
    "updateTime": "2026/07/23 16:15"
  },
  {
    "vehicleNum": "080827",
    "vehicleCd": "317",
    "vehicleCorpCd": "1",
    "running": true,
    "lat": 34.578694,
    "lon": 135.463278,
    "route": "堺駅前→堺駅南口",
    "stop": "堺駅南口",
    "passTime": "16:12",
    "vehicleType": "南海バス(車椅子・ベビーカー・ノンステップ)",
    "updateTime": "2026/07/23 16:15"
  },
  {
    "vehicleNum": "080837",
    "vehicleCd": "351",
    "vehicleCorpCd": "1",
    "running": true,
    "lat": 34.567278,
    "lon": 135.478778,
    "route": "堺東駅前→上野芝→泉ヶ丘駅",
    "stop": "賑町",
    "passTime": "16:14",
    "vehicleType": "南海バス(車椅子・ベビーカー・ノンステップ)",
    "updateTime": "2026/07/23 16:15"
  },
  {
    "vehicleNum": "080844",
    "vehicleCd": "581",
    "vehicleCorpCd": "1",
    "running": true,
    "lat": 34.494889,
    "lon": 135.56,
    "route": "金剛駅前→向陽・藤沢回り→金剛駅前",
    "stop": "久野喜台二丁目",
    "passTime": "16:13",
    "vehicleType": "南海バス(車椅子・ベビーカー・ノンステップ)",
    "updateTime": "2026/07/23 16:15"
  },
  {
    "vehicleNum": "080845",
    "vehicleCd": "319",
    "vehicleCorpCd": "1",
    "running": true,
    "lat": 34.552389,
    "lon": 135.494583,
    "route": "堺東駅前→もず駅前→深井駅→あみだ池",
    "stop": "もず八幡前",
    "passTime": "16:15",
    "vehicleType": "南海バス(車椅子・ベビーカー・ノンステップ)",
    "updateTime": "2026/07/23 16:15"
  },
  {
    "vehicleNum": "080850",
    "vehicleCd": "24",
    "vehicleCorpCd": "1",
    "running": true,
    "lat": 34.508194,
    "lon": 135.489083,
    "route": "津久野駅前→堺市立総合医療センター前→泉北２号線→泉ヶ丘駅",
    "stop": "平井大橋",
    "passTime": "16:12",
    "vehicleType": "南海バス(車椅子・ベビーカー・ノンステップ)",
    "updateTime": "2026/07/23 16:15"
  },
  {
    "vehicleNum": "080856",
    "vehicleCd": "358",
    "vehicleCorpCd": "1",
    "running": true,
    "lat": 34.499194,
    "lon": 135.561583,
    "route": "金剛駅前→高辺台小学校前→金剛駅前",
    "stop": "久野喜台小学校前",
    "passTime": "16:13",
    "vehicleType": "南海バス(車椅子・ベビーカー・ワンステップ)",
    "updateTime": "2026/07/23 16:15"
  },
  {
    "vehicleNum": "080855",
    "vehicleCd": "16",
    "vehicleCorpCd": "1",
    "running": true,
    "lat": 34.477778,
    "lon": 135.500889,
    "route": "栂・美木多駅→庭代台右回り→栂・美木多駅",
    "stop": "庭代台東口",
    "passTime": "16:14",
    "vehicleType": "南海バス(車椅子・ベビーカー・ノンステップ)",
    "updateTime": "2026/07/23 16:15"
  },
  {
    "vehicleNum": "080863",
    "vehicleCd": "249",
    "vehicleCorpCd": "1",
    "running": true,
    "lat": 34.595083,
    "lon": 135.442889,
    "route": "【急行】海浜匠町→堺東駅前→阪和堺市駅前",
    "stop": "海浜匠町",
    "passTime": "16:10",
    "vehicleType": "南海バス(車椅子・ベビーカー・ノンステップ)",
    "updateTime": "2026/07/23 16:15"
  },
  {
    "vehicleNum": "080859",
    "vehicleCd": "227",
    "vehicleCorpCd": "1",
    "running": true,
    "lat": 34.570278,
    "lon": 135.501889,
    "route": "堺駅南口→近畿中央呼吸器センター前→労災病院前→阪和堺市駅前",
    "stop": "黒土口",
    "passTime": "16:14",
    "vehicleType": "南海バス(車椅子・ベビーカー・ノンステップ)",
    "updateTime": "2026/07/23 16:15"
  },
  {
    "vehicleNum": "080867",
    "vehicleCd": "364",
    "vehicleCorpCd": "1",
    "running": true,
    "lat": 34.496278,
    "lon": 135.513583,
    "route": "泉ヶ丘駅→帝塚山学院泉ヶ丘校前→金剛駅前",
    "stop": "泉ヶ丘駅（南側）",
    "passTime": "16:15",
    "vehicleType": "南海バス(車椅子・ベビーカー・ノンステップ)",
    "updateTime": "2026/07/23 16:15"
  },
  {
    "vehicleNum": "080873",
    "vehicleCd": "144",
    "vehicleCorpCd": "1",
    "running": true,
    "lat": 34.493889,
    "lon": 135.531194,
    "route": "泉ヶ丘駅→スマ・エコタウン晴美台→高倉台左回り→泉ヶ丘駅",
    "stop": "晴美台センター",
    "passTime": "16:14",
    "vehicleType": "南海バス(車椅子・ベビーカー・ノンステップ)",
    "updateTime": "2026/07/23 16:15"
  },
  {
    "vehicleNum": "080874",
    "vehicleCd": "352",
    "vehicleCorpCd": "1",
    "running": true,
    "lat": 34.493194,
    "lon": 135.518889,
    "route": "泉ヶ丘駅→晴美台右回り→泉ヶ丘駅",
    "stop": "茶山台２丁",
    "passTime": "16:14",
    "vehicleType": "南海バス(車椅子・ベビーカー・ノンステップ)",
    "updateTime": "2026/07/23 16:15"
  },
  {
    "vehicleNum": "080875",
    "vehicleCd": "485",
    "vehicleCorpCd": "1",
    "running": true,
    "lat": 34.534389,
    "lon": 135.486278,
    "route": "津久野駅前→堺市立総合医療センター前→八田荘団地→泉ヶ丘駅",
    "stop": "中深井西",
    "passTime": "16:15",
    "vehicleType": "南海バス(車椅子・ベビーカー・ノンステップ)",
    "updateTime": "2026/07/23 16:15"
  },
  {
    "vehicleNum": "080876",
    "vehicleCd": "390",
    "vehicleCorpCd": "1",
    "running": true,
    "lat": 34.564694,
    "lon": 135.492389,
    "route": "堺駅南口→福町→北野田駅前",
    "stop": "永山園",
    "passTime": "16:12",
    "vehicleType": "南海バス(車椅子・ベビーカー・ノンステップ)",
    "updateTime": "2026/07/23 16:15"
  },
  {
    "vehicleNum": "080882",
    "vehicleCd": "343",
    "vehicleCorpCd": "1",
    "running": true,
    "lat": 34.487694,
    "lon": 135.5315,
    "route": "泉ヶ丘駅→晴美台右回り→泉ヶ丘駅",
    "stop": "帝塚山学院泉ケ丘校前",
    "passTime": "16:14",
    "vehicleType": "南海バス(車椅子・ベビーカー・ノンステップ)",
    "updateTime": "2026/07/23 16:15"
  },
  {
    "vehicleNum": "080894",
    "vehicleCd": "350",
    "vehicleCorpCd": "1",
    "running": true,
    "lat": 34.548083,
    "lon": 135.542,
    "route": "地下鉄新金岡駅前→野遠→美原区役所",
    "stop": "菩提",
    "passTime": "16:14",
    "vehicleType": "南海バス(車椅子・ベビーカー・ノンステップ)",
    "updateTime": "2026/07/23 16:15"
  },
  {
    "vehicleNum": "080898",
    "vehicleCd": "501",
    "vehicleCorpCd": "1",
    "running": true,
    "lat": 34.577389,
    "lon": 135.484694,
    "route": "【急行】海浜匠町→堺東駅前→阪和堺市駅前",
    "stop": "海浜匠町",
    "passTime": "15:55",
    "vehicleType": "南海バス(車椅子・ベビーカー・ワンステップ)",
    "updateTime": "2026/07/23 16:15"
  },
  {
    "vehicleNum": "080905",
    "vehicleCd": "353",
    "vehicleCorpCd": "1",
    "running": true,
    "lat": 34.498778,
    "lon": 135.556389,
    "route": "泉ヶ丘駅→帝塚山学院泉ヶ丘校前→金剛駅前",
    "stop": "北村",
    "passTime": "16:12",
    "vehicleType": "南海バス(車椅子・ベビーカー・ノンステップ)",
    "updateTime": "2026/07/23 16:15"
  },
  {
    "vehicleNum": "080913",
    "vehicleCd": "128",
    "vehicleCorpCd": "1",
    "running": true,
    "lat": 34.603278,
    "lon": 135.452083,
    "route": "堺駅西口→錦綾町→堺東駅前",
    "stop": "堺浜北",
    "passTime": "16:14",
    "vehicleType": "南海バス(車椅子・ベビーカー・ノンステップ)",
    "updateTime": "2026/07/23 16:15"
  },
  {
    "vehicleNum": "080928",
    "vehicleCd": "348",
    "vehicleCorpCd": "1",
    "running": true,
    "lat": 34.494889,
    "lon": 135.510778,
    "route": "ハーベストの丘→泉ヶ丘駅",
    "stop": "御池台２丁東",
    "passTime": "16:04",
    "vehicleType": "南海バス(車椅子・ベビーカー・ノンステップ)",
    "updateTime": "2026/07/23 16:15"
  },
  {
    "vehicleNum": "080927",
    "vehicleCd": "79",
    "vehicleCorpCd": "1",
    "running": true,
    "lat": 34.493194,
    "lon": 135.5015,
    "route": "泉ヶ丘駅→泉北２号線→堺市立総合医療センター前→津久野駅前",
    "stop": "若竹大橋",
    "passTime": "16:14",
    "vehicleType": "南海バス(車椅子・ベビーカー・ノンステップ)",
    "updateTime": "2026/07/23 16:15"
  },
  {
    "vehicleNum": "080934",
    "vehicleCd": "594",
    "vehicleCorpCd": "1",
    "running": true,
    "lat": 34.579889,
    "lon": 135.4855,
    "route": "河内天美駅前→天美我堂→堺東駅前",
    "stop": "中向陽町",
    "passTime": "16:14",
    "vehicleType": "南海バス(車椅子・ベビーカー・ノンステップ)",
    "updateTime": "2026/07/23 16:15"
  },
  {
    "vehicleNum": "080936",
    "vehicleCd": "22",
    "vehicleCorpCd": "1",
    "running": true,
    "lat": 34.481083,
    "lon": 135.491,
    "route": "栂・美木多駅→御池台回り→栂・美木多駅",
    "stop": "原山公園前",
    "passTime": "16:14",
    "vehicleType": "南海バス(車椅子・ベビーカー・ノンステップ)",
    "updateTime": "2026/07/23 16:15"
  },
  {
    "vehicleNum": "080951",
    "vehicleCd": "597",
    "vehicleCorpCd": "1",
    "running": true,
    "lat": 34.494083,
    "lon": 135.506278,
    "route": "泉ヶ丘駅→庭代台左回り→泉ヶ丘駅",
    "stop": "泉ヶ丘駅（南側）",
    "passTime": "16:10",
    "vehicleType": "南海バス(車椅子・ベビーカー・ノンステップ)",
    "updateTime": "2026/07/23 16:15"
  },
  {
    "vehicleNum": "080937",
    "vehicleCd": "595",
    "vehicleCorpCd": "1",
    "running": true,
    "lat": 34.539778,
    "lon": 135.472194,
    "route": "堺市立総合医療センター前→鳳駅前→石津川駅前",
    "stop": "堺市立総合医療センター前",
    "passTime": "16:14",
    "vehicleType": "南海バス(車椅子・ベビーカー・ノンステップ)",
    "updateTime": "2026/07/23 16:15"
  },
  {
    "vehicleNum": "080956",
    "vehicleCd": "71",
    "vehicleCorpCd": "1",
    "running": true,
    "lat": 34.581389,
    "lon": 135.476583,
    "route": "堺東駅前→ＡＴＣ→海遊館→堺東駅前",
    "stop": "堺駅前",
    "passTime": "16:09",
    "vehicleType": "南海バス",
    "updateTime": "2026/07/23 16:15"
  },
  {
    "vehicleNum": "080966",
    "vehicleCd": "387",
    "vehicleCorpCd": "1",
    "running": true,
    "lat": 34.536389,
    "lon": 135.516583,
    "route": "北野田駅前→福町→堺駅南口",
    "stop": "下草尾",
    "passTime": "16:12",
    "vehicleType": "南海バス(車椅子・ベビーカー・ノンステップ)",
    "updateTime": "2026/07/23 16:15"
  },
  {
    "vehicleNum": "080967",
    "vehicleCd": "605",
    "vehicleCorpCd": "1",
    "running": true,
    "lat": 34.557583,
    "lon": 135.505583,
    "route": "中もず駅前→平尾→初芝駅前",
    "stop": "中もず駅前（北側）",
    "passTime": "16:14",
    "vehicleType": "南海バス(車椅子・ベビーカー・ノンステップ)",
    "updateTime": "2026/07/23 16:15"
  },
  {
    "vehicleNum": "080978",
    "vehicleCd": "431",
    "vehicleCorpCd": "1",
    "running": true,
    "lat": 34.524194,
    "lon": 135.487889,
    "route": "東山車庫前→小阪→堺東駅前",
    "stop": "小阪",
    "passTime": "16:13",
    "vehicleType": "南海バス(車椅子・ベビーカー・ノンステップ)",
    "updateTime": "2026/07/23 16:15"
  },
  {
    "vehicleNum": "080995",
    "vehicleCd": "118",
    "vehicleCorpCd": "1",
    "running": true,
    "lat": 34.485778,
    "lon": 135.488278,
    "route": "泉ヶ丘駅→庭代台右回り→泉ヶ丘駅",
    "stop": "栂・美木多駅",
    "passTime": "16:12",
    "vehicleType": "南海バス(車椅子・ベビーカー・ノンステップ)",
    "updateTime": "2026/07/23 16:15"
  },
  {
    "vehicleNum": "080994",
    "vehicleCd": "130",
    "vehicleCorpCd": "1",
    "running": true,
    "lat": 34.480194,
    "lon": 135.525583,
    "route": "泉ヶ丘駅→槙塚台左回り→泉ヶ丘駅",
    "stop": "槙塚台２丁南",
    "passTime": "16:15",
    "vehicleType": "南海バス(車椅子・ベビーカー・ノンステップ)",
    "updateTime": "2026/07/23 16:15"
  },
  {
    "vehicleNum": "080989",
    "vehicleCd": "259",
    "vehicleCorpCd": "1",
    "running": true,
    "lat": 34.517389,
    "lon": 135.510278,
    "route": "あみだ池→深井駅→もず駅前→堺東駅前",
    "stop": "東中学校前（堺市）",
    "passTime": "16:15",
    "vehicleType": "南海バス(車椅子・ベビーカー・ノンステップ)",
    "updateTime": "2026/07/23 16:15"
  },
  {
    "vehicleNum": "080999",
    "vehicleCd": "493",
    "vehicleCorpCd": "1",
    "running": true,
    "lat": 34.548583,
    "lon": 135.495389,
    "route": "伏尾→北条→中もず駅前",
    "stop": "もず西之町",
    "passTime": "16:14",
    "vehicleType": "南海バス(車椅子・ベビーカー・ノンステップ)",
    "updateTime": "2026/07/23 16:15"
  },
  {
    "vehicleNum": "081001",
    "vehicleCd": "238",
    "vehicleCorpCd": "1",
    "running": true,
    "lat": 34.559583,
    "lon": 135.494389,
    "route": "北野田駅前→西口園→堺駅南口",
    "stop": "梅北町",
    "passTime": "16:14",
    "vehicleType": "南海バス(車椅子・ベビーカー・ノンステップ)",
    "updateTime": "2026/07/23 16:15"
  },
  {
    "vehicleNum": "081005",
    "vehicleCd": "272",
    "vehicleCorpCd": "1",
    "running": true,
    "lat": 34.532083,
    "lon": 135.459778,
    "route": "石津川駅前→浜寺公園駅前通→鳳駅前→堺市立総合医療センター前",
    "stop": "鳳駅前",
    "passTime": "16:14",
    "vehicleType": "南海バス(車椅子・ベビーカー・ノンステップ)",
    "updateTime": "2026/07/23 16:15"
  },
  {
    "vehicleNum": "081014",
    "vehicleCd": "229",
    "vehicleCorpCd": "1",
    "running": true,
    "lat": 34.533694,
    "lon": 135.487694,
    "route": "堺東駅前→上野芝駅前→東山車庫前",
    "stop": "中深井南",
    "passTime": "16:14",
    "vehicleType": "南海バス(車椅子・ベビーカー・ノンステップ)",
    "updateTime": "2026/07/23 16:15"
  },
  {
    "vehicleNum": "081015",
    "vehicleCd": "136",
    "vehicleCorpCd": "1",
    "running": true,
    "lat": 34.542194,
    "lon": 135.512583,
    "route": "堺駅南口→三国ヶ丘駅前→北野田駅前",
    "stop": "下茶屋",
    "passTime": "16:14",
    "vehicleType": "南海バス(車椅子・ベビーカー・ノンステップ)",
    "updateTime": "2026/07/23 16:15"
  },
  {
    "vehicleNum": "081017",
    "vehicleCd": "135",
    "vehicleCorpCd": "1",
    "running": true,
    "lat": 34.538694,
    "lon": 135.470778,
    "route": "泉ヶ丘駅→泉北２号線→堺市立総合医療センター前→津久野駅前",
    "stop": "平岡西口",
    "passTime": "16:11",
    "vehicleType": "南海バス(車椅子・ベビーカー・ノンステップ)",
    "updateTime": "2026/07/23 16:15"
  },
  {
    "vehicleNum": "081024",
    "vehicleCd": "270",
    "vehicleCorpCd": "1",
    "running": true,
    "lat": 34.541778,
    "lon": 135.468194,
    "route": "堺東駅前→堀上緑町１丁→堺東駅前",
    "stop": "堺市立総合医療センター東",
    "passTime": "16:10",
    "vehicleType": "南海バス(車椅子・ベビーカー・ノンステップ)",
    "updateTime": "2026/07/23 16:15"
  },
  {
    "vehicleNum": "081036",
    "vehicleCd": "293",
    "vehicleCorpCd": "1",
    "running": true,
    "lat": 34.498389,
    "lon": 135.546778,
    "route": "泉ヶ丘駅→狭山ニュータウンセンター→金剛駅前",
    "stop": "狭山西小学校前",
    "passTime": "16:13",
    "vehicleType": "南海バス(車椅子・ベビーカー・ノンステップ)",
    "updateTime": "2026/07/23 16:15"
  },
  {
    "vehicleNum": "081040",
    "vehicleCd": "248",
    "vehicleCorpCd": "1",
    "running": true,
    "lat": 34.470778,
    "lon": 135.494,
    "route": "泉ヶ丘駅→御池台回り→泉ヶ丘駅",
    "stop": "庭代台１丁",
    "passTime": "16:14",
    "vehicleType": "南海バス(車椅子・ベビーカー・ノンステップ)",
    "updateTime": "2026/07/23 16:15"
  },
  {
    "vehicleNum": "081044",
    "vehicleCd": "132",
    "vehicleCorpCd": "1",
    "running": true,
    "lat": 34.491278,
    "lon": 135.532389,
    "route": "金剛駅前→帝塚山学院泉ヶ丘校前→泉ヶ丘駅前",
    "stop": "晴美台センター",
    "passTime": "16:14",
    "vehicleType": "南海バス(車椅子・ベビーカー・ノンステップ)",
    "updateTime": "2026/07/23 16:15"
  },
  {
    "vehicleNum": "090160",
    "vehicleCd": "72",
    "vehicleCorpCd": "2",
    "running": true,
    "lat": 34.405778,
    "lon": 135.341778,
    "route": "熊取ニュータウン→熊取駅前（フリー乗降）",
    "stop": "青年会場前",
    "passTime": "16:13",
    "vehicleType": "南海ウイングバス(車椅子・ワンステップ)",
    "updateTime": "2026/07/23 16:15"
  },
  {
    "vehicleNum": "091070",
    "vehicleCd": "487",
    "vehicleCorpCd": "1",
    "running": true,
    "lat": 34.436889,
    "lon": 135.236278,
    "route": "第２ターミナル(国内線・国際線)→エアロプラザ",
    "stop": "第2ターミナル国際線",
    "passTime": "16:13",
    "vehicleType": "南海バス",
    "updateTime": "2026/07/23 16:15"
  },
  {
    "vehicleNum": "091069",
    "vehicleCd": "245",
    "vehicleCorpCd": "1",
    "running": true,
    "lat": 34.506694,
    "lon": 135.444194,
    "route": "北信太駅筋→鶴山台団地→北信太駅筋",
    "stop": "太町",
    "passTime": "16:14",
    "vehicleType": "南海バス(車椅子・ベビーカー・ワンステップ)",
    "updateTime": "2026/07/23 16:15"
  },
  {
    "vehicleNum": "091444",
    "vehicleCd": "107",
    "vehicleCorpCd": "2",
    "running": true,
    "lat": 34.384278,
    "lon": 135.373278,
    "route": "つばさが丘北口→大阪体育大学前→熊取駅前→ダンバラ公園前→泉佐野駅前",
    "stop": "つばさが丘中央",
    "passTime": "16:14",
    "vehicleType": "南海ウイングバス(車椅子・ベビーカー・ノンステップ)",
    "updateTime": "2026/07/23 16:15"
  },
  {
    "vehicleNum": "091581",
    "vehicleCd": "198",
    "vehicleCorpCd": "1",
    "running": true,
    "lat": 34.426778,
    "lon": 135.230694,
    "route": "給油地区→空港駅",
    "stop": "第1輸出ビル前",
    "passTime": "16:14",
    "vehicleType": "南海バス(車椅子・ノンステップ)",
    "updateTime": "2026/07/23 16:15"
  },
  {
    "vehicleNum": "091580",
    "vehicleCd": "85",
    "vehicleCorpCd": "2",
    "running": true,
    "lat": 34.368083,
    "lon": 135.270083,
    "route": "泉南市コミュニティバス 新家回り",
    "stop": "総合福祉センター",
    "passTime": "16:14",
    "vehicleType": "南海ウイングバス(車椅子・ベビーカー・ノンステップ)",
    "updateTime": "2026/07/23 16:15"
  },
  {
    "vehicleNum": "091596",
    "vehicleCd": "200",
    "vehicleCorpCd": "1",
    "running": true,
    "lat": 34.436083,
    "lon": 135.2425,
    "route": "空港駅→給油地区",
    "stop": "空港駅",
    "passTime": "16:15",
    "vehicleType": "南海バス(車椅子・ノンステップ)",
    "updateTime": "2026/07/23 16:15"
  },
  {
    "vehicleNum": "091600",
    "vehicleCd": "201",
    "vehicleCorpCd": "1",
    "running": true,
    "lat": 34.435194,
    "lon": 135.243694,
    "route": "ポートターミナル→第２ターミナル",
    "stop": "旅客ターミナル",
    "passTime": "16:14",
    "vehicleType": "南海バス(車椅子・ノンステップ)",
    "updateTime": "2026/07/23 16:15"
  },
  {
    "vehicleNum": "091736",
    "vehicleCd": "65",
    "vehicleCorpCd": "2",
    "running": true,
    "lat": 34.423583,
    "lon": 135.409778,
    "route": "塔原→上古城→岸和田駅前",
    "stop": "土生滝",
    "passTime": "16:15",
    "vehicleType": "南海ウイングバス(車椅子・ワンステップ)",
    "updateTime": "2026/07/23 16:15"
  },
  {
    "vehicleNum": "091740",
    "vehicleCd": "105",
    "vehicleCorpCd": "2",
    "running": true,
    "lat": 34.456694,
    "lon": 135.388,
    "route": "牛滝温泉→内畑→岸和田駅前",
    "stop": "市民病院前",
    "passTime": "16:10",
    "vehicleType": "南海ウイングバス(車椅子・ベビーカー・ワンステップ)",
    "updateTime": "2026/07/23 16:15"
  },
  {
    "vehicleNum": "091739",
    "vehicleCd": "147",
    "vehicleCorpCd": "2",
    "running": true,
    "lat": 34.447083,
    "lon": 135.435778,
    "route": "和泉中央駅→包近→道の駅愛彩ランド",
    "stop": "山直東",
    "passTime": "16:12",
    "vehicleType": "南海ウイングバス(車椅子・ベビーカー・ワンステップ)",
    "updateTime": "2026/07/23 16:15"
  },
  {
    "vehicleNum": "091745",
    "vehicleCd": "103",
    "vehicleCorpCd": "2",
    "running": true,
    "lat": 34.447583,
    "lon": 135.384889,
    "route": "岸和田駅前→上古城→塔原",
    "stop": "東岸和田駅前",
    "passTime": "16:13",
    "vehicleType": "南海ウイングバス",
    "updateTime": "2026/07/23 16:15"
  },
  {
    "vehicleNum": "091748",
    "vehicleCd": "74",
    "vehicleCorpCd": "2",
    "running": true,
    "lat": 34.472472,
    "lon": 135.392389,
    "route": "和泉中央駅→徳洲会病院→岸和田駅前",
    "stop": "徳洲会病院",
    "passTime": "16:15",
    "vehicleType": "南海ウイングバス(車椅子・ワンステップ)",
    "updateTime": "2026/07/23 16:15"
  },
  {
    "vehicleNum": "091785",
    "vehicleCd": "120",
    "vehicleCorpCd": "2",
    "running": true,
    "lat": 34.386,
    "lon": 135.364194,
    "route": "熊取町　つばさが丘循環コース",
    "stop": "和田",
    "passTime": "16:13",
    "vehicleType": "熊取町コミュニティバス(メジーナちゃん号)",
    "updateTime": "2026/07/23 16:15"
  },
  {
    "vehicleNum": "091784",
    "vehicleCd": "119",
    "vehicleCorpCd": "2",
    "running": true,
    "lat": 34.393389,
    "lon": 135.342389,
    "route": "熊取町　青葉台方面循環コース",
    "stop": "芦谷",
    "passTime": "16:15",
    "vehicleType": "熊取町コミュニティバス(ジャンプ君号)",
    "updateTime": "2026/07/23 16:15"
  },
  {
    "vehicleNum": "091791",
    "vehicleCd": "206",
    "vehicleCorpCd": "1",
    "running": true,
    "lat": 34.422694,
    "lon": 135.225194,
    "route": "空港駅→ＦｅｄＥｘ→給油地区",
    "stop": "ANA車輌整備工場前",
    "passTime": "16:14",
    "vehicleType": "南海バス(車椅子・ノンステップ)",
    "updateTime": "2026/07/23 16:15"
  },
  {
    "vehicleNum": "091792",
    "vehicleCd": "59",
    "vehicleCorpCd": "1",
    "running": true,
    "lat": 34.436194,
    "lon": 135.245194,
    "route": "第１ターミナル→ポートターミナル",
    "stop": "旅客ターミナル",
    "passTime": "16:15",
    "vehicleType": "南海バス(車椅子・ノンステップ)",
    "updateTime": "2026/07/23 16:15"
  },
  {
    "vehicleNum": "091893",
    "vehicleCd": "84",
    "vehicleCorpCd": "2",
    "running": true,
    "lat": 34.361194,
    "lon": 135.281694,
    "route": "泉南市コミュニティバス 砂川回り",
    "stop": "砂川駅前",
    "passTime": "16:14",
    "vehicleType": "岸和田市コミュニティバス(ローズバス)",
    "updateTime": "2026/07/23 16:15"
  },
  {
    "vehicleNum": "092045",
    "vehicleCd": "463",
    "vehicleCorpCd": "1",
    "running": true,
    "lat": 34.450583,
    "lon": 135.572694,
    "route": "ﾓｯｸﾙ 美加～木戸東町～美加",
    "stop": "ラブリーホール前",
    "passTime": "16:09",
    "vehicleType": "南海バス(車椅子・ベビーカー・ノンステップ)",
    "updateTime": "2026/07/23 16:15"
  },
  {
    "vehicleNum": "092140",
    "vehicleCd": "526",
    "vehicleCorpCd": "1",
    "running": true,
    "lat": 34.627389,
    "lon": 135.431583,
    "route": "堺東駅前→フェリー→ＡＴＣ→海遊館→堺東駅前",
    "stop": "南港フェリーターミナル",
    "passTime": "16:09",
    "vehicleType": "南海バス",
    "updateTime": "2026/07/23 16:15"
  },
  {
    "vehicleNum": "092141",
    "vehicleCd": "527",
    "vehicleCorpCd": "1",
    "running": true,
    "lat": 34.574,
    "lon": 135.484194,
    "route": "堺東駅前→ＡＴＣ",
    "stop": "堺東駅前",
    "passTime": "16:15",
    "vehicleType": "南海バス",
    "updateTime": "2026/07/23 16:15"
  },
  {
    "vehicleNum": "092153",
    "vehicleCd": "529",
    "vehicleCorpCd": "1",
    "running": true,
    "lat": 34.437583,
    "lon": 135.231194,
    "route": "エアロプラザ→第２ターミナル(国内線・国際線)→エアロプラザ",
    "stop": "エアロプラザ",
    "passTime": "16:10",
    "vehicleType": "南海バス",
    "updateTime": "2026/07/23 16:15"
  },
  {
    "vehicleNum": "092373",
    "vehicleCd": "553",
    "vehicleCorpCd": "1",
    "running": true,
    "lat": 34.494389,
    "lon": 135.411889,
    "route": "和泉中央駅→寺田→泉大津駅前",
    "stop": "我孫子",
    "passTime": "16:13",
    "vehicleType": "南海バス(車椅子・ベビーカー・ノンステップ)",
    "updateTime": "2026/07/23 16:15"
  },
  {
    "vehicleNum": "092398",
    "vehicleCd": "41",
    "vehicleCorpCd": "1",
    "running": true,
    "lat": 34.435778,
    "lon": 135.241972,
    "route": "エアロプラザ→第２ターミナル(国内線・国際線)→エアロプラザ",
    "stop": "エアロプラザ",
    "passTime": "16:15",
    "vehicleType": "南海バス(車椅子・ノンステップ)",
    "updateTime": "2026/07/23 16:15"
  },
  {
    "vehicleNum": "092467",
    "vehicleCd": "50",
    "vehicleCorpCd": "1",
    "running": true,
    "lat": 34.439889,
    "lon": 135.578083,
    "route": "金剛山ﾛｰﾌﾟｳｪｲ前→日東町東口→河内長野駅前",
    "stop": "東中学校前（河内長野市）",
    "passTime": "16:15",
    "vehicleType": "南海バス(車椅子・ベビーカー・ノンステップ)",
    "updateTime": "2026/07/23 16:15"
  },
  {
    "vehicleNum": "092468",
    "vehicleCd": "51",
    "vehicleCorpCd": "1",
    "running": true,
    "lat": 34.459278,
    "lon": 135.559889,
    "route": "千代田駅前→赤峯→荘園町",
    "stop": "千代田台",
    "passTime": "16:15",
    "vehicleType": "南海バス(車椅子・ベビーカー・ノンステップ)",
    "updateTime": "2026/07/23 16:15"
  },
  {
    "vehicleNum": "092469",
    "vehicleCd": "220",
    "vehicleCorpCd": "1",
    "running": true,
    "lat": 34.449194,
    "lon": 135.557194,
    "route": "旭ヶ丘→水落→河内長野駅前",
    "stop": "上原口",
    "passTime": "16:11",
    "vehicleType": "南海バス(車椅子・ベビーカー・ノンステップ)",
    "updateTime": "2026/07/23 16:15"
  },
  {
    "vehicleNum": "092483",
    "vehicleCd": "110",
    "vehicleCorpCd": "1",
    "running": true,
    "lat": 34.424278,
    "lon": 135.564694,
    "route": "三日→加塩→神納",
    "stop": "加塩",
    "passTime": "16:13",
    "vehicleType": "南海バス(車椅子・ベビーカー・ノンステップ)",
    "updateTime": "2026/07/23 16:15"
  },
  {
    "vehicleNum": "092533",
    "vehicleCd": "288",
    "vehicleCorpCd": "1",
    "running": true,
    "lat": 34.453389,
    "lon": 135.460194,
    "route": "和泉中央駅→のぞみ野南→美術館",
    "stop": "のぞみ野中央",
    "passTime": "16:15",
    "vehicleType": "南海バス(車椅子・ベビーカー・ノンステップ)",
    "updateTime": "2026/07/23 16:15"
  },
  {
    "vehicleNum": "092561",
    "vehicleCd": "74",
    "vehicleCorpCd": "1",
    "running": true,
    "lat": 34.493194,
    "lon": 135.5695,
    "route": "PL病院→金剛駅前（東側）→寺池台3丁目→PL病院",
    "stop": "寺池台一丁目",
    "passTime": "16:14",
    "vehicleType": "南海バス(車椅子・ベビーカー・ノンステップ)",
    "updateTime": "2026/07/23 16:15"
  },
  {
    "vehicleNum": "092578",
    "vehicleCd": "147",
    "vehicleCorpCd": "1",
    "running": true,
    "lat": 34.4165,
    "lon": 135.568889,
    "route": "三日市町駅前→南青葉台→三日市町駅前",
    "stop": "南青葉台口",
    "passTime": "16:15",
    "vehicleType": "南海バス(車椅子・ベビーカー・ノンステップ)",
    "updateTime": "2026/07/23 16:15"
  },
  {
    "vehicleNum": "092595",
    "vehicleCd": "326",
    "vehicleCorpCd": "1",
    "running": true,
    "lat": 34.433389,
    "lon": 135.565472,
    "route": "南ヶ丘→南花台４丁目→三日市町駅前",
    "stop": "南花台１丁目北",
    "passTime": "16:14",
    "vehicleType": "南海バス(車椅子・ベビーカー・ノンステップ)",
    "updateTime": "2026/07/23 16:15"
  },
  {
    "vehicleNum": "092620",
    "vehicleCd": "311",
    "vehicleCorpCd": "1",
    "running": true,
    "lat": 34.419778,
    "lon": 135.614778,
    "route": "河内長野駅前→日東町東口→金剛山ﾛｰﾌﾟｳｪｲ前",
    "stop": "西端",
    "passTime": "16:14",
    "vehicleType": "南海バス(車椅子・ベビーカー・ノンステップ)",
    "updateTime": "2026/07/23 16:15"
  },
  {
    "vehicleNum": "092757",
    "vehicleCd": "306",
    "vehicleCorpCd": "1",
    "running": true,
    "lat": 34.433778,
    "lon": 135.562083,
    "route": "三日市町駅前→南花台１丁目北→南ヶ丘",
    "stop": "南花台１丁目北",
    "passTime": "16:15",
    "vehicleType": "南海バス(車椅子・ベビーカー・ノンステップ)",
    "updateTime": "2026/07/23 16:15"
  },
  {
    "vehicleNum": "092758",
    "vehicleCd": "363",
    "vehicleCorpCd": "1",
    "running": true,
    "lat": 34.4335,
    "lon": 135.5825,
    "route": "三日市町駅前→清見台回り→三日市町駅前",
    "stop": "清見台３丁目",
    "passTime": "16:14",
    "vehicleType": "南海バス(車椅子・ベビーカー・ノンステップ)",
    "updateTime": "2026/07/23 16:15"
  },
  {
    "vehicleNum": "092830",
    "vehicleCd": "367",
    "vehicleCorpCd": "1",
    "running": true,
    "lat": 34.4945,
    "lon": 135.506472,
    "route": "泉ヶ丘駅→光明池駅→城山台２丁→光明池駅→泉ヶ丘駅",
    "stop": "光明池駅",
    "passTime": "16:09",
    "vehicleType": "南海バス(車椅子・ベビーカー・ノンステップ)",
    "updateTime": "2026/07/23 16:15"
  },
  {
    "vehicleNum": "092829",
    "vehicleCd": "488",
    "vehicleCorpCd": "1",
    "running": true,
    "lat": 34.463389,
    "lon": 135.486083,
    "route": "光明池駅→城山台５丁→光明池車庫",
    "stop": "城山台四丁",
    "passTime": "16:15",
    "vehicleType": "南海バス(車椅子・ベビーカー・ノンステップ)",
    "updateTime": "2026/07/23 16:15"
  },
  {
    "vehicleNum": "092831",
    "vehicleCd": "417",
    "vehicleCorpCd": "1",
    "running": true,
    "lat": 34.4665,
    "lon": 135.463889,
    "route": "和泉中央駅→和泉青葉台→はつが野→和泉中央駅（右回り）",
    "stop": "和泉中央駅",
    "passTime": "16:10",
    "vehicleType": "南海バス(車椅子・ベビーカー・ノンステップ)",
    "updateTime": "2026/07/23 16:15"
  },
  {
    "vehicleNum": "092856",
    "vehicleCd": "601",
    "vehicleCorpCd": "1",
    "running": true,
    "lat": 34.521389,
    "lon": 135.462889,
    "route": "堺東駅前→鳳駅前→国分峠東",
    "stop": "上",
    "passTime": "16:14",
    "vehicleType": "南海バス(車椅子・ベビーカー・ノンステップ)",
    "updateTime": "2026/07/23 16:15"
  },
  {
    "vehicleNum": "092859",
    "vehicleCd": "32",
    "vehicleCorpCd": "1",
    "running": true,
    "lat": 34.459278,
    "lon": 135.559889,
    "route": "千代田駅前→赤峯→緑ヶ丘北町",
    "stop": "千代田台",
    "passTime": "16:15",
    "vehicleType": "南海バス(車椅子・ベビーカー・ノンステップ)",
    "updateTime": "2026/07/23 16:15"
  },
  {
    "vehicleNum": "092858",
    "vehicleCd": "320",
    "vehicleCorpCd": "1",
    "running": true,
    "lat": 34.4715,
    "lon": 135.477,
    "route": "堺東駅前→鳳駅前→光明池駅",
    "stop": "変電所前",
    "passTime": "16:11",
    "vehicleType": "南海バス(車椅子・ベビーカー・ノンステップ)",
    "updateTime": "2026/07/23 16:15"
  },
  {
    "vehicleNum": "092860",
    "vehicleCd": "379",
    "vehicleCorpCd": "1",
    "running": true,
    "lat": 34.429889,
    "lon": 135.581583,
    "route": "美加の台駅前→美加の台西→美加の台駅前",
    "stop": "第一公園前",
    "passTime": "16:14",
    "vehicleType": "南海バス(車椅子・ベビーカー・ノンステップ)",
    "updateTime": "2026/07/23 16:15"
  },
  {
    "vehicleNum": "092862",
    "vehicleCd": "602",
    "vehicleCorpCd": "1",
    "running": true,
    "lat": 34.512889,
    "lon": 135.465278,
    "route": "光明池駅→山田→堺東駅前",
    "stop": "山田北",
    "passTime": "16:14",
    "vehicleType": "南海バス(車椅子・ベビーカー・ノンステップ)",
    "updateTime": "2026/07/23 16:15"
  },
  {
    "vehicleNum": "092873",
    "vehicleCd": "234",
    "vehicleCorpCd": "1",
    "running": true,
    "lat": 34.484389,
    "lon": 135.425,
    "route": "和泉中央駅→医療センター玄関口→和泉府中駅前",
    "stop": "府中町南",
    "passTime": "16:11",
    "vehicleType": "南海バス(車椅子・ベビーカー・ノンステップ)",
    "updateTime": "2026/07/23 16:15"
  },
  {
    "vehicleNum": "092900",
    "vehicleCd": "604",
    "vehicleCorpCd": "1",
    "running": true,
    "lat": 34.557694,
    "lon": 135.470694,
    "route": "光明池駅→山田→堺東駅前",
    "stop": "緑ヶ丘",
    "passTime": "16:15",
    "vehicleType": "南海バス(車椅子・ベビーカー・ノンステップ)",
    "updateTime": "2026/07/23 16:15"
  },
  {
    "vehicleNum": "092872",
    "vehicleCd": "500",
    "vehicleCorpCd": "1",
    "running": true,
    "lat": 34.441694,
    "lon": 135.446194,
    "route": "和泉中央駅→テクノステージセンター前→グリーンポリス前→和泉中央駅",
    "stop": "大阪技術研前",
    "passTime": "16:13",
    "vehicleType": "南海バス(車椅子・ベビーカー・ノンステップ)",
    "updateTime": "2026/07/23 16:15"
  },
  {
    "vehicleNum": "092913",
    "vehicleCd": "154",
    "vehicleCorpCd": "1",
    "running": true,
    "lat": 34.4605,
    "lon": 135.455083,
    "route": "和泉中央駅→テクノステージセンター前→グリーンポリス前→和泉中央駅",
    "stop": "唐国南",
    "passTime": "16:12",
    "vehicleType": "南海バス(車椅子・ベビーカー・ノンステップ)",
    "updateTime": "2026/07/23 16:15"
  },
  {
    "vehicleNum": "092914",
    "vehicleCd": "75",
    "vehicleCorpCd": "1",
    "running": true,
    "lat": 34.482972,
    "lon": 135.428278,
    "route": "和泉中央駅→阪本→泉大津駅前",
    "stop": "府中町南",
    "passTime": "16:15",
    "vehicleType": "南海バス(車椅子・ベビーカー・ノンステップ)",
    "updateTime": "2026/07/23 16:15"
  },
  {
    "vehicleNum": "092918",
    "vehicleCd": "114",
    "vehicleCorpCd": "1",
    "running": true,
    "lat": 34.458583,
    "lon": 135.447583,
    "route": "和泉中央駅→寺田→泉大津駅前",
    "stop": "唐国",
    "passTime": "16:14",
    "vehicleType": "南海バス(車椅子・ベビーカー・ノンステップ)",
    "updateTime": "2026/07/23 16:15"
  },
  {
    "vehicleNum": "092919",
    "vehicleCd": "230",
    "vehicleCorpCd": "1",
    "running": true,
    "lat": 34.447,
    "lon": 135.554694,
    "route": "河内長野駅前→水落→旭ヶ丘",
    "stop": "上原口",
    "passTime": "16:15",
    "vehicleType": "南海バス(車椅子・ベビーカー・ノンステップ)",
    "updateTime": "2026/07/23 16:15"
  },
  {
    "vehicleNum": "092950",
    "vehicleCd": "257",
    "vehicleCorpCd": "1",
    "running": true,
    "lat": 34.4645,
    "lon": 135.453778,
    "route": "和泉府中駅前→医療センター玄関口→和泉中央駅",
    "stop": "いぶき野三丁目",
    "passTime": "16:15",
    "vehicleType": "南海バス(車椅子・ベビーカー・ノンステップ)",
    "updateTime": "2026/07/23 16:15"
  },
  {
    "vehicleNum": "092937",
    "vehicleCd": "73",
    "vehicleCorpCd": "1",
    "running": true,
    "lat": 34.533083,
    "lon": 135.462278,
    "route": "国分峠東→栂・美木多駅→堺東駅前",
    "stop": "鳳駅前",
    "passTime": "16:11",
    "vehicleType": "南海バス(車椅子・ベビーカー・ノンステップ)",
    "updateTime": "2026/07/23 16:15"
  },
  {
    "vehicleNum": "092936",
    "vehicleCd": "322",
    "vehicleCorpCd": "1",
    "running": true,
    "lat": 34.432278,
    "lon": 135.2345,
    "route": "給油地区→ＦｅｄＥｘ→空港駅",
    "stop": "機内食前",
    "passTime": "16:13",
    "vehicleType": "南海バス(車椅子・ベビーカー・ノンステップ)",
    "updateTime": "2026/07/23 16:15"
  },
  {
    "vehicleNum": "092951",
    "vehicleCd": "340",
    "vehicleCorpCd": "1",
    "running": true,
    "lat": 34.532778,
    "lon": 135.460778,
    "route": "堺東駅前→鳳駅前→光明池駅",
    "stop": "西区役所前",
    "passTime": "16:12",
    "vehicleType": "南海バス(車椅子・ベビーカー・ノンステップ)",
    "updateTime": "2026/07/23 16:15"
  },
  {
    "vehicleNum": "092952",
    "vehicleCd": "113",
    "vehicleCorpCd": "1",
    "running": true,
    "lat": 34.452278,
    "lon": 135.473278,
    "route": "和泉中央駅→はつが野→和泉青葉台→和泉中央駅（左回り）",
    "stop": "納花町民会館前",
    "passTime": "16:14",
    "vehicleType": "南海バス(車椅子・ベビーカー・ノンステップ)",
    "updateTime": "2026/07/23 16:15"
  },
  {
    "vehicleNum": "092975",
    "vehicleCd": "115",
    "vehicleCorpCd": "1",
    "running": true,
    "lat": 34.553778,
    "lon": 135.466778,
    "route": "堺東駅前→鳳駅前→光明池駅",
    "stop": "霞ヶ丘",
    "passTime": "16:14",
    "vehicleType": "南海バス(車椅子・ベビーカー・ノンステップ)",
    "updateTime": "2026/07/23 16:15"
  },
  {
    "vehicleNum": "092976",
    "vehicleCd": "138",
    "vehicleCorpCd": "1",
    "running": true,
    "lat": 34.488778,
    "lon": 135.419278,
    "route": "泉大津駅前→和泉府中駅前→和泉中央駅→光明池駅",
    "stop": "泉大津急性期メディカルセンター前",
    "passTime": "16:14",
    "vehicleType": "南海バス(車椅子・ベビーカー・ノンステップ)",
    "updateTime": "2026/07/23 16:15"
  },
  {
    "vehicleNum": "093003",
    "vehicleCd": "111",
    "vehicleCorpCd": "1",
    "running": true,
    "lat": 34.474694,
    "lon": 135.476,
    "route": "泉ヶ丘駅→光明池駅→赤坂台４丁→光明池駅",
    "stop": "泉ヶ丘駅（北側）",
    "passTime": "16:04",
    "vehicleType": "南海バス(車椅子・ベビーカー・ノンステップ)",
    "updateTime": "2026/07/23 16:15"
  },
  {
    "vehicleNum": "093054",
    "vehicleCd": "396",
    "vehicleCorpCd": "1",
    "running": true,
    "lat": 34.475389,
    "lon": 135.428278,
    "route": "泉大津駅前→和泉府中駅前→和泉中央駅",
    "stop": "和気小学校前",
    "passTime": "16:15",
    "vehicleType": "南海バス(車椅子・ベビーカー・ノンステップ)",
    "updateTime": "2026/07/23 16:15"
  },
  {
    "vehicleNum": "093035",
    "vehicleCd": "609",
    "vehicleCorpCd": "1",
    "running": true,
    "lat": 34.432889,
    "lon": 135.231583,
    "route": "エアロプラザ→第２ターミナル(国内線・国際線)→エアロプラザ",
    "stop": "第2ターミナル国際線",
    "passTime": "16:14",
    "vehicleType": "南海バス",
    "updateTime": "2026/07/23 16:15"
  },
  {
    "vehicleNum": "093113",
    "vehicleCd": "133",
    "vehicleCorpCd": "1",
    "running": true,
    "lat": 34.468194,
    "lon": 135.480694,
    "route": "みずき台２丁目西→光明池駅",
    "stop": "城山台口",
    "passTime": "16:15",
    "vehicleType": "南海バス(車椅子・ベビーカー・ノンステップ)",
    "updateTime": "2026/07/23 16:15"
  },
  {
    "vehicleNum": "093073",
    "vehicleCd": "370",
    "vehicleCorpCd": "1",
    "running": true,
    "lat": 34.460194,
    "lon": 135.4745,
    "route": "光明池駅→光明池車庫→和泉中央駅→泉大津駅前",
    "stop": "光明池車庫",
    "passTime": "16:14",
    "vehicleType": "南海バス(車椅子・ベビーカー・ノンステップ)",
    "updateTime": "2026/07/23 16:15"
  }
]