[
  {
    "vehicleNum": "070189",
    "vehicleCd": "67",
    "vehicleCorpCd": "1",
    "running": true,
    "lat": 34.575,
    "lon": 135.518278,
    "route": "河内松原駅前→阪和堺市駅前→堺東駅前",
    "stop": "南花田町",
    "passTime": "11:33",
    "vehicleType": "南海バス(車椅子・ベビーカー・ワンステップ)",
    "updateTime": "2026/07/24 11:34"
  },
  {
    "vehicleNum": "070109",
    "vehicleCd": "407",
    "vehicleCorpCd": "1",
    "running": true,
    "lat": 34.498389,
    "lon": 135.546583,
    "route": "泉ヶ丘駅→狭山ニュータウンセンター→金剛駅前",
    "stop": "狭山西小学校前",
    "passTime": "11:31",
    "vehicleType": "泉北コミュニティバス(車椅子・ベビーカー・ノンステップ)",
    "updateTime": "2026/07/24 11:34"
  },
  {
    "vehicleNum": "070103",
    "vehicleCd": "425",
    "vehicleCorpCd": "1",
    "running": true,
    "lat": 34.498694,
    "lon": 135.556,
    "route": "金剛駅前→狭山ニュータウンセンター→泉ヶ丘駅",
    "stop": "半田",
    "passTime": "11:32",
    "vehicleType": "泉北コミュニティバス(車椅子・ベビーカー・ノンステップ)",
    "updateTime": "2026/07/24 11:34"
  },
  {
    "vehicleNum": "070105",
    "vehicleCd": "403",
    "vehicleCorpCd": "1",
    "running": true,
    "lat": 34.476,
    "lon": 135.542889,
    "route": "金剛駅前→狭山ニュータウンセンター→泉ヶ丘駅",
    "stop": "大野台四丁目",
    "passTime": "11:34",
    "vehicleType": "泉北コミュニティバス(車椅子・ベビーカー・ノンステップ)",
    "updateTime": "2026/07/24 11:34"
  },
  {
    "vehicleNum": "070107",
    "vehicleCd": "405",
    "vehicleCorpCd": "1",
    "running": true,
    "lat": 34.496194,
    "lon": 135.5135,
    "route": "金剛駅前→狭山ニュータウンセンター→泉ヶ丘駅",
    "stop": "茶山台２丁",
    "passTime": "11:32",
    "vehicleType": "泉北コミュニティバス(車椅子・ベビーカー・ノンステップ)",
    "updateTime": "2026/07/24 11:34"
  },
  {
    "vehicleNum": "071604",
    "vehicleCd": "217",
    "vehicleCorpCd": "1",
    "running": true,
    "lat": 34.579,
    "lon": 135.473889,
    "route": "堺駅前→大小路→堺東駅前",
    "stop": "市小学校前",
    "passTime": "11:32",
    "vehicleType": "堺シャトル(車椅子・ベビーカー・ノンステップ)",
    "updateTime": "2026/07/24 11:34"
  },
  {
    "vehicleNum": "080171",
    "vehicleCd": "40",
    "vehicleCorpCd": "2",
    "running": true,
    "lat": 34.456389,
    "lon": 135.3775,
    "route": "塔原→上古城→岸和田駅前",
    "stop": "岸城中学校前",
    "passTime": "11:34",
    "vehicleType": "南海ウイングバス(車椅子・ベビーカー・ワンステップ)",
    "updateTime": "2026/07/24 11:34"
  },
  {
    "vehicleNum": "080146",
    "vehicleCd": "6",
    "vehicleCorpCd": "2",
    "running": true,
    "lat": 34.405889,
    "lon": 135.3595,
    "route": "熊取ニュータウン→熊取駅前→上瓦屋町→泉佐野駅前（フリー乗降）",
    "stop": "自由が丘",
    "passTime": "11:34",
    "vehicleType": "南海ウイングバス(車椅子・ワンステップ)",
    "updateTime": "2026/07/24 11:34"
  },
  {
    "vehicleNum": "080482",
    "vehicleCd": "156",
    "vehicleCorpCd": "1",
    "running": true,
    "lat": 34.537889,
    "lon": 135.452778,
    "route": "石津川駅前→浜寺公園駅前通→鳳駅前→堺市立総合医療センター前",
    "stop": "浜寺元町",
    "passTime": "11:31",
    "vehicleType": "南海バス(車椅子・ベビーカー・ノンステップ)",
    "updateTime": "2026/07/24 11:34"
  },
  {
    "vehicleNum": "080627",
    "vehicleCd": "446",
    "vehicleCorpCd": "1",
    "running": true,
    "lat": 34.552278,
    "lon": 135.565778,
    "route": "北野田駅前→多治井北（循環）→北野田駅前",
    "stop": "西多治井",
    "passTime": "11:31",
    "vehicleType": "南海バス(車椅子・ベビーカー・ノンステップ)",
    "updateTime": "2026/07/24 11:34"
  },
  {
    "vehicleNum": "080639",
    "vehicleCd": "132",
    "vehicleCorpCd": "2",
    "running": true,
    "lat": 34.406194,
    "lon": 135.344583,
    "route": "つばさが丘北口→大阪体育大学前→熊取駅前→ダンバラ公園前→泉佐野駅前",
    "stop": "熊取駅筋",
    "passTime": "11:34",
    "vehicleType": "南海ウイングバス(車椅子・ベビーカー・ノンステップ)",
    "updateTime": "2026/07/24 11:34"
  },
  {
    "vehicleNum": "080629",
    "vehicleCd": "447",
    "vehicleCorpCd": "1",
    "running": true,
    "lat": 34.564194,
    "lon": 135.5175,
    "route": "美原区役所→野遠→地下鉄新金岡駅前",
    "stop": "金岡口",
    "passTime": "11:31",
    "vehicleType": "南海バス(車椅子・ベビーカー・ノンステップ)",
    "updateTime": "2026/07/24 11:34"
  },
  {
    "vehicleNum": "080651",
    "vehicleCd": "455",
    "vehicleCorpCd": "1",
    "running": true,
    "lat": 34.538583,
    "lon": 135.560778,
    "route": "美原区役所→野遠→地下鉄新金岡駅前",
    "stop": "美原区役所前",
    "passTime": "11:34",
    "vehicleType": "南海バス",
    "updateTime": "2026/07/24 11:34"
  },
  {
    "vehicleNum": "080652",
    "vehicleCd": "456",
    "vehicleCorpCd": "1",
    "running": true,
    "lat": 34.545278,
    "lon": 135.543278,
    "route": "地下鉄新金岡駅前→野遠→北野田駅前",
    "stop": "菩提",
    "passTime": "11:33",
    "vehicleType": "南海バス",
    "updateTime": "2026/07/24 11:34"
  },
  {
    "vehicleNum": "080671",
    "vehicleCd": "465",
    "vehicleCorpCd": "1",
    "running": true,
    "lat": 34.565889,
    "lon": 135.5115,
    "route": "堺東駅前→労災病院前→白鷺駅前（循環）",
    "stop": "北堺警察署前",
    "passTime": "11:34",
    "vehicleType": "南海バス(車椅子・ベビーカー・ノンステップ)",
    "updateTime": "2026/07/24 11:34"
  },
  {
    "vehicleNum": "080676",
    "vehicleCd": "158",
    "vehicleCorpCd": "1",
    "running": true,
    "lat": 34.544389,
    "lon": 135.532083,
    "route": "美原区役所→初芝駅前→美原区役所",
    "stop": "初芝中",
    "passTime": "11:33",
    "vehicleType": "南海バス",
    "updateTime": "2026/07/24 11:34"
  },
  {
    "vehicleNum": "080705",
    "vehicleCd": "542",
    "vehicleCorpCd": "1",
    "running": true,
    "lat": 34.586583,
    "lon": 135.485278,
    "route": "堺駅西口→錦綾町→堺東駅前",
    "stop": "錦綾橋",
    "passTime": "11:33",
    "vehicleType": "南海バス(車椅子・ベビーカー・ノンステップ)",
    "updateTime": "2026/07/24 11:34"
  },
  {
    "vehicleNum": "080706",
    "vehicleCd": "543",
    "vehicleCorpCd": "1",
    "running": true,
    "lat": 34.583194,
    "lon": 135.526694,
    "route": "堺東駅前→錦綾町→河内天美駅前",
    "stop": "西我堂",
    "passTime": "11:33",
    "vehicleType": "南海バス(車椅子・ベビーカー・ノンステップ)",
    "updateTime": "2026/07/24 11:34"
  },
  {
    "vehicleNum": "080710",
    "vehicleCd": "18",
    "vehicleCorpCd": "2",
    "running": true,
    "lat": 34.366972,
    "lon": 135.357389,
    "route": "泉佐野駅前→野々地蔵北→日根野駅前→犬鳴山",
    "stop": "大土出張所前",
    "passTime": "11:34",
    "vehicleType": "南海ウイングバス(車椅子・ベビーカー・ノンステップ)",
    "updateTime": "2026/07/24 11:34"
  },
  {
    "vehicleNum": "080750",
    "vehicleCd": "103",
    "vehicleCorpCd": "1",
    "running": true,
    "lat": 34.594278,
    "lon": 135.465389,
    "route": "阪和堺市駅前→堺東駅前→堺駅西口→匠町→海浜匠町",
    "stop": "浅香山通",
    "passTime": "11:33",
    "vehicleType": "南海バス(車椅子・ベビーカー・ノンステップ)",
    "updateTime": "2026/07/24 11:34"
  },
  {
    "vehicleNum": "080751",
    "vehicleCd": "551",
    "vehicleCorpCd": "1",
    "running": true,
    "lat": 34.538083,
    "lon": 135.560694,
    "route": "中もず駅前→初芝駅前→船戸下→美原区役所前",
    "stop": "船戸下",
    "passTime": "11:31",
    "vehicleType": "南海バス(車椅子・ベビーカー・ノンステップ)",
    "updateTime": "2026/07/24 11:34"
  },
  {
    "vehicleNum": "080755",
    "vehicleCd": "170",
    "vehicleCorpCd": "1",
    "running": true,
    "lat": 34.499778,
    "lon": 135.5135,
    "route": "金剛駅前→泉ヶ丘駅→近大キャンパス前→金剛駅前",
    "stop": "泉ヶ丘駅（北側）",
    "passTime": "11:32",
    "vehicleType": "南海バス(車椅子・ベビーカー・ノンステップ)",
    "updateTime": "2026/07/24 11:34"
  },
  {
    "vehicleNum": "080754",
    "vehicleCd": "428",
    "vehicleCorpCd": "1",
    "running": true,
    "lat": 34.465194,
    "lon": 135.517278,
    "route": "泉ヶ丘駅→鉢ヶ峯→泉ヶ丘駅",
    "stop": "鉢ヶ峯",
    "passTime": "11:33",
    "vehicleType": "南海バス(車椅子・ベビーカー・ノンステップ)",
    "updateTime": "2026/07/24 11:34"
  },
  {
    "vehicleNum": "080758",
    "vehicleCd": "511",
    "vehicleCorpCd": "1",
    "running": true,
    "lat": 34.495583,
    "lon": 135.511583,
    "route": "泉ヶ丘駅→若松台左回り→泉ヶ丘駅",
    "stop": "茶山台",
    "passTime": "11:32",
    "vehicleType": "南海バス(車椅子・ベビーカー・ノンステップ)",
    "updateTime": "2026/07/24 11:34"
  },
  {
    "vehicleNum": "080760",
    "vehicleCd": "559",
    "vehicleCorpCd": "1",
    "running": true,
    "lat": 34.583889,
    "lon": 135.501389,
    "route": "地下鉄北花田駅前→蔵前西→ＪＲ堺市駅前→地下鉄北花田駅前",
    "stop": "浅香",
    "passTime": "11:34",
    "vehicleType": "南海バス(車椅子・ベビーカー・ノンステップ)",
    "updateTime": "2026/07/24 11:34"
  },
  {
    "vehicleNum": "080763",
    "vehicleCd": "562",
    "vehicleCorpCd": "1",
    "running": true,
    "lat": 34.519194,
    "lon": 135.487278,
    "route": "中もず駅前→北条→深井駅→中老人福祉センター",
    "stop": "小阪西口",
    "passTime": "11:34",
    "vehicleType": "南海バス(車椅子・ベビーカー・ノンステップ)",
    "updateTime": "2026/07/24 11:34"
  },
  {
    "vehicleNum": "080764",
    "vehicleCd": "563",
    "vehicleCorpCd": "1",
    "running": true,
    "lat": 34.536278,
    "lon": 135.561194,
    "route": "初芝駅前→平尾→初芝駅前",
    "stop": "船戸下",
    "passTime": "11:34",
    "vehicleType": "南海バス(車椅子・ベビーカー・ノンステップ)",
    "updateTime": "2026/07/24 11:34"
  },
  {
    "vehicleNum": "080788",
    "vehicleCd": "299",
    "vehicleCorpCd": "1",
    "running": true,
    "lat": 34.574694,
    "lon": 135.510389,
    "route": "堺東駅前→河内松原駅前",
    "stop": "公園北口",
    "passTime": "11:34",
    "vehicleType": "南海バス(車椅子・ベビーカー・ノンステップ)",
    "updateTime": "2026/07/24 11:34"
  },
  {
    "vehicleNum": "080794",
    "vehicleCd": "344",
    "vehicleCorpCd": "1",
    "running": true,
    "lat": 34.565778,
    "lon": 135.5175,
    "route": "堺駅南口→近畿中央呼吸器センター前→労災病院前→阪和堺市駅前",
    "stop": "北区役所前",
    "passTime": "11:33",
    "vehicleType": "南海バス(車椅子・ベビーカー・ノンステップ)",
    "updateTime": "2026/07/24 11:34"
  },
  {
    "vehicleNum": "080791",
    "vehicleCd": "61",
    "vehicleCorpCd": "1",
    "running": true,
    "lat": 34.569,
    "lon": 135.480194,
    "route": "堺駅前→堺駅南口",
    "stop": "賑町",
    "passTime": "11:33",
    "vehicleType": "南海バス(車椅子・ベビーカー・ノンステップ)",
    "updateTime": "2026/07/24 11:34"
  },
  {
    "vehicleNum": "080789",
    "vehicleCd": "300",
    "vehicleCorpCd": "1",
    "running": true,
    "lat": 34.570278,
    "lon": 135.502278,
    "route": "地下鉄新金岡駅前→労災病院前→近畿中央呼吸器センター前→堺駅南口",
    "stop": "黒土町",
    "passTime": "11:32",
    "vehicleType": "南海バス(車椅子・ベビーカー・ノンステップ)",
    "updateTime": "2026/07/24 11:34"
  },
  {
    "vehicleNum": "080787",
    "vehicleCd": "301",
    "vehicleCorpCd": "1",
    "running": true,
    "lat": 34.573,
    "lon": 135.476694,
    "route": "堺駅南口→近畿中央呼吸器センター前→労災病院前→地下鉄新金岡駅前",
    "stop": "安井町",
    "passTime": "11:33",
    "vehicleType": "南海バス(車椅子・ベビーカー・ノンステップ)",
    "updateTime": "2026/07/24 11:34"
  },
  {
    "vehicleNum": "080795",
    "vehicleCd": "43",
    "vehicleCorpCd": "1",
    "running": true,
    "lat": 34.575889,
    "lon": 135.480889,
    "route": "河内松原駅前→阪和堺市駅前→堺駅前",
    "stop": "瓦町公園前",
    "passTime": "11:34",
    "vehicleType": "南海バス(車椅子・ベビーカー・ノンステップ)",
    "updateTime": "2026/07/24 11:34"
  },
  {
    "vehicleNum": "080800",
    "vehicleCd": "304",
    "vehicleCorpCd": "1",
    "running": true,
    "lat": 34.581194,
    "lon": 135.47,
    "route": "堺駅南口→堺駅前",
    "stop": "堺駅南口",
    "passTime": "11:32",
    "vehicleType": "南海バス(車椅子・ベビーカー・ノンステップ)",
    "updateTime": "2026/07/24 11:34"
  },
  {
    "vehicleNum": "080806",
    "vehicleCd": "307",
    "vehicleCorpCd": "1",
    "running": true,
    "lat": 34.571,
    "lon": 135.480583,
    "route": "堺駅前→堺東駅前→河内松原駅前",
    "stop": "一条通",
    "passTime": "11:34",
    "vehicleType": "南海バス(車椅子・ベビーカー・ノンステップ)",
    "updateTime": "2026/07/24 11:34"
  },
  {
    "vehicleNum": "080799",
    "vehicleCd": "339",
    "vehicleCorpCd": "1",
    "running": true,
    "lat": 34.582889,
    "lon": 135.508972,
    "route": "河内天美駅前→天美我堂→堺東駅前",
    "stop": "浅香山住宅前",
    "passTime": "11:34",
    "vehicleType": "南海バス(車椅子・ベビーカー・ノンステップ)",
    "updateTime": "2026/07/24 11:34"
  },
  {
    "vehicleNum": "080808",
    "vehicleCd": "216",
    "vehicleCorpCd": "1",
    "running": true,
    "lat": 34.575,
    "lon": 135.547778,
    "route": "堺駅前→堺東駅前→河内松原駅前",
    "stop": "高見の里駅前",
    "passTime": "11:33",
    "vehicleType": "南海バス(車椅子・ベビーカー・ノンステップ)",
    "updateTime": "2026/07/24 11:34"
  },
  {
    "vehicleNum": "080813",
    "vehicleCd": "269",
    "vehicleCorpCd": "1",
    "running": true,
    "lat": 34.576889,
    "lon": 135.495694,
    "route": "阪和堺市駅前→労災病院前→近畿中央呼吸器センター前→堺駅南口",
    "stop": "阪和堺市駅前",
    "passTime": "11:32",
    "vehicleType": "南海バス(車椅子・ベビーカー・ノンステップ)",
    "updateTime": "2026/07/24 11:34"
  },
  {
    "vehicleNum": "080814",
    "vehicleCd": "193",
    "vehicleCorpCd": "1",
    "running": true,
    "lat": 34.5135,
    "lon": 135.485278,
    "route": "泉ヶ丘駅→泉北２号線→堺市立総合医療センター前→津久野駅前",
    "stop": "平井大橋",
    "passTime": "11:33",
    "vehicleType": "南海バス(車椅子・ベビーカー・ノンステップ)",
    "updateTime": "2026/07/24 11:34"
  },
  {
    "vehicleNum": "080815",
    "vehicleCd": "575",
    "vehicleCorpCd": "1",
    "running": true,
    "lat": 34.539694,
    "lon": 135.472194,
    "route": "泉ヶ丘駅→八田荘団地→堺市立総合医療センター前→津久野駅前",
    "stop": "堺市立総合医療センター前",
    "passTime": "11:34",
    "vehicleType": "南海バス(車椅子・ベビーカー・ノンステップ)",
    "updateTime": "2026/07/24 11:34"
  },
  {
    "vehicleNum": "080822",
    "vehicleCd": "576",
    "vehicleCorpCd": "1",
    "running": true,
    "lat": 34.547583,
    "lon": 135.484389,
    "route": "堺東駅前→上野芝駅前→東山車庫前",
    "stop": "向ヶ丘",
    "passTime": "11:34",
    "vehicleType": "南海バス(車椅子・ベビーカー・ノンステップ)",
    "updateTime": "2026/07/24 11:34"
  },
  {
    "vehicleNum": "080836",
    "vehicleCd": "268",
    "vehicleCorpCd": "1",
    "running": true,
    "lat": 34.566,
    "lon": 135.511278,
    "route": "堺東駅前→労災病院前→白鷺駅前（循環）",
    "stop": "長曽根住宅前",
    "passTime": "11:33",
    "vehicleType": "南海バス(車椅子・ベビーカー・ノンステップ)",
    "updateTime": "2026/07/24 11:34"
  },
  {
    "vehicleNum": "080826",
    "vehicleCd": "152",
    "vehicleCorpCd": "1",
    "running": true,
    "lat": 34.556083,
    "lon": 135.503972,
    "route": "北野田駅前→西口園→堺駅南口",
    "stop": "中もず駅前（南側）",
    "passTime": "11:34",
    "vehicleType": "南海バス(車椅子・ベビーカー・ノンステップ)",
    "updateTime": "2026/07/24 11:34"
  },
  {
    "vehicleNum": "080844",
    "vehicleCd": "581",
    "vehicleCorpCd": "1",
    "running": true,
    "lat": 34.501694,
    "lon": 135.574278,
    "route": "金剛駅前→向陽・藤沢回り→金剛駅前",
    "stop": "金剛高校前",
    "passTime": "11:36",
    "vehicleType": "南海バス(車椅子・ベビーカー・ノンステップ)",
    "updateTime": "2026/07/24 11:34"
  },
  {
    "vehicleNum": "080845",
    "vehicleCd": "319",
    "vehicleCorpCd": "1",
    "running": true,
    "lat": 34.575583,
    "lon": 135.484083,
    "route": "泉ヶ丘駅→宮山台中学校前→堺東駅前",
    "stop": "一条通",
    "passTime": "11:30",
    "vehicleType": "南海バス(車椅子・ベビーカー・ノンステップ)",
    "updateTime": "2026/07/24 11:34"
  },
  {
    "vehicleNum": "080837",
    "vehicleCd": "351",
    "vehicleCorpCd": "1",
    "running": true,
    "lat": 34.508778,
    "lon": 135.494389,
    "route": "堺東駅前→上野芝→泉ヶ丘駅",
    "stop": "宮山台３丁",
    "passTime": "11:34",
    "vehicleType": "南海バス(車椅子・ベビーカー・ノンステップ)",
    "updateTime": "2026/07/24 11:34"
  },
  {
    "vehicleNum": "080847",
    "vehicleCd": "583",
    "vehicleCorpCd": "1",
    "running": true,
    "lat": 34.537694,
    "lon": 135.470889,
    "route": "津久野駅前→堺市立総合医療センター前→泉北２号線→泉ヶ丘駅",
    "stop": "堺市立総合医療センター前",
    "passTime": "11:33",
    "vehicleType": "南海バス(車椅子・ベビーカー・ノンステップ)",
    "updateTime": "2026/07/24 11:34"
  },
  {
    "vehicleNum": "080846",
    "vehicleCd": "224",
    "vehicleCorpCd": "1",
    "running": true,
    "lat": 34.500083,
    "lon": 135.582583,
    "route": "金剛駅前→高辺台小学校前→金剛駅前",
    "stop": "小金台２丁目東",
    "passTime": "11:33",
    "vehicleType": "南海バス(車椅子・ベビーカー・ノンステップ)",
    "updateTime": "2026/07/24 11:34"
  },
  {
    "vehicleNum": "080850",
    "vehicleCd": "24",
    "vehicleCorpCd": "1",
    "running": true,
    "lat": 34.502389,
    "lon": 135.5145,
    "route": "泉ヶ丘駅→三原台左回り→泉ヶ丘駅",
    "stop": "東大谷高校前",
    "passTime": "11:34",
    "vehicleType": "南海バス(車椅子・ベビーカー・ノンステップ)",
    "updateTime": "2026/07/24 11:34"
  },
  {
    "vehicleNum": "080851",
    "vehicleCd": "439",
    "vehicleCorpCd": "1",
    "running": true,
    "lat": 34.484,
    "lon": 135.538389,
    "route": "泉ヶ丘駅→狭山ニュータウンセンター→金剛駅前",
    "stop": "大野台六丁目",
    "passTime": "11:33",
    "vehicleType": "南海バス(車椅子・ベビーカー・ノンステップ)",
    "updateTime": "2026/07/24 11:34"
  },
  {
    "vehicleNum": "080854",
    "vehicleCd": "17",
    "vehicleCorpCd": "1",
    "running": true,
    "lat": 34.586778,
    "lon": 135.469889,
    "route": "海浜匠町→匠町→堺駅西口",
    "stop": "三宝公園前",
    "passTime": "11:33",
    "vehicleType": "南海バス(車椅子・ベビーカー・ノンステップ)",
    "updateTime": "2026/07/24 11:34"
  },
  {
    "vehicleNum": "080855",
    "vehicleCd": "16",
    "vehicleCorpCd": "1",
    "running": true,
    "lat": 34.484694,
    "lon": 135.4915,
    "route": "泉ヶ丘駅→御池台回り→泉ヶ丘駅",
    "stop": "原山公園前",
    "passTime": "11:31",
    "vehicleType": "南海バス(車椅子・ベビーカー・ノンステップ)",
    "updateTime": "2026/07/24 11:34"
  },
  {
    "vehicleNum": "080857",
    "vehicleCd": "226",
    "vehicleCorpCd": "1",
    "running": true,
    "lat": 34.567389,
    "lon": 135.478889,
    "route": "堺駅南口→堺駅前",
    "stop": "賑町",
    "passTime": "11:34",
    "vehicleType": "南海バス(車椅子・ベビーカー・ノンステップ)",
    "updateTime": "2026/07/24 11:34"
  },
  {
    "vehicleNum": "080867",
    "vehicleCd": "364",
    "vehicleCorpCd": "1",
    "running": true,
    "lat": 34.496194,
    "lon": 135.513694,
    "route": "泉ヶ丘駅→晴美台右回り→泉ヶ丘駅",
    "stop": "茶山台２丁",
    "passTime": "11:32",
    "vehicleType": "南海バス(車椅子・ベビーカー・ノンステップ)",
    "updateTime": "2026/07/24 11:34"
  },
  {
    "vehicleNum": "080865",
    "vehicleCd": "504",
    "vehicleCorpCd": "1",
    "running": true,
    "lat": 34.554583,
    "lon": 135.510889,
    "route": "美原区役所前→船戸下→初芝駅前→中もず駅前",
    "stop": "蟻ヶ池",
    "passTime": "11:34",
    "vehicleType": "南海バス(車椅子・ベビーカー・ノンステップ)",
    "updateTime": "2026/07/24 11:34"
  },
  {
    "vehicleNum": "080870",
    "vehicleCd": "153",
    "vehicleCorpCd": "1",
    "running": true,
    "lat": 34.5785,
    "lon": 135.474583,
    "route": "堺東駅前→大小路→堺駅前",
    "stop": "大小路",
    "passTime": "11:33",
    "vehicleType": "南海バス(車椅子・ベビーカー・ノンステップ)",
    "updateTime": "2026/07/24 11:34"
  },
  {
    "vehicleNum": "080873",
    "vehicleCd": "144",
    "vehicleCorpCd": "1",
    "running": true,
    "lat": 34.498583,
    "lon": 135.553694,
    "route": "泉ヶ丘駅→帝塚山学院泉ヶ丘校前→金剛駅前",
    "stop": "亀の甲",
    "passTime": "11:33",
    "vehicleType": "南海バス(車椅子・ベビーカー・ノンステップ)",
    "updateTime": "2026/07/24 11:34"
  },
  {
    "vehicleNum": "080876",
    "vehicleCd": "390",
    "vehicleCorpCd": "1",
    "running": true,
    "lat": 34.527389,
    "lon": 135.487083,
    "route": "津久野駅前→鈴の宮団地センター→深井駅",
    "stop": "八田北町",
    "passTime": "11:33",
    "vehicleType": "南海バス(車椅子・ベビーカー・ノンステップ)",
    "updateTime": "2026/07/24 11:34"
  },
  {
    "vehicleNum": "080877",
    "vehicleCd": "588",
    "vehicleCorpCd": "1",
    "running": true,
    "lat": 34.532889,
    "lon": 135.523,
    "route": "堺駅南口→三国ヶ丘駅前→北野田駅前",
    "stop": "関茶屋",
    "passTime": "11:32",
    "vehicleType": "南海バス(車椅子・ベビーカー・ノンステップ)",
    "updateTime": "2026/07/24 11:34"
  },
  {
    "vehicleNum": "080878",
    "vehicleCd": "368",
    "vehicleCorpCd": "1",
    "running": true,
    "lat": 34.566,
    "lon": 135.491389,
    "route": "堺駅南口→福町→北野田駅前",
    "stop": "永山園",
    "passTime": "11:32",
    "vehicleType": "南海バス(車椅子・ベビーカー・ノンステップ)",
    "updateTime": "2026/07/24 11:34"
  },
  {
    "vehicleNum": "080882",
    "vehicleCd": "343",
    "vehicleCorpCd": "1",
    "running": true,
    "lat": 34.485194,
    "lon": 135.530389,
    "route": "泉ヶ丘駅→槙塚台右回り→泉ヶ丘駅",
    "stop": "槙塚台３丁",
    "passTime": "11:34",
    "vehicleType": "南海バス(車椅子・ベビーカー・ノンステップ)",
    "updateTime": "2026/07/24 11:34"
  },
  {
    "vehicleNum": "080894",
    "vehicleCd": "350",
    "vehicleCorpCd": "1",
    "running": true,
    "lat": 34.5585,
    "lon": 135.540583,
    "route": "地下鉄新金岡駅前→野遠→美原区役所",
    "stop": "野遠",
    "passTime": "11:35",
    "vehicleType": "南海バス(車椅子・ベビーカー・ノンステップ)",
    "updateTime": "2026/07/24 11:34"
  },
  {
    "vehicleNum": "080895",
    "vehicleCd": "167",
    "vehicleCorpCd": "1",
    "running": true,
    "lat": 34.540083,
    "lon": 135.545778,
    "route": "北野田駅前→菩提→地下鉄新金岡駅前",
    "stop": "北余部",
    "passTime": "11:32",
    "vehicleType": "南海バス(車椅子・ベビーカー・ノンステップ)",
    "updateTime": "2026/07/24 11:34"
  },
  {
    "vehicleNum": "080912",
    "vehicleCd": "372",
    "vehicleCorpCd": "1",
    "running": true,
    "lat": 34.595694,
    "lon": 135.479194,
    "route": "堺東→住之江公園→堺東",
    "stop": "南島町",
    "passTime": "11:33",
    "vehicleType": "南海バス(車椅子・ベビーカー・ノンステップ)",
    "updateTime": "2026/07/24 11:34"
  },
  {
    "vehicleNum": "080920",
    "vehicleCd": "327",
    "vehicleCorpCd": "1",
    "running": true,
    "lat": 34.471778,
    "lon": 135.496778,
    "route": "泉ヶ丘駅→庭代台右回り→泉ヶ丘駅",
    "stop": "庭代台センター",
    "passTime": "11:33",
    "vehicleType": "南海バス(車椅子・ベビーカー・ノンステップ)",
    "updateTime": "2026/07/24 11:34"
  },
  {
    "vehicleNum": "080927",
    "vehicleCd": "79",
    "vehicleCorpCd": "1",
    "running": true,
    "lat": 34.467278,
    "lon": 135.496583,
    "route": "泉ヶ丘駅→御池台回り→泉ヶ丘駅",
    "stop": "庭代台１丁南",
    "passTime": "11:33",
    "vehicleType": "南海バス(車椅子・ベビーカー・ノンステップ)",
    "updateTime": "2026/07/24 11:34"
  },
  {
    "vehicleNum": "080936",
    "vehicleCd": "22",
    "vehicleCorpCd": "1",
    "running": true,
    "lat": 34.478778,
    "lon": 135.501694,
    "route": "栂・美木多駅→原山台回り→栂・美木多駅",
    "stop": "原山台４丁",
    "passTime": "11:33",
    "vehicleType": "南海バス(車椅子・ベビーカー・ノンステップ)",
    "updateTime": "2026/07/24 11:35"
  },
  {
    "vehicleNum": "080937",
    "vehicleCd": "595",
    "vehicleCorpCd": "1",
    "running": true,
    "lat": 34.529889,
    "lon": 135.499583,
    "route": "北野田駅前→福町→深井駅",
    "stop": "畑山",
    "passTime": "11:32",
    "vehicleType": "南海バス(車椅子・ベビーカー・ノンステップ)",
    "updateTime": "2026/07/24 11:35"
  },
  {
    "vehicleNum": "080948",
    "vehicleCd": "276",
    "vehicleCorpCd": "1",
    "running": true,
    "lat": 34.575,
    "lon": 135.530083,
    "route": "河内松原駅前→蔵前町→イオンモール堺北花田",
    "stop": "南花田町東町会館前",
    "passTime": "11:33",
    "vehicleType": "南海バス(車椅子・ベビーカー・ノンステップ)",
    "updateTime": "2026/07/24 11:35"
  },
  {
    "vehicleNum": "080968",
    "vehicleCd": "424",
    "vehicleCorpCd": "1",
    "running": true,
    "lat": 34.569889,
    "lon": 135.480889,
    "route": "堺東駅前→堀上緑町１丁→堺東駅前",
    "stop": "一条通",
    "passTime": "11:34",
    "vehicleType": "南海バス(車椅子・ベビーカー・ノンステップ)",
    "updateTime": "2026/07/24 11:35"
  },
  {
    "vehicleNum": "080977",
    "vehicleCd": "388",
    "vehicleCorpCd": "1",
    "running": true,
    "lat": 34.554583,
    "lon": 135.4695,
    "route": "堺東駅前→堀上緑町１丁→堺東駅前",
    "stop": "南陵通１丁",
    "passTime": "11:34",
    "vehicleType": "南海バス(車椅子・ベビーカー・ノンステップ)",
    "updateTime": "2026/07/24 11:35"
  },
  {
    "vehicleNum": "080989",
    "vehicleCd": "259",
    "vehicleCorpCd": "1",
    "running": true,
    "lat": 34.554389,
    "lon": 135.461583,
    "route": "堺東駅前→鳳西町南",
    "stop": "石津神社前",
    "passTime": "11:33",
    "vehicleType": "南海バス(車椅子・ベビーカー・ノンステップ)",
    "updateTime": "2026/07/24 11:35"
  },
  {
    "vehicleNum": "080994",
    "vehicleCd": "130",
    "vehicleCorpCd": "1",
    "running": true,
    "lat": 34.498889,
    "lon": 135.525278,
    "route": "泉ヶ丘駅→スマ・エコタウン晴美台→高倉台左回り→泉ヶ丘駅",
    "stop": "三原台中学校前",
    "passTime": "11:34",
    "vehicleType": "南海バス(車椅子・ベビーカー・ノンステップ)",
    "updateTime": "2026/07/24 11:35"
  },
  {
    "vehicleNum": "080995",
    "vehicleCd": "118",
    "vehicleCorpCd": "1",
    "running": true,
    "lat": 34.487778,
    "lon": 135.5315,
    "route": "泉ヶ丘駅→晴美台右回り→泉ヶ丘駅",
    "stop": "帝塚山学院泉ケ丘校前",
    "passTime": "11:34",
    "vehicleType": "南海バス(車椅子・ベビーカー・ノンステップ)",
    "updateTime": "2026/07/24 11:35"
  },
  {
    "vehicleNum": "080996",
    "vehicleCd": "191",
    "vehicleCorpCd": "1",
    "running": true,
    "lat": 34.533778,
    "lon": 135.487694,
    "route": "東山車庫前→小阪→堺東駅前",
    "stop": "中深井南",
    "passTime": "11:34",
    "vehicleType": "南海バス(車椅子・ベビーカー・ノンステップ)",
    "updateTime": "2026/07/24 11:35"
  },
  {
    "vehicleNum": "081001",
    "vehicleCd": "238",
    "vehicleCorpCd": "1",
    "running": true,
    "lat": 34.530194,
    "lon": 135.497583,
    "route": "堺東駅前→もず駅前→深井駅→あみだ池",
    "stop": "深井駅",
    "passTime": "11:34",
    "vehicleType": "南海バス(車椅子・ベビーカー・ノンステップ)",
    "updateTime": "2026/07/24 11:35"
  },
  {
    "vehicleNum": "081003",
    "vehicleCd": "610",
    "vehicleCorpCd": "1",
    "running": true,
    "lat": 34.531583,
    "lon": 135.521083,
    "route": "北野田駅前→福町→堺駅南口",
    "stop": "中茶屋",
    "passTime": "11:30",
    "vehicleType": "南海バス(車椅子・ベビーカー・ノンステップ)",
    "updateTime": "2026/07/24 11:35"
  },
  {
    "vehicleNum": "081005",
    "vehicleCd": "272",
    "vehicleCorpCd": "1",
    "running": true,
    "lat": 34.567278,
    "lon": 135.478889,
    "route": "堺東駅前→上野芝駅前→東山車庫前",
    "stop": "賑町",
    "passTime": "11:34",
    "vehicleType": "南海バス(車椅子・ベビーカー・ノンステップ)",
    "updateTime": "2026/07/24 11:35"
  },
  {
    "vehicleNum": "081014",
    "vehicleCd": "229",
    "vehicleCorpCd": "1",
    "running": true,
    "lat": 34.536778,
    "lon": 135.470694,
    "route": "深井駅→鈴の宮団地→堺市立総合医療センター前→津久野駅前",
    "stop": "平岡西口",
    "passTime": "11:33",
    "vehicleType": "南海バス(車椅子・ベビーカー・ノンステップ)",
    "updateTime": "2026/07/24 11:35"
  },
  {
    "vehicleNum": "081016",
    "vehicleCd": "239",
    "vehicleCorpCd": "1",
    "running": true,
    "lat": 34.485,
    "lon": 135.516583,
    "route": "泉ヶ丘駅→ハーベストの丘",
    "stop": "泉ヶ丘駅（南側）",
    "passTime": "11:30",
    "vehicleType": "南海バス(車椅子・ベビーカー・ノンステップ)",
    "updateTime": "2026/07/24 11:35"
  },
  {
    "vehicleNum": "081019",
    "vehicleCd": "267",
    "vehicleCorpCd": "1",
    "running": true,
    "lat": 34.549694,
    "lon": 135.498194,
    "route": "あみだ池→深井駅→もず駅前→堺東駅前",
    "stop": "もず梅町三丁",
    "passTime": "11:32",
    "vehicleType": "南海バス(車椅子・ベビーカー・ノンステップ)",
    "updateTime": "2026/07/24 11:35"
  },
  {
    "vehicleNum": "081020",
    "vehicleCd": "163",
    "vehicleCorpCd": "1",
    "running": true,
    "lat": 34.523083,
    "lon": 135.5375,
    "route": "深井駅→東山車庫前→北野田駅前",
    "stop": "大美野噴水前",
    "passTime": "11:34",
    "vehicleType": "南海バス(車椅子・ベビーカー・ノンステップ)",
    "updateTime": "2026/07/24 11:35"
  },
  {
    "vehicleNum": "081036",
    "vehicleCd": "293",
    "vehicleCorpCd": "1",
    "running": true,
    "lat": 34.511083,
    "lon": 135.4955,
    "route": "津久野駅前→堺市立総合医療センター前→八田荘団地→泉ヶ丘駅",
    "stop": "伏尾",
    "passTime": "11:34",
    "vehicleType": "南海バス(車椅子・ベビーカー・ノンステップ)",
    "updateTime": "2026/07/24 11:35"
  },
  {
    "vehicleNum": "090170",
    "vehicleCd": "117",
    "vehicleCorpCd": "2",
    "running": true,
    "lat": 34.460194,
    "lon": 135.378583,
    "route": "和泉中央駅→徳洲会病院→岸和田駅前",
    "stop": "沼町",
    "passTime": "11:31",
    "vehicleType": "南海ウイングバス",
    "updateTime": "2026/07/24 11:35"
  },
  {
    "vehicleNum": "090144",
    "vehicleCd": "82",
    "vehicleCorpCd": "2",
    "running": true,
    "lat": 34.427194,
    "lon": 135.429472,
    "route": "道の駅愛彩ランド→下松駅前",
    "stop": "職業能力開発大学",
    "passTime": "11:35",
    "vehicleType": "南海ウイングバス(車椅子・ベビーカー・ワンステップ)",
    "updateTime": "2026/07/24 11:35"
  },
  {
    "vehicleNum": "090808",
    "vehicleCd": "31",
    "vehicleCorpCd": "1",
    "running": true,
    "lat": 34.476278,
    "lon": 135.488,
    "route": "国分峠東→栂・美木多駅→堺東駅前",
    "stop": "美木多",
    "passTime": "11:34",
    "vehicleType": "南海バス(車椅子・ノンステップ)",
    "updateTime": "2026/07/24 11:35"
  },
  {
    "vehicleNum": "091147",
    "vehicleCd": "255",
    "vehicleCorpCd": "1",
    "running": true,
    "lat": 34.506694,
    "lon": 135.443972,
    "route": "北信太駅筋→鶴山台団地→北信太駅筋",
    "stop": "太町",
    "passTime": "11:34",
    "vehicleType": "南海バス(車椅子・ベビーカー・ワンステップ)",
    "updateTime": "2026/07/24 11:35"
  },
  {
    "vehicleNum": "091596",
    "vehicleCd": "200",
    "vehicleCorpCd": "1",
    "running": true,
    "lat": 34.442278,
    "lon": 135.255278,
    "route": "関空展望ホール→旅客ターミナル→関空展望ホール",
    "stop": "旅客ターミナル",
    "passTime": "11:30",
    "vehicleType": "南海バス(車椅子・ノンステップ)",
    "updateTime": "2026/07/24 11:35"
  },
  {
    "vehicleNum": "091444",
    "vehicleCd": "107",
    "vehicleCorpCd": "2",
    "running": true,
    "lat": 34.405694,
    "lon": 135.341583,
    "route": "泉佐野駅前→ダンバラ公園前→熊取駅前→大阪体育大学前→つばさが丘北口",
    "stop": "青年会場前",
    "passTime": "11:33",
    "vehicleType": "南海ウイングバス(車椅子・ベビーカー・ノンステップ)",
    "updateTime": "2026/07/24 11:35"
  },
  {
    "vehicleNum": "091737",
    "vehicleCd": "48",
    "vehicleCorpCd": "2",
    "running": true,
    "lat": 34.445389,
    "lon": 135.412083,
    "route": "下松駅前→道の駅愛彩ランド",
    "stop": "中尾生",
    "passTime": "11:34",
    "vehicleType": "南海ウイングバス(車椅子・ベビーカー・ワンステップ)",
    "updateTime": "2026/07/24 11:35"
  },
  {
    "vehicleNum": "091740",
    "vehicleCd": "105",
    "vehicleCorpCd": "2",
    "running": true,
    "lat": 34.460194,
    "lon": 135.453583,
    "route": "岸和田駅前→徳洲会病院→和泉中央駅",
    "stop": "唐国南",
    "passTime": "11:33",
    "vehicleType": "南海ウイングバス(車椅子・ベビーカー・ワンステップ)",
    "updateTime": "2026/07/24 11:35"
  },
  {
    "vehicleNum": "091745",
    "vehicleCd": "103",
    "vehicleCorpCd": "2",
    "running": true,
    "lat": 34.429,
    "lon": 135.390889,
    "route": "岸和田駅前→天神山循環　左回り→岸和田駅前",
    "stop": "流木墓地公園前",
    "passTime": "11:34",
    "vehicleType": "南海ウイングバス",
    "updateTime": "2026/07/24 11:35"
  },
  {
    "vehicleNum": "091748",
    "vehicleCd": "74",
    "vehicleCorpCd": "2",
    "running": true,
    "lat": 34.454778,
    "lon": 135.385278,
    "route": "岸和田駅前→内畑→牛滝温泉",
    "stop": "岸和田警察署前",
    "passTime": "11:33",
    "vehicleType": "南海ウイングバス(車椅子・ワンステップ)",
    "updateTime": "2026/07/24 11:35"
  },
  {
    "vehicleNum": "091784",
    "vehicleCd": "119",
    "vehicleCorpCd": "2",
    "running": true,
    "lat": 34.391,
    "lon": 135.348972,
    "route": "熊取町　青葉台方面循環コース",
    "stop": "京大体育館前",
    "passTime": "11:34",
    "vehicleType": "熊取町コミュニティバス(ジャンプ君号)",
    "updateTime": "2026/07/24 11:35"
  },
  {
    "vehicleNum": "091750",
    "vehicleCd": "335",
    "vehicleCorpCd": "1",
    "running": true,
    "lat": 34.447194,
    "lon": 135.549278,
    "route": "緑ヶ丘北町→千代田駅前",
    "stop": "東峯口",
    "passTime": "11:35",
    "vehicleType": "南海バス(車椅子・ベビーカー・ワンステップ)",
    "updateTime": "2026/07/24 11:35"
  },
  {
    "vehicleNum": "091785",
    "vehicleCd": "120",
    "vehicleCorpCd": "2",
    "running": true,
    "lat": 34.389389,
    "lon": 135.361194,
    "route": "熊取町　つばさが丘循環コース",
    "stop": "南山の手台",
    "passTime": "11:34",
    "vehicleType": "熊取町コミュニティバス(メジーナちゃん号)",
    "updateTime": "2026/07/24 11:35"
  },
  {
    "vehicleNum": "091792",
    "vehicleCd": "59",
    "vehicleCorpCd": "1",
    "running": true,
    "lat": 34.426472,
    "lon": 135.2275,
    "route": "空港駅→給油地区",
    "stop": "貨物合同庁舎前",
    "passTime": "11:34",
    "vehicleType": "南海バス(車椅子・ノンステップ)",
    "updateTime": "2026/07/24 11:35"
  },
  {
    "vehicleNum": "091895",
    "vehicleCd": "4",
    "vehicleCorpCd": "2",
    "running": true,
    "lat": 34.362778,
    "lon": 135.277694,
    "route": "泉南市コミュニティバス 一丘Ａ回り",
    "stop": "砂川駅前通り",
    "passTime": "11:34",
    "vehicleType": "泉南市コミュニティバス(ピンク)",
    "updateTime": "2026/07/24 11:35"
  },
  {
    "vehicleNum": "092045",
    "vehicleCd": "463",
    "vehicleCorpCd": "1",
    "running": true,
    "lat": 34.472,
    "lon": 135.571694,
    "route": "ﾓｯｸﾙ 美加～木戸東町～美加",
    "stop": "大阪南医療センター前",
    "passTime": "11:31",
    "vehicleType": "南海バス(車椅子・ベビーカー・ノンステップ)",
    "updateTime": "2026/07/24 11:35"
  },
  {
    "vehicleNum": "092141",
    "vehicleCd": "527",
    "vehicleCorpCd": "1",
    "running": true,
    "lat": 34.631694,
    "lon": 135.429583,
    "route": "堺東駅前→ＡＴＣ→海遊館→堺東駅前",
    "stop": "ポートタウン東",
    "passTime": "11:29",
    "vehicleType": "南海バス",
    "updateTime": "2026/07/24 11:35"
  },
  {
    "vehicleNum": "092153",
    "vehicleCd": "529",
    "vehicleCorpCd": "1",
    "running": true,
    "lat": 34.439694,
    "lon": 135.245778,
    "route": "エアロプラザ→第２ターミナル(国内線・国際線)→エアロプラザ",
    "stop": "第2ターミナル国際線",
    "passTime": "11:29",
    "vehicleType": "南海バス",
    "updateTime": "2026/07/24 11:35"
  },
  {
    "vehicleNum": "092234",
    "vehicleCd": "534",
    "vehicleCorpCd": "1",
    "running": true,
    "lat": 34.456694,
    "lon": 135.448889,
    "route": "和泉中央駅→テクノステージセンター前→グリーンポリス前→和泉中央駅",
    "stop": "唐国南",
    "passTime": "11:34",
    "vehicleType": "南海バス(車椅子・ベビーカー・ノンステップ)",
    "updateTime": "2026/07/24 11:35"
  },
  {
    "vehicleNum": "092372",
    "vehicleCd": "159",
    "vehicleCorpCd": "1",
    "running": true,
    "lat": 34.4645,
    "lon": 135.453472,
    "route": "和泉中央駅→医療センター玄関口→和泉府中駅前",
    "stop": "いぶき野三丁目",
    "passTime": "11:34",
    "vehicleType": "南海バス(車椅子・ベビーカー・ノンステップ)",
    "updateTime": "2026/07/24 11:35"
  },
  {
    "vehicleNum": "092373",
    "vehicleCd": "553",
    "vehicleCorpCd": "1",
    "running": true,
    "lat": 34.541083,
    "lon": 135.4635,
    "route": "堺東駅前→鳳駅前→光明池駅",
    "stop": "下田南",
    "passTime": "11:34",
    "vehicleType": "南海バス(車椅子・ベビーカー・ノンステップ)",
    "updateTime": "2026/07/24 11:35"
  },
  {
    "vehicleNum": "092394",
    "vehicleCd": "42",
    "vehicleCorpCd": "1",
    "running": true,
    "lat": 34.436778,
    "lon": 135.232083,
    "route": "エアロプラザ→第２ターミナル(国内線・国際線)→エアロプラザ",
    "stop": "エアロプラザ",
    "passTime": "11:30",
    "vehicleType": "南海バス(車椅子・ノンステップ)",
    "updateTime": "2026/07/24 11:35"
  },
  {
    "vehicleNum": "092383",
    "vehicleCd": "44",
    "vehicleCorpCd": "1",
    "running": true,
    "lat": 34.467278,
    "lon": 135.463,
    "route": "泉大津駅前→和泉府中駅前→和泉中央駅→光明池駅",
    "stop": "上中村",
    "passTime": "11:35",
    "vehicleType": "南海バス(車椅子・ベビーカー・ワンステップ)",
    "updateTime": "2026/07/24 11:35"
  },
  {
    "vehicleNum": "092398",
    "vehicleCd": "41",
    "vehicleCorpCd": "1",
    "running": true,
    "lat": 34.437389,
    "lon": 135.234889,
    "route": "エアロプラザ→第２ターミナル(国内線・国際線)→エアロプラザ",
    "stop": "第2ターミナル国際線",
    "passTime": "11:34",
    "vehicleType": "南海バス(車椅子・ノンステップ)",
    "updateTime": "2026/07/24 11:35"
  },
  {
    "vehicleNum": "092454",
    "vehicleCd": "125",
    "vehicleCorpCd": "2",
    "running": true,
    "lat": 34.377472,
    "lon": 135.277389,
    "route": "泉南市コミュニティバス 岡田A回り",
    "stop": "給食センター",
    "passTime": "11:32",
    "vehicleType": "泉南市コミュニティバス(橙)",
    "updateTime": "2026/07/24 11:35"
  },
  {
    "vehicleNum": "092501",
    "vehicleCd": "139",
    "vehicleCorpCd": "2",
    "running": true,
    "lat": 34.450083,
    "lon": 135.389972,
    "route": "ローズバス　右回り",
    "stop": "上松町",
    "passTime": "11:33",
    "vehicleType": "岸和田市コミュニティバス(ローズバス)",
    "updateTime": "2026/07/24 11:35"
  },
  {
    "vehicleNum": "092498",
    "vehicleCd": "8",
    "vehicleCorpCd": "1",
    "running": true,
    "lat": 34.494194,
    "lon": 135.466694,
    "route": "光明池駅→山田→堺東駅前",
    "stop": "自動車検査場前",
    "passTime": "11:35",
    "vehicleType": "南海バス(車椅子・ベビーカー・ノンステップ)",
    "updateTime": "2026/07/24 11:35"
  },
  {
    "vehicleNum": "092569",
    "vehicleCd": "266",
    "vehicleCorpCd": "1",
    "running": true,
    "lat": 34.485083,
    "lon": 135.424194,
    "route": "泉大津駅前→和泉府中駅前→和泉中央駅",
    "stop": "泉大津急性期メディカルセンター前",
    "passTime": "11:32",
    "vehicleType": "南海バス(車椅子・ベビーカー・ノンステップ)",
    "updateTime": "2026/07/24 11:35"
  },
  {
    "vehicleNum": "092578",
    "vehicleCd": "147",
    "vehicleCorpCd": "1",
    "running": true,
    "lat": 34.439972,
    "lon": 135.578472,
    "route": "河内長野駅前→河合寺→小吹台",
    "stop": "東中学校前（河内長野市）",
    "passTime": "11:34",
    "vehicleType": "南海バス(車椅子・ベビーカー・ノンステップ)",
    "updateTime": "2026/07/24 11:35"
  },
  {
    "vehicleNum": "092581",
    "vehicleCd": "375",
    "vehicleCorpCd": "1",
    "running": true,
    "lat": 34.564694,
    "lon": 135.476583,
    "route": "国分峠東→栂・美木多駅→堺東駅前",
    "stop": "大仙中町",
    "passTime": "11:34",
    "vehicleType": "南海バス(車椅子・ベビーカー・ノンステップ)",
    "updateTime": "2026/07/24 11:35"
  },
  {
    "vehicleNum": "092587",
    "vehicleCd": "124",
    "vehicleCorpCd": "1",
    "running": true,
    "lat": 34.400278,
    "lon": 135.526778,
    "route": "河内長野駅前→奥河内くろまろの郷→滝畑ダム",
    "stop": "清掃工場前",
    "passTime": "11:33",
    "vehicleType": "南海バス(車椅子・ベビーカー・ノンステップ)",
    "updateTime": "2026/07/24 11:35"
  },
  {
    "vehicleNum": "092595",
    "vehicleCd": "326",
    "vehicleCorpCd": "1",
    "running": true,
    "lat": 34.415194,
    "lon": 135.560194,
    "route": "三日市町駅前→南花台１丁目北→大矢船西町",
    "stop": "大矢船南町",
    "passTime": "11:34",
    "vehicleType": "南海バス(車椅子・ベビーカー・ノンステップ)",
    "updateTime": "2026/07/24 11:35"
  },
  {
    "vehicleNum": "092647",
    "vehicleCd": "587",
    "vehicleCorpCd": "1",
    "running": true,
    "lat": 34.450583,
    "lon": 135.572194,
    "route": "長野→天野山→旭",
    "stop": "河内長野駅前",
    "passTime": "11:35",
    "vehicleType": "南海バス(車椅子・ベビーカー・ノンステップ)",
    "updateTime": "2026/07/24 11:35"
  },
  {
    "vehicleNum": "092696",
    "vehicleCd": "589",
    "vehicleCorpCd": "1",
    "running": true,
    "lat": 34.451778,
    "lon": 135.458389,
    "route": "美術館前→のぞみ野南→和泉中央駅",
    "stop": "のぞみ野南",
    "passTime": "11:35",
    "vehicleType": "南海バス(車椅子・ベビーカー・ノンステップ)",
    "updateTime": "2026/07/24 11:35"
  },
  {
    "vehicleNum": "092757",
    "vehicleCd": "306",
    "vehicleCorpCd": "1",
    "running": true,
    "lat": 34.435389,
    "lon": 135.568889,
    "route": "三日市町駅前→南青葉台→三日市町駅前",
    "stop": "加賀田口",
    "passTime": "11:34",
    "vehicleType": "南海バス(車椅子・ベビーカー・ノンステップ)",
    "updateTime": "2026/07/24 11:35"
  },
  {
    "vehicleNum": "092762",
    "vehicleCd": "570",
    "vehicleCorpCd": "1",
    "running": true,
    "lat": 34.484083,
    "lon": 135.480778,
    "route": "泉ヶ丘駅→光明池駅→赤坂台４丁→光明池駅→泉ヶ丘駅",
    "stop": "赤坂台一丁南",
    "passTime": "11:35",
    "vehicleType": "南海バス(車椅子・ベビーカー・ノンステップ)",
    "updateTime": "2026/07/24 11:35"
  },
  {
    "vehicleNum": "092763",
    "vehicleCd": "520",
    "vehicleCorpCd": "1",
    "running": true,
    "lat": 34.473194,
    "lon": 135.477583,
    "route": "光明池駅→城山台２丁→光明池駅",
    "stop": "鴨谷台三丁",
    "passTime": "11:33",
    "vehicleType": "南海バス(車椅子・ベビーカー・ノンステップ)",
    "updateTime": "2026/07/24 11:35"
  },
  {
    "vehicleNum": "092829",
    "vehicleCd": "488",
    "vehicleCorpCd": "1",
    "running": true,
    "lat": 34.478583,
    "lon": 135.432194,
    "route": "和泉府中駅前→医療センター玄関口→和泉中央駅",
    "stop": "和泉市立総合医療センター前",
    "passTime": "11:35",
    "vehicleType": "南海バス(車椅子・ベビーカー・ノンステップ)",
    "updateTime": "2026/07/24 11:35"
  },
  {
    "vehicleNum": "092831",
    "vehicleCd": "417",
    "vehicleCorpCd": "1",
    "running": true,
    "lat": 34.569583,
    "lon": 135.480778,
    "route": "堺東駅前→鳳駅前→国分峠東",
    "stop": "一条通",
    "passTime": "11:34",
    "vehicleType": "南海バス(車椅子・ベビーカー・ノンステップ)",
    "updateTime": "2026/07/24 11:35"
  },
  {
    "vehicleNum": "092830",
    "vehicleCd": "367",
    "vehicleCorpCd": "1",
    "running": true,
    "lat": 34.540972,
    "lon": 135.463278,
    "route": "光明池駅→山田→堺東駅前",
    "stop": "下田南",
    "passTime": "11:34",
    "vehicleType": "南海バス(車椅子・ベビーカー・ノンステップ)",
    "updateTime": "2026/07/24 11:35"
  },
  {
    "vehicleNum": "092856",
    "vehicleCd": "601",
    "vehicleCorpCd": "1",
    "running": true,
    "lat": 34.439694,
    "lon": 135.467194,
    "route": "和泉中央駅→はつが野→和泉青葉台→和泉中央駅（左回り）",
    "stop": "はつが野六丁目",
    "passTime": "11:35",
    "vehicleType": "南海バス(車椅子・ベビーカー・ノンステップ)",
    "updateTime": "2026/07/24 11:35"
  },
  {
    "vehicleNum": "092857",
    "vehicleCd": "516",
    "vehicleCorpCd": "1",
    "running": true,
    "lat": 34.473778,
    "lon": 135.450083,
    "route": "光明池駅→光明池車庫→和泉中央駅→泉大津駅前",
    "stop": "上阪本",
    "passTime": "11:34",
    "vehicleType": "南海バス(車椅子・ベビーカー・ノンステップ)",
    "updateTime": "2026/07/24 11:35"
  },
  {
    "vehicleNum": "092900",
    "vehicleCd": "604",
    "vehicleCorpCd": "1",
    "running": true,
    "lat": 34.502694,
    "lon": 135.407,
    "route": "泉大津駅前→和泉府中駅前→和泉中央駅",
    "stop": "泉大津駅前",
    "passTime": "11:35",
    "vehicleType": "南海バス(車椅子・ベビーカー・ノンステップ)",
    "updateTime": "2026/07/24 11:35"
  },
  {
    "vehicleNum": "092913",
    "vehicleCd": "154",
    "vehicleCorpCd": "1",
    "running": true,
    "lat": 34.471694,
    "lon": 135.477278,
    "route": "堺東駅前→鳳駅前→光明池駅",
    "stop": "変電所前",
    "passTime": "11:31",
    "vehicleType": "南海バス(車椅子・ベビーカー・ノンステップ)",
    "updateTime": "2026/07/24 11:35"
  },
  {
    "vehicleNum": "092919",
    "vehicleCd": "230",
    "vehicleCorpCd": "1",
    "running": true,
    "lat": 34.4585,
    "lon": 135.5555,
    "route": "千代田駅前→赤峯→荘園町",
    "stop": "小山田口",
    "passTime": "11:34",
    "vehicleType": "南海バス(車椅子・ベビーカー・ノンステップ)",
    "updateTime": "2026/07/24 11:35"
  },
  {
    "vehicleNum": "092936",
    "vehicleCd": "322",
    "vehicleCorpCd": "1",
    "running": true,
    "lat": 34.427583,
    "lon": 135.229889,
    "route": "給油地区→空港駅",
    "stop": "大阪国際郵便局前",
    "passTime": "11:35",
    "vehicleType": "南海バス(車椅子・ベビーカー・ノンステップ)",
    "updateTime": "2026/07/24 11:35"
  },
  {
    "vehicleNum": "092952",
    "vehicleCd": "113",
    "vehicleCorpCd": "1",
    "running": true,
    "lat": 34.4645,
    "lon": 135.485778,
    "route": "光明池駅→城山台５丁→光明池車庫",
    "stop": "城山台五丁",
    "passTime": "11:34",
    "vehicleType": "南海バス(車椅子・ベビーカー・ノンステップ)",
    "updateTime": "2026/07/24 11:35"
  },
  {
    "vehicleNum": "092975",
    "vehicleCd": "115",
    "vehicleCorpCd": "1",
    "running": true,
    "lat": 34.4915,
    "lon": 135.415778,
    "route": "和泉中央駅→寺田→泉大津駅前",
    "stop": "我孫子",
    "passTime": "11:34",
    "vehicleType": "南海バス(車椅子・ベビーカー・ノンステップ)",
    "updateTime": "2026/07/24 11:35"
  },
  {
    "vehicleNum": "092978",
    "vehicleCd": "325",
    "vehicleCorpCd": "1",
    "running": true,
    "lat": 34.457889,
    "lon": 135.449889,
    "route": "和泉中央駅→テクノステージセンター前→グリーンポリス前→和泉中央駅",
    "stop": "唐国南",
    "passTime": "11:35",
    "vehicleType": "南海バス(車椅子・ベビーカー・ノンステップ)",
    "updateTime": "2026/07/24 11:35"
  },
  {
    "vehicleNum": "092977",
    "vehicleCd": "608",
    "vehicleCorpCd": "1",
    "running": true,
    "lat": 34.505889,
    "lon": 135.466278,
    "route": "堺東駅前→鳳駅前→光明池駅",
    "stop": "南山田",
    "passTime": "11:34",
    "vehicleType": "南海バス(車椅子・ベビーカー・ノンステップ)",
    "updateTime": "2026/07/24 11:35"
  },
  {
    "vehicleNum": "093011",
    "vehicleCd": "27",
    "vehicleCorpCd": "1",
    "running": true,
    "lat": 34.434194,
    "lon": 135.237694,
    "route": "給油地区→ＦｅｄＥｘ→空港駅",
    "stop": "機内食前",
    "passTime": "11:32",
    "vehicleType": "南海バス(車椅子・ベビーカー・ノンステップ)",
    "updateTime": "2026/07/24 11:35"
  },
  {
    "vehicleNum": "093035",
    "vehicleCd": "609",
    "vehicleCorpCd": "1",
    "running": true,
    "lat": 34.435889,
    "lon": 135.241972,
    "route": "エアロプラザ→第２ターミナル(国内線・国際線)→エアロプラザ",
    "stop": "エアロプラザ",
    "passTime": "11:35",
    "vehicleType": "南海バス",
    "updateTime": "2026/07/24 11:35"
  },
  {
    "vehicleNum": "093054",
    "vehicleCd": "396",
    "vehicleCorpCd": "1",
    "running": true,
    "lat": 34.485778,
    "lon": 135.487778,
    "route": "堺東駅前→鳳駅前→栂・美木多駅",
    "stop": "桃山台三丁南",
    "passTime": "11:33",
    "vehicleType": "南海バス(車椅子・ベビーカー・ノンステップ)",
    "updateTime": "2026/07/24 11:35"
  },
  {
    "vehicleNum": "093071",
    "vehicleCd": "274",
    "vehicleCorpCd": "1",
    "running": true,
    "lat": 34.457889,
    "lon": 135.460583,
    "route": "和泉中央駅→和泉青葉台→はつが野→和泉中央駅（右回り）",
    "stop": "万町弘法寺前",
    "passTime": "11:35",
    "vehicleType": "南海バス(車椅子・ベビーカー・ノンステップ)",
    "updateTime": "2026/07/24 11:35"
  },
  {
    "vehicleNum": "093074",
    "vehicleCd": "247",
    "vehicleCorpCd": "1",
    "running": true,
    "lat": 34.460889,
    "lon": 135.456194,
    "route": "和泉中央駅→和泉青葉台→はつが野→和泉中央駅（右回り）",
    "stop": "和泉中央駅",
    "passTime": "11:35",
    "vehicleType": "南海バス(車椅子・ベビーカー・ノンステップ)",
    "updateTime": "2026/07/24 11:35"
  }
]