[
  {
    "vehicleNum": "070105",
    "vehicleCd": "403",
    "vehicleCorpCd": "1",
    "running": true,
    "lat": 34.476778,
    "lon": 135.548194,
    "route": "金剛駅前→狭山ニュータウンセンター→泉ヶ丘駅",
    "stop": "南中学校前",
    "passTime": "18:07",
    "vehicleType": "泉北コミュニティバス(車椅子・ベビーカー・ノンステップ)",
    "updateTime": "2026/07/19 18:09"
  },
  {
    "vehicleNum": "070108",
    "vehicleCd": "406",
    "vehicleCorpCd": "1",
    "running": true,
    "lat": 34.498583,
    "lon": 135.554472,
    "route": "泉ヶ丘駅→狭山ニュータウンセンター→金剛駅前",
    "stop": "北村",
    "passTime": "18:08",
    "vehicleType": "泉北コミュニティバス(車椅子・ベビーカー・ノンステップ)",
    "updateTime": "2026/07/19 18:09"
  },
  {
    "vehicleNum": "070109",
    "vehicleCd": "407",
    "vehicleCorpCd": "1",
    "running": true,
    "lat": 34.498278,
    "lon": 135.556583,
    "route": "金剛駅前→狭山ニュータウンセンター→泉ヶ丘駅",
    "stop": "半田",
    "passTime": "18:07",
    "vehicleType": "泉北コミュニティバス(車椅子・ベビーカー・ノンステップ)",
    "updateTime": "2026/07/19 18:09"
  },
  {
    "vehicleNum": "071283",
    "vehicleCd": "430",
    "vehicleCorpCd": "1",
    "running": true,
    "lat": 34.581,
    "lon": 135.4775,
    "route": "堺東駅前→ＡＴＣ→海遊館→堺東駅前",
    "stop": "堺駅前",
    "passTime": "18:10",
    "vehicleType": "南海バス",
    "updateTime": "2026/07/19 18:09"
  },
  {
    "vehicleNum": "080178",
    "vehicleCd": "56",
    "vehicleCorpCd": "2",
    "running": true,
    "lat": 34.470583,
    "lon": 135.400889,
    "route": "和泉中央駅→荒木町→岸和田駅前",
    "stop": "下池田",
    "passTime": "18:06",
    "vehicleType": "南海ウイングバス(車椅子・ベビーカー・ワンステップ)",
    "updateTime": "2026/07/19 18:09"
  },
  {
    "vehicleNum": "080137",
    "vehicleCd": "459",
    "vehicleCorpCd": "1",
    "running": true,
    "lat": 34.577389,
    "lon": 135.462278,
    "route": "堺旧港・ポルトマーレ→利晶→古墳→堺旧港・ポルトマーレ",
    "stop": "さかい利晶の杜",
    "passTime": "18:05",
    "vehicleType": "南海バス",
    "updateTime": "2026/07/19 18:09"
  },
  {
    "vehicleNum": "080270",
    "vehicleCd": "86",
    "vehicleCorpCd": "2",
    "running": true,
    "lat": 34.384278,
    "lon": 135.373278,
    "route": "つばさが丘北口→大阪体育大学前→熊取駅前→ダンバラ公園前→泉佐野駅前",
    "stop": "つばさが丘中央",
    "passTime": "18:09",
    "vehicleType": "南海バス(車椅子・ワンステップ)",
    "updateTime": "2026/07/19 18:09"
  },
  {
    "vehicleNum": "080627",
    "vehicleCd": "446",
    "vehicleCorpCd": "1",
    "running": true,
    "lat": 34.528583,
    "lon": 135.536194,
    "route": "北野田駅前→多治井北（循環）→北野田駅前",
    "stop": "登美丘東小学校前",
    "passTime": "18:08",
    "vehicleType": "南海バス(車椅子・ベビーカー・ノンステップ)",
    "updateTime": "2026/07/19 18:09"
  },
  {
    "vehicleNum": "080628",
    "vehicleCd": "445",
    "vehicleCorpCd": "1",
    "running": true,
    "lat": 34.543778,
    "lon": 135.5445,
    "route": "美原区役所→野遠→地下鉄新金岡駅前",
    "stop": "太井",
    "passTime": "18:07",
    "vehicleType": "南海バス(車椅子・ベビーカー・ノンステップ)",
    "updateTime": "2026/07/19 18:09"
  },
  {
    "vehicleNum": "080652",
    "vehicleCd": "456",
    "vehicleCorpCd": "1",
    "running": true,
    "lat": 34.543194,
    "lon": 135.526778,
    "route": "美原区役所→初芝駅前→美原区役所",
    "stop": "初芝駅前",
    "passTime": "18:08",
    "vehicleType": "南海バス",
    "updateTime": "2026/07/19 18:09"
  },
  {
    "vehicleNum": "080671",
    "vehicleCd": "465",
    "vehicleCorpCd": "1",
    "running": true,
    "lat": 34.596083,
    "lon": 135.447583,
    "route": "匠町→住之江公園駅前→匠町",
    "stop": "堺浜南",
    "passTime": "18:07",
    "vehicleType": "南海バス(車椅子・ベビーカー・ノンステップ)",
    "updateTime": "2026/07/19 18:09"
  },
  {
    "vehicleNum": "080705",
    "vehicleCd": "542",
    "vehicleCorpCd": "1",
    "running": true,
    "lat": 34.602583,
    "lon": 135.458583,
    "route": "堺駅西口→南島町→堺東駅前",
    "stop": "堺浜北",
    "passTime": "18:08",
    "vehicleType": "南海バス(車椅子・ベビーカー・ノンステップ)",
    "updateTime": "2026/07/19 18:09"
  },
  {
    "vehicleNum": "080707",
    "vehicleCd": "544",
    "vehicleCorpCd": "1",
    "running": true,
    "lat": 34.570083,
    "lon": 135.472778,
    "route": "堺駅南口→堺駅前",
    "stop": "大仙西町団地前",
    "passTime": "18:08",
    "vehicleType": "南海バス(車椅子・ベビーカー・ノンステップ)",
    "updateTime": "2026/07/19 18:09"
  },
  {
    "vehicleNum": "080708",
    "vehicleCd": "537",
    "vehicleCorpCd": "1",
    "running": true,
    "lat": 34.500778,
    "lon": 135.580278,
    "route": "金剛駅前→高辺台小学校前→金剛駅前",
    "stop": "中央センター前",
    "passTime": "18:09",
    "vehicleType": "南海バス(車椅子・ベビーカー・ノンステップ)",
    "updateTime": "2026/07/19 18:09"
  },
  {
    "vehicleNum": "080698",
    "vehicleCd": "531",
    "vehicleCorpCd": "1",
    "running": true,
    "lat": 34.577194,
    "lon": 135.491583,
    "route": "堺駅前→堺東駅前→河内松原駅前",
    "stop": "田出井町",
    "passTime": "18:09",
    "vehicleType": "南海バス",
    "updateTime": "2026/07/19 18:09"
  },
  {
    "vehicleNum": "080709",
    "vehicleCd": "5",
    "vehicleCorpCd": "2",
    "running": true,
    "lat": 34.411194,
    "lon": 135.300389,
    "route": "イオンモール→ワシントンホテル→イオンモールりんくう泉南",
    "stop": "ゲートタワービル",
    "passTime": "18:09",
    "vehicleType": "南海ウイングバス(車椅子・ベビーカー・ノンステップ)",
    "updateTime": "2026/07/19 18:09"
  },
  {
    "vehicleNum": "080746",
    "vehicleCd": "395",
    "vehicleCorpCd": "1",
    "running": true,
    "lat": 34.499694,
    "lon": 135.563694,
    "route": "金剛駅前→高辺台小学校前→金剛駅前",
    "stop": "久野喜台小学校前",
    "passTime": "18:08",
    "vehicleType": "南海バス(車椅子・ベビーカー・ノンステップ)",
    "updateTime": "2026/07/19 18:09"
  },
  {
    "vehicleNum": "080748",
    "vehicleCd": "218",
    "vehicleCorpCd": "1",
    "running": true,
    "lat": 34.566694,
    "lon": 135.494583,
    "route": "堺駅南口→阪和堺市駅",
    "stop": "細池橋",
    "passTime": "18:04",
    "vehicleType": "南海バス(車椅子・ベビーカー・ノンステップ)",
    "updateTime": "2026/07/19 18:09"
  },
  {
    "vehicleNum": "080756",
    "vehicleCd": "315",
    "vehicleCorpCd": "1",
    "running": true,
    "lat": 34.503972,
    "lon": 135.505083,
    "route": "泉ヶ丘駅→深阪→津久野駅前",
    "stop": "古畑",
    "passTime": "18:08",
    "vehicleType": "南海バス(車椅子・ベビーカー・ノンステップ)",
    "updateTime": "2026/07/19 18:09"
  },
  {
    "vehicleNum": "080758",
    "vehicleCd": "511",
    "vehicleCorpCd": "1",
    "running": true,
    "lat": 34.540083,
    "lon": 135.470194,
    "route": "津久野駅前→堺市立総合医療センター前→八田荘団地→泉ヶ丘駅",
    "stop": "津久野駅前",
    "passTime": "18:07",
    "vehicleType": "南海バス(車椅子・ベビーカー・ノンステップ)",
    "updateTime": "2026/07/19 18:09"
  },
  {
    "vehicleNum": "080761",
    "vehicleCd": "560",
    "vehicleCorpCd": "1",
    "running": true,
    "lat": 34.564972,
    "lon": 135.515778,
    "route": "堺東駅前→白鷺駅前→堺東駅前（循環）",
    "stop": "しもつ池",
    "passTime": "18:08",
    "vehicleType": "南海バス(車椅子・ベビーカー・ノンステップ)",
    "updateTime": "2026/07/19 18:09"
  },
  {
    "vehicleNum": "080764",
    "vehicleCd": "563",
    "vehicleCorpCd": "1",
    "running": true,
    "lat": 34.551778,
    "lon": 135.482,
    "route": "泉ヶ丘駅→宮山台中学校前→堺東駅前",
    "stop": "上野芝",
    "passTime": "18:09",
    "vehicleType": "南海バス(車椅子・ベビーカー・ノンステップ)",
    "updateTime": "2026/07/19 18:09"
  },
  {
    "vehicleNum": "080787",
    "vehicleCd": "301",
    "vehicleCorpCd": "1",
    "running": true,
    "lat": 34.567694,
    "lon": 135.492583,
    "route": "堺東駅前→白鷺駅前→堺東駅前（循環）",
    "stop": "細池橋",
    "passTime": "18:08",
    "vehicleType": "南海バス(車椅子・ベビーカー・ノンステップ)",
    "updateTime": "2026/07/19 18:09"
  },
  {
    "vehicleNum": "080792",
    "vehicleCd": "302",
    "vehicleCorpCd": "1",
    "running": true,
    "lat": 34.5745,
    "lon": 135.46,
    "route": "堺駅前→堺駅南口",
    "stop": "大浜南町",
    "passTime": "18:09",
    "vehicleType": "南海バス(車椅子・ベビーカー・ノンステップ)",
    "updateTime": "2026/07/19 18:09"
  },
  {
    "vehicleNum": "080795",
    "vehicleCd": "43",
    "vehicleCorpCd": "1",
    "running": true,
    "lat": 34.5875,
    "lon": 135.536583,
    "route": "堺東駅前→錦綾町→河内天美駅前",
    "stop": "天美西",
    "passTime": "18:04",
    "vehicleType": "南海バス(車椅子・ベビーカー・ノンステップ)",
    "updateTime": "2026/07/19 18:09"
  },
  {
    "vehicleNum": "080796",
    "vehicleCd": "108",
    "vehicleCorpCd": "1",
    "running": true,
    "lat": 34.583,
    "lon": 135.505694,
    "route": "河内天美駅前→天美我堂→堺東駅前",
    "stop": "東浅香山町",
    "passTime": "18:07",
    "vehicleType": "南海バス(車椅子・ベビーカー・ノンステップ)",
    "updateTime": "2026/07/19 18:09"
  },
  {
    "vehicleNum": "080808",
    "vehicleCd": "216",
    "vehicleCorpCd": "1",
    "running": true,
    "lat": 34.608778,
    "lon": 135.479972,
    "route": "Ｊグリーン堺クラブハウス前→住之江公園駅前",
    "stop": "松屋大和川通３丁",
    "passTime": "17:59",
    "vehicleType": "南海バス(車椅子・ベビーカー・ノンステップ)",
    "updateTime": "2026/07/19 18:09"
  },
  {
    "vehicleNum": "080806",
    "vehicleCd": "307",
    "vehicleCorpCd": "1",
    "running": true,
    "lat": 34.575194,
    "lon": 135.556694,
    "route": "堺駅前→堺東駅前→河内松原駅前",
    "stop": "高見の里駅前",
    "passTime": "18:06",
    "vehicleType": "南海バス(車椅子・ベビーカー・ノンステップ)",
    "updateTime": "2026/07/19 18:09"
  },
  {
    "vehicleNum": "080813",
    "vehicleCd": "269",
    "vehicleCorpCd": "1",
    "running": true,
    "lat": 34.574583,
    "lon": 135.499389,
    "route": "河内松原駅前→阪和堺市駅前→堺駅前",
    "stop": "阪和堺市駅筋",
    "passTime": "18:09",
    "vehicleType": "南海バス(車椅子・ベビーカー・ノンステップ)",
    "updateTime": "2026/07/19 18:09"
  },
  {
    "vehicleNum": "080822",
    "vehicleCd": "576",
    "vehicleCorpCd": "1",
    "running": true,
    "lat": 34.534083,
    "lon": 135.476694,
    "route": "堺東駅前→堀上緑町１丁→堺東駅前",
    "stop": "堀上緑町一丁（６０号棟前）",
    "passTime": "18:07",
    "vehicleType": "南海バス(車椅子・ベビーカー・ノンステップ)",
    "updateTime": "2026/07/19 18:09"
  },
  {
    "vehicleNum": "080826",
    "vehicleCd": "152",
    "vehicleCorpCd": "1",
    "running": true,
    "lat": 34.536083,
    "lon": 135.552694,
    "route": "初芝駅前→平尾→初芝駅前",
    "stop": "農芸高校前",
    "passTime": "18:08",
    "vehicleType": "南海バス(車椅子・ベビーカー・ノンステップ)",
    "updateTime": "2026/07/19 18:09"
  },
  {
    "vehicleNum": "080827",
    "vehicleCd": "317",
    "vehicleCorpCd": "1",
    "running": true,
    "lat": 34.542778,
    "lon": 135.5265,
    "route": "美原区役所前→船戸下→初芝駅前→中もず駅前",
    "stop": "初芝駅前",
    "passTime": "18:08",
    "vehicleType": "南海バス(車椅子・ベビーカー・ノンステップ)",
    "updateTime": "2026/07/19 18:09"
  },
  {
    "vehicleNum": "080837",
    "vehicleCd": "351",
    "vehicleCorpCd": "1",
    "running": true,
    "lat": 34.567278,
    "lon": 135.478889,
    "route": "堺東駅前→上野芝駅前→東山車庫前",
    "stop": "賑町",
    "passTime": "18:09",
    "vehicleType": "南海バス(車椅子・ベビーカー・ノンステップ)",
    "updateTime": "2026/07/19 18:09"
  },
  {
    "vehicleNum": "080845",
    "vehicleCd": "319",
    "vehicleCorpCd": "1",
    "running": true,
    "lat": 34.531889,
    "lon": 135.507083,
    "route": "堺東駅前→もず駅前→深井駅→あみだ池",
    "stop": "深井東町",
    "passTime": "18:08",
    "vehicleType": "南海バス(車椅子・ベビーカー・ノンステップ)",
    "updateTime": "2026/07/19 18:09"
  },
  {
    "vehicleNum": "080847",
    "vehicleCd": "583",
    "vehicleCorpCd": "1",
    "running": true,
    "lat": 34.497083,
    "lon": 135.508972,
    "route": "津久野駅前→堺市立総合医療センター前→泉北２号線→泉ヶ丘駅",
    "stop": "竹城台３丁",
    "passTime": "18:08",
    "vehicleType": "南海バス(車椅子・ベビーカー・ノンステップ)",
    "updateTime": "2026/07/19 18:09"
  },
  {
    "vehicleNum": "080852",
    "vehicleCd": "584",
    "vehicleCorpCd": "1",
    "running": true,
    "lat": 34.506278,
    "lon": 135.578778,
    "route": "金剛駅前→向陽・藤沢回り→金剛駅前",
    "stop": "向陽台３丁目",
    "passTime": "18:09",
    "vehicleType": "南海バス(車椅子・ベビーカー・ノンステップ)",
    "updateTime": "2026/07/19 18:09"
  },
  {
    "vehicleNum": "080855",
    "vehicleCd": "16",
    "vehicleCorpCd": "1",
    "running": true,
    "lat": 34.484778,
    "lon": 135.5275,
    "route": "泉ヶ丘駅→狭山ニュータウンセンター→金剛駅前",
    "stop": "槙塚台センター",
    "passTime": "18:09",
    "vehicleType": "南海バス(車椅子・ベビーカー・ノンステップ)",
    "updateTime": "2026/07/19 18:09"
  },
  {
    "vehicleNum": "080858",
    "vehicleCd": "225",
    "vehicleCorpCd": "1",
    "running": true,
    "lat": 34.582778,
    "lon": 135.486278,
    "route": "堺東駅前→錦綾町→河内天美駅前",
    "stop": "北庄町",
    "passTime": "18:09",
    "vehicleType": "南海バス(車椅子・ベビーカー・ノンステップ)",
    "updateTime": "2026/07/19 18:09"
  },
  {
    "vehicleNum": "080864",
    "vehicleCd": "146",
    "vehicleCorpCd": "1",
    "running": true,
    "lat": 34.566194,
    "lon": 135.516778,
    "route": "地下鉄新金岡駅前→堺駅南口",
    "stop": "地下鉄新金岡駅前",
    "passTime": "18:08",
    "vehicleType": "南海バス(車椅子・ベビーカー・ノンステップ)",
    "updateTime": "2026/07/19 18:09"
  },
  {
    "vehicleNum": "080865",
    "vehicleCd": "504",
    "vehicleCorpCd": "1",
    "running": true,
    "lat": 34.5845,
    "lon": 135.471694,
    "route": "海浜匠町→匠町→堺駅西口→堺東駅前→阪和堺市駅前",
    "stop": "戎島",
    "passTime": "18:06",
    "vehicleType": "南海バス(車椅子・ベビーカー・ノンステップ)",
    "updateTime": "2026/07/19 18:09"
  },
  {
    "vehicleNum": "080866",
    "vehicleCd": "497",
    "vehicleCorpCd": "1",
    "running": true,
    "lat": 34.497194,
    "lon": 135.569583,
    "route": "金剛駅前→向陽・藤沢回り→金剛駅前",
    "stop": "高辺台三丁目",
    "passTime": "18:09",
    "vehicleType": "南海バス(車椅子・ベビーカー・ノンステップ)",
    "updateTime": "2026/07/19 18:09"
  },
  {
    "vehicleNum": "080867",
    "vehicleCd": "364",
    "vehicleCorpCd": "1",
    "running": true,
    "lat": 34.491278,
    "lon": 135.527778,
    "route": "泉ヶ丘駅→晴美台右回り→泉ヶ丘駅",
    "stop": "高倉台４丁",
    "passTime": "18:08",
    "vehicleType": "南海バス(車椅子・ベビーカー・ノンステップ)",
    "updateTime": "2026/07/19 18:09"
  },
  {
    "vehicleNum": "080876",
    "vehicleCd": "390",
    "vehicleCorpCd": "1",
    "running": true,
    "lat": 34.544889,
    "lon": 135.489389,
    "route": "中もず駅前→北条→伏尾",
    "stop": "もず陵南町西",
    "passTime": "18:08",
    "vehicleType": "南海バス(車椅子・ベビーカー・ノンステップ)",
    "updateTime": "2026/07/19 18:09"
  },
  {
    "vehicleNum": "080877",
    "vehicleCd": "588",
    "vehicleCorpCd": "1",
    "running": true,
    "lat": 34.525083,
    "lon": 135.5255,
    "route": "北野田駅前→福町→堺駅南口",
    "stop": "下出口",
    "passTime": "18:09",
    "vehicleType": "南海バス(車椅子・ベビーカー・ノンステップ)",
    "updateTime": "2026/07/19 18:09"
  },
  {
    "vehicleNum": "080884",
    "vehicleCd": "116",
    "vehicleCorpCd": "1",
    "running": true,
    "lat": 34.487583,
    "lon": 135.522194,
    "route": "泉ヶ丘駅→槙塚台左回り→泉ヶ丘駅",
    "stop": "茶山台南口",
    "passTime": "18:09",
    "vehicleType": "南海バス(車椅子・ベビーカー・ノンステップ)",
    "updateTime": "2026/07/19 18:09"
  },
  {
    "vehicleNum": "080895",
    "vehicleCd": "167",
    "vehicleCorpCd": "1",
    "running": true,
    "lat": 34.565194,
    "lon": 135.5175,
    "route": "地下鉄新金岡駅前→野遠→美原区役所",
    "stop": "北区役所前",
    "passTime": "18:09",
    "vehicleType": "南海バス(車椅子・ベビーカー・ノンステップ)",
    "updateTime": "2026/07/19 18:09"
  },
  {
    "vehicleNum": "080904",
    "vehicleCd": "362",
    "vehicleCorpCd": "1",
    "running": true,
    "lat": 34.521194,
    "lon": 135.516694,
    "route": "深井駅→東山車庫前→北野田駅前",
    "stop": "西山",
    "passTime": "18:08",
    "vehicleType": "南海バス(車椅子・ベビーカー・ノンステップ)",
    "updateTime": "2026/07/19 18:09"
  },
  {
    "vehicleNum": "080905",
    "vehicleCd": "353",
    "vehicleCorpCd": "1",
    "running": true,
    "lat": 34.475278,
    "lon": 135.492083,
    "route": "栂・美木多駅→御池台回り→栂・美木多駅",
    "stop": "原山台３丁",
    "passTime": "18:08",
    "vehicleType": "南海バス(車椅子・ベビーカー・ノンステップ)",
    "updateTime": "2026/07/19 18:09"
  },
  {
    "vehicleNum": "080913",
    "vehicleCd": "128",
    "vehicleCorpCd": "1",
    "running": true,
    "lat": 34.601278,
    "lon": 135.450889,
    "route": "堺東駅前→錦綾町→堺駅西口",
    "stop": "堺浜北",
    "passTime": "18:09",
    "vehicleType": "南海バス(車椅子・ベビーカー・ノンステップ)",
    "updateTime": "2026/07/19 18:09"
  },
  {
    "vehicleNum": "080928",
    "vehicleCd": "348",
    "vehicleCorpCd": "1",
    "running": true,
    "lat": 34.463778,
    "lon": 135.501583,
    "route": "栂・美木多駅→御池台回り→栂・美木多駅",
    "stop": "御池台センター",
    "passTime": "18:09",
    "vehicleType": "南海バス(車椅子・ベビーカー・ノンステップ)",
    "updateTime": "2026/07/19 18:09"
  },
  {
    "vehicleNum": "080977",
    "vehicleCd": "388",
    "vehicleCorpCd": "1",
    "running": true,
    "lat": 34.527889,
    "lon": 135.474083,
    "route": "深井駅→八田荘団地→津久野駅前",
    "stop": "毛穴なかよし橋",
    "passTime": "18:08",
    "vehicleType": "南海バス(車椅子・ベビーカー・ノンステップ)",
    "updateTime": "2026/07/19 18:09"
  },
  {
    "vehicleNum": "080978",
    "vehicleCd": "431",
    "vehicleCorpCd": "1",
    "running": true,
    "lat": 34.531889,
    "lon": 135.523694,
    "route": "堺駅南口→三国ヶ丘駅前→北野田駅前",
    "stop": "関茶屋",
    "passTime": "18:08",
    "vehicleType": "南海バス(車椅子・ベビーカー・ノンステップ)",
    "updateTime": "2026/07/19 18:09"
  },
  {
    "vehicleNum": "080995",
    "vehicleCd": "118",
    "vehicleCorpCd": "1",
    "running": true,
    "lat": 34.475778,
    "lon": 135.494,
    "route": "栂・美木多駅→庭代台右回り→栂・美木多駅",
    "stop": "原山台３丁",
    "passTime": "18:08",
    "vehicleType": "南海バス(車椅子・ベビーカー・ノンステップ)",
    "updateTime": "2026/07/19 18:09"
  },
  {
    "vehicleNum": "081004",
    "vehicleCd": "271",
    "vehicleCorpCd": "1",
    "running": true,
    "lat": 34.554472,
    "lon": 135.500694,
    "route": "堺駅南口→福町→北野田駅前",
    "stop": "中もず駅前（南側）",
    "passTime": "18:06",
    "vehicleType": "南海バス(車椅子・ベビーカー・ノンステップ)",
    "updateTime": "2026/07/19 18:09"
  },
  {
    "vehicleNum": "081007",
    "vehicleCd": "127",
    "vehicleCorpCd": "1",
    "running": true,
    "lat": 34.518583,
    "lon": 135.4905,
    "route": "堺東駅前→上野芝→泉ヶ丘駅",
    "stop": "小阪",
    "passTime": "18:07",
    "vehicleType": "南海バス(車椅子・ベビーカー・ノンステップ)",
    "updateTime": "2026/07/19 18:09"
  },
  {
    "vehicleNum": "081013",
    "vehicleCd": "554",
    "vehicleCorpCd": "1",
    "running": true,
    "lat": 34.568583,
    "lon": 135.484889,
    "route": "堺駅南口→福町→北野田駅前",
    "stop": "永山園",
    "passTime": "18:09",
    "vehicleType": "南海バス(車椅子・ベビーカー・ノンステップ)",
    "updateTime": "2026/07/19 18:09"
  },
  {
    "vehicleNum": "081019",
    "vehicleCd": "267",
    "vehicleCorpCd": "1",
    "running": true,
    "lat": 34.557889,
    "lon": 135.494889,
    "route": "北野田駅前→西口園→堺駅南口",
    "stop": "中もず町",
    "passTime": "18:08",
    "vehicleType": "南海バス(車椅子・ベビーカー・ノンステップ)",
    "updateTime": "2026/07/19 18:09"
  },
  {
    "vehicleNum": "081021",
    "vehicleCd": "243",
    "vehicleCorpCd": "1",
    "running": true,
    "lat": 34.536083,
    "lon": 135.555083,
    "route": "初芝駅前→平尾→中もず駅前",
    "stop": "黒山",
    "passTime": "18:09",
    "vehicleType": "南海バス(車椅子・ベビーカー・ノンステップ)",
    "updateTime": "2026/07/19 18:09"
  },
  {
    "vehicleNum": "081034",
    "vehicleCd": "120",
    "vehicleCorpCd": "1",
    "running": true,
    "lat": 34.494972,
    "lon": 135.524694,
    "route": "泉ヶ丘駅→スマ・エコタウン晴美台→高倉台左回り→泉ヶ丘駅",
    "stop": "高倉台センター",
    "passTime": "18:09",
    "vehicleType": "南海バス(車椅子・ベビーカー・ノンステップ)",
    "updateTime": "2026/07/19 18:09"
  },
  {
    "vehicleNum": "081036",
    "vehicleCd": "293",
    "vehicleCorpCd": "1",
    "running": true,
    "lat": 34.485583,
    "lon": 135.503194,
    "route": "泉ヶ丘駅→鉢ヶ峯→泉ヶ丘駅",
    "stop": "片蔵",
    "passTime": "18:09",
    "vehicleType": "南海バス(車椅子・ベビーカー・ノンステップ)",
    "updateTime": "2026/07/19 18:09"
  },
  {
    "vehicleNum": "090144",
    "vehicleCd": "82",
    "vehicleCorpCd": "2",
    "running": true,
    "lat": 34.432583,
    "lon": 135.393778,
    "route": "岸和田駅前→天神山・一の宮循環　右回り→岸和田駅前",
    "stop": "天神山町１丁目",
    "passTime": "18:08",
    "vehicleType": "南海ウイングバス(車椅子・ベビーカー・ワンステップ)",
    "updateTime": "2026/07/19 18:09"
  },
  {
    "vehicleNum": "090104",
    "vehicleCd": "53",
    "vehicleCorpCd": "2",
    "running": true,
    "lat": 34.461389,
    "lon": 135.393778,
    "route": "牛滝温泉→内畑→岸和田駅前",
    "stop": "市民病院前",
    "passTime": "18:06",
    "vehicleType": "南海ウイングバス(車椅子・ベビーカー・ワンステップ)",
    "updateTime": "2026/07/19 18:09"
  },
  {
    "vehicleNum": "081045",
    "vehicleCd": "188",
    "vehicleCorpCd": "1",
    "running": true,
    "lat": 34.544389,
    "lon": 135.500472,
    "route": "あみだ池→深井駅→もず駅前→堺東駅前",
    "stop": "土師",
    "passTime": "18:08",
    "vehicleType": "南海バス(車椅子・ベビーカー・ノンステップ)",
    "updateTime": "2026/07/19 18:09"
  },
  {
    "vehicleNum": "090160",
    "vehicleCd": "72",
    "vehicleCorpCd": "2",
    "running": true,
    "lat": 34.454583,
    "lon": 135.385889,
    "route": "道の駅愛彩ランド→岸和田警察署前→岸和田駅前",
    "stop": "下松（市民病院南）",
    "passTime": "18:05",
    "vehicleType": "南海ウイングバス(車椅子・ワンステップ)",
    "updateTime": "2026/07/19 18:09"
  },
  {
    "vehicleNum": "090170",
    "vehicleCd": "117",
    "vehicleCorpCd": "2",
    "running": true,
    "lat": 34.405389,
    "lon": 135.359389,
    "route": "熊取駅前→熊取ニュータウン(フリー乗降)",
    "stop": "自由が丘",
    "passTime": "18:09",
    "vehicleType": "南海ウイングバス",
    "updateTime": "2026/07/19 18:09"
  },
  {
    "vehicleNum": "091595",
    "vehicleCd": "199",
    "vehicleCorpCd": "1",
    "running": true,
    "lat": 34.436278,
    "lon": 135.241694,
    "route": "第２ターミナル(国内線・国際線)→エアロプラザ",
    "stop": "第2ターミナル国際線",
    "passTime": "18:01",
    "vehicleType": "南海バス(車椅子・ノンステップ)",
    "updateTime": "2026/07/19 18:09"
  },
  {
    "vehicleNum": "091580",
    "vehicleCd": "85",
    "vehicleCorpCd": "2",
    "running": true,
    "lat": 34.360778,
    "lon": 135.282278,
    "route": "泉南市コミュニティバス 新家回り",
    "stop": "砂川駅前",
    "passTime": "18:08",
    "vehicleType": "南海ウイングバス(車椅子・ベビーカー・ノンステップ)",
    "updateTime": "2026/07/19 18:09"
  },
  {
    "vehicleNum": "091744",
    "vehicleCd": "148",
    "vehicleCorpCd": "2",
    "running": true,
    "lat": 34.462694,
    "lon": 135.439583,
    "route": "岸和田駅前→荒木町→和泉中央駅",
    "stop": "摩湯",
    "passTime": "18:08",
    "vehicleType": "南海ウイングバス(車椅子・ベビーカー・ワンステップ)",
    "updateTime": "2026/07/19 18:09"
  },
  {
    "vehicleNum": "091745",
    "vehicleCd": "103",
    "vehicleCorpCd": "2",
    "running": true,
    "lat": 34.448278,
    "lon": 135.3845,
    "route": "岸和田駅前→岸和田警察署前→塔原",
    "stop": "東岸和田駅前",
    "passTime": "18:07",
    "vehicleType": "南海ウイングバス",
    "updateTime": "2026/07/19 18:09"
  },
  {
    "vehicleNum": "091736",
    "vehicleCd": "65",
    "vehicleCorpCd": "2",
    "running": true,
    "lat": 34.407083,
    "lon": 135.412278,
    "route": "白原車庫→河合→岸和田警察署前→岸和田駅前",
    "stop": "船渡",
    "passTime": "18:09",
    "vehicleType": "南海ウイングバス(車椅子・ワンステップ)",
    "updateTime": "2026/07/19 18:09"
  },
  {
    "vehicleNum": "091837",
    "vehicleCd": "209",
    "vehicleCorpCd": "1",
    "running": true,
    "lat": 34.577389,
    "lon": 135.476389,
    "route": "堺東駅前→フェリー→ＡＴＣ→海遊館→堺東駅前",
    "stop": "堺東駅前",
    "passTime": "18:05",
    "vehicleType": "南海バス",
    "updateTime": "2026/07/19 18:09"
  },
  {
    "vehicleNum": "091894",
    "vehicleCd": "3",
    "vehicleCorpCd": "2",
    "running": true,
    "lat": 34.380472,
    "lon": 135.272389,
    "route": "泉南市コミュニティバス 一丘Ａ回り",
    "stop": "鳴滝",
    "passTime": "18:06",
    "vehicleType": "泉南市コミュニティバス(紫)",
    "updateTime": "2026/07/19 18:09"
  },
  {
    "vehicleNum": "091895",
    "vehicleCd": "4",
    "vehicleCorpCd": "2",
    "running": true,
    "lat": 34.326778,
    "lon": 135.304,
    "route": "泉南市コミュニティバス 山回り",
    "stop": "童子畑",
    "passTime": "18:09",
    "vehicleType": "泉南市コミュニティバス(ピンク)",
    "updateTime": "2026/07/19 18:09"
  },
  {
    "vehicleNum": "091910",
    "vehicleCd": "441",
    "vehicleCorpCd": "1",
    "running": true,
    "lat": 34.438,
    "lon": 135.232778,
    "route": "エアロプラザ→第２ターミナル(国内線・国際線)→エアロプラザ",
    "stop": "第2ターミナル国内線",
    "passTime": "18:07",
    "vehicleType": "南海バス(車椅子・ノンステップ)",
    "updateTime": "2026/07/19 18:09"
  },
  {
    "vehicleNum": "092044",
    "vehicleCd": "462",
    "vehicleCorpCd": "1",
    "running": true,
    "lat": 34.472,
    "lon": 135.571694,
    "route": "ﾓｯｸﾙ 美加～木戸東町～美加",
    "stop": "大阪南医療センター前",
    "passTime": "18:01",
    "vehicleType": "南海バス(車椅子・ベビーカー・ノンステップ)",
    "updateTime": "2026/07/19 18:09"
  },
  {
    "vehicleNum": "092204",
    "vehicleCd": "416",
    "vehicleCorpCd": "1",
    "running": true,
    "lat": 34.4255,
    "lon": 135.533694,
    "route": "旭→天野山→長野",
    "stop": "旭ヶ丘口",
    "passTime": "18:06",
    "vehicleType": "南海バス",
    "updateTime": "2026/07/19 18:09"
  },
  {
    "vehicleNum": "092345",
    "vehicleCd": "160",
    "vehicleCorpCd": "1",
    "running": true,
    "lat": 34.4255,
    "lon": 135.231,
    "route": "給油地区→空港駅",
    "stop": "JAL輸出ビル前",
    "passTime": "18:08",
    "vehicleType": "南海バス",
    "updateTime": "2026/07/19 18:09"
  },
  {
    "vehicleNum": "092372",
    "vehicleCd": "159",
    "vehicleCorpCd": "1",
    "running": true,
    "lat": 34.448583,
    "lon": 135.490694,
    "route": "みずき台２丁目西→光明池駅",
    "stop": "みずき台一丁目",
    "passTime": "18:08",
    "vehicleType": "南海バス(車椅子・ベビーカー・ノンステップ)",
    "updateTime": "2026/07/19 18:09"
  },
  {
    "vehicleNum": "092384",
    "vehicleCd": "558",
    "vehicleCorpCd": "1",
    "running": true,
    "lat": 34.496,
    "lon": 135.466889,
    "route": "光明池駅→山田→堺東駅前",
    "stop": "日本工機前",
    "passTime": "18:09",
    "vehicleType": "南海バス(車椅子・ベビーカー・ノンステップ)",
    "updateTime": "2026/07/19 18:09"
  },
  {
    "vehicleNum": "092398",
    "vehicleCd": "41",
    "vehicleCorpCd": "1",
    "running": true,
    "lat": 34.436972,
    "lon": 135.231889,
    "route": "エアロプラザ→第２ターミナル(国内線・国際線)→エアロプラザ",
    "stop": "エアロプラザ",
    "passTime": "18:05",
    "vehicleType": "南海バス(車椅子・ノンステップ)",
    "updateTime": "2026/07/19 18:09"
  },
  {
    "vehicleNum": "092394",
    "vehicleCd": "42",
    "vehicleCorpCd": "1",
    "running": true,
    "lat": 34.435778,
    "lon": 135.241889,
    "route": "エアロプラザ→第２ターミナル(国内線・国際線)→エアロプラザ",
    "stop": "第2ターミナル国際線",
    "passTime": "18:03",
    "vehicleType": "南海バス(車椅子・ノンステップ)",
    "updateTime": "2026/07/19 18:09"
  },
  {
    "vehicleNum": "092482",
    "vehicleCd": "528",
    "vehicleCorpCd": "1",
    "running": true,
    "lat": 34.446194,
    "lon": 135.578694,
    "route": "小吹台→河内長野駅前",
    "stop": "河合寺",
    "passTime": "18:09",
    "vehicleType": "南海バス(車椅子・ベビーカー・ノンステップ)",
    "updateTime": "2026/07/19 18:09"
  },
  {
    "vehicleNum": "092498",
    "vehicleCd": "8",
    "vehicleCorpCd": "1",
    "running": true,
    "lat": 34.515583,
    "lon": 135.473083,
    "route": "堺東駅前→鳳駅前→栂・美木多駅",
    "stop": "万崎",
    "passTime": "18:09",
    "vehicleType": "南海バス(車椅子・ベビーカー・ノンステップ)",
    "updateTime": "2026/07/19 18:09"
  },
  {
    "vehicleNum": "092533",
    "vehicleCd": "288",
    "vehicleCorpCd": "1",
    "running": true,
    "lat": 34.457694,
    "lon": 135.482583,
    "route": "光明池駅→光明池車庫→和泉中央駅→泉大津駅前",
    "stop": "光明台北小学校前",
    "passTime": "18:09",
    "vehicleType": "南海バス(車椅子・ベビーカー・ノンステップ)",
    "updateTime": "2026/07/19 18:09"
  },
  {
    "vehicleNum": "092534",
    "vehicleCd": "265",
    "vehicleCorpCd": "1",
    "running": true,
    "lat": 34.467083,
    "lon": 135.494583,
    "route": "国分峠東→栂・美木多駅→堺東駅前",
    "stop": "八田",
    "passTime": "18:09",
    "vehicleType": "南海バス(車椅子・ベビーカー・ノンステップ)",
    "updateTime": "2026/07/19 18:09"
  },
  {
    "vehicleNum": "092580",
    "vehicleCd": "377",
    "vehicleCorpCd": "1",
    "running": true,
    "lat": 34.478083,
    "lon": 135.424778,
    "route": "和泉府中駅前→寺田→和泉中央駅",
    "stop": "和気",
    "passTime": "18:09",
    "vehicleType": "南海バス(車椅子・ベビーカー・ノンステップ)",
    "updateTime": "2026/07/19 18:10"
  },
  {
    "vehicleNum": "092648",
    "vehicleCd": "486",
    "vehicleCorpCd": "1",
    "running": true,
    "lat": 34.433778,
    "lon": 135.562,
    "route": "三日市町駅前→南花台１丁目北→大矢船西町",
    "stop": "南花台１丁目北",
    "passTime": "18:08",
    "vehicleType": "南海バス(車椅子・ベビーカー・ノンステップ)",
    "updateTime": "2026/07/19 18:10"
  },
  {
    "vehicleNum": "092653",
    "vehicleCd": "357",
    "vehicleCorpCd": "1",
    "running": true,
    "lat": 34.420583,
    "lon": 135.591583,
    "route": "美加の台駅前→美加の台口→美加の台駅前",
    "stop": "美加の台",
    "passTime": "18:09",
    "vehicleType": "南海バス(車椅子・ベビーカー・ノンステップ)",
    "updateTime": "2026/07/19 18:10"
  },
  {
    "vehicleNum": "092655",
    "vehicleCd": "168",
    "vehicleCorpCd": "1",
    "running": true,
    "lat": 34.437194,
    "lon": 135.584694,
    "route": "三日市町駅前→清見台回り→三日市町駅前",
    "stop": "川上小学校前",
    "passTime": "18:08",
    "vehicleType": "南海バス(車椅子・ベビーカー・ノンステップ)",
    "updateTime": "2026/07/19 18:10"
  },
  {
    "vehicleNum": "092595",
    "vehicleCd": "326",
    "vehicleCorpCd": "1",
    "running": true,
    "lat": 34.422194,
    "lon": 135.558583,
    "route": "南ヶ丘→南花台４丁目→三日市町駅前",
    "stop": "大矢船北町（南花台系統）",
    "passTime": "18:09",
    "vehicleType": "南海バス(車椅子・ベビーカー・ノンステップ)",
    "updateTime": "2026/07/19 18:10"
  },
  {
    "vehicleNum": "092761",
    "vehicleCd": "23",
    "vehicleCorpCd": "1",
    "running": true,
    "lat": 34.422194,
    "lon": 135.569694,
    "route": "三日市町駅前→南青葉台→三日市町駅前",
    "stop": "青葉台センター前",
    "passTime": "18:09",
    "vehicleType": "南海バス(車椅子・ベビーカー・ノンステップ)",
    "updateTime": "2026/07/19 18:10"
  },
  {
    "vehicleNum": "092795",
    "vehicleCd": "592",
    "vehicleCorpCd": "1",
    "running": true,
    "lat": 34.447389,
    "lon": 135.457778,
    "route": "美術館前→のぞみ野南→和泉中央駅",
    "stop": "内田上",
    "passTime": "18:08",
    "vehicleType": "南海バス(車椅子・ベビーカー・ノンステップ)",
    "updateTime": "2026/07/19 18:10"
  },
  {
    "vehicleNum": "092763",
    "vehicleCd": "520",
    "vehicleCorpCd": "1",
    "running": true,
    "lat": 34.493194,
    "lon": 135.413583,
    "route": "泉大津駅前→和泉府中駅前→和泉中央駅→光明池駅",
    "stop": "池浦",
    "passTime": "18:05",
    "vehicleType": "南海バス(車椅子・ベビーカー・ノンステップ)",
    "updateTime": "2026/07/19 18:10"
  },
  {
    "vehicleNum": "092856",
    "vehicleCd": "601",
    "vehicleCorpCd": "1",
    "running": true,
    "lat": 34.437889,
    "lon": 135.449694,
    "route": "和泉中央駅→テクノステージセンター前→和泉中央駅",
    "stop": "ららぽーと和泉前",
    "passTime": "18:09",
    "vehicleType": "南海バス(車椅子・ベビーカー・ノンステップ)",
    "updateTime": "2026/07/19 18:10"
  },
  {
    "vehicleNum": "092857",
    "vehicleCd": "516",
    "vehicleCorpCd": "1",
    "running": true,
    "lat": 34.505389,
    "lon": 135.449889,
    "route": "北信太駅筋→鶴山台団地→北信太駅筋",
    "stop": "信太中学校前",
    "passTime": "18:08",
    "vehicleType": "南海バス(車椅子・ベビーカー・ノンステップ)",
    "updateTime": "2026/07/19 18:10"
  },
  {
    "vehicleNum": "092858",
    "vehicleCd": "320",
    "vehicleCorpCd": "1",
    "running": true,
    "lat": 34.479889,
    "lon": 135.4305,
    "route": "ららぽーと和泉前→和泉中央駅→和泉府中駅前",
    "stop": "和泉市立総合医療センター前",
    "passTime": "18:08",
    "vehicleType": "南海バス(車椅子・ベビーカー・ノンステップ)",
    "updateTime": "2026/07/19 18:10"
  },
  {
    "vehicleNum": "092872",
    "vehicleCd": "500",
    "vehicleCorpCd": "1",
    "running": true,
    "lat": 34.533194,
    "lon": 135.462583,
    "route": "堺東駅前→鳳駅前→光明池駅",
    "stop": "西区役所前",
    "passTime": "18:06",
    "vehicleType": "南海バス(車椅子・ベビーカー・ノンステップ)",
    "updateTime": "2026/07/19 18:10"
  },
  {
    "vehicleNum": "092900",
    "vehicleCd": "604",
    "vehicleCorpCd": "1",
    "running": true,
    "lat": 34.470778,
    "lon": 135.455778,
    "route": "和泉中央駅→阪本→泉大津駅前",
    "stop": "北池田",
    "passTime": "18:09",
    "vehicleType": "南海バス(車椅子・ベビーカー・ノンステップ)",
    "updateTime": "2026/07/19 18:10"
  },
  {
    "vehicleNum": "092916",
    "vehicleCd": "235",
    "vehicleCorpCd": "1",
    "running": true,
    "lat": 34.469389,
    "lon": 135.443972,
    "route": "和泉府中駅前→いぶき野→和泉中央駅",
    "stop": "弥生自治会館前",
    "passTime": "18:08",
    "vehicleType": "南海バス(車椅子・ベビーカー・ノンステップ)",
    "updateTime": "2026/07/19 18:10"
  },
  {
    "vehicleNum": "092915",
    "vehicleCd": "346",
    "vehicleCorpCd": "1",
    "running": true,
    "lat": 34.451889,
    "lon": 135.574194,
    "route": "長野→こんごう福祉",
    "stop": "河合寺",
    "passTime": "18:07",
    "vehicleType": "南海バス(車椅子・ベビーカー・ノンステップ)",
    "updateTime": "2026/07/19 18:10"
  },
  {
    "vehicleNum": "092901",
    "vehicleCd": "356",
    "vehicleCorpCd": "1",
    "running": true,
    "lat": 34.486889,
    "lon": 135.424083,
    "route": "和泉中央駅→寺田→泉大津駅前",
    "stop": "和泉府中駅前",
    "passTime": "18:08",
    "vehicleType": "南海バス(車椅子・ベビーカー・ノンステップ)",
    "updateTime": "2026/07/19 18:10"
  },
  {
    "vehicleNum": "092918",
    "vehicleCd": "114",
    "vehicleCorpCd": "1",
    "running": true,
    "lat": 34.545472,
    "lon": 135.463389,
    "route": "光明池駅→山田→堺東駅前",
    "stop": "下田",
    "passTime": "18:09",
    "vehicleType": "南海バス(車椅子・ベビーカー・ノンステップ)",
    "updateTime": "2026/07/19 18:10"
  },
  {
    "vehicleNum": "092951",
    "vehicleCd": "340",
    "vehicleCorpCd": "1",
    "running": true,
    "lat": 34.473694,
    "lon": 135.477278,
    "route": "光明池駅→城山台５丁→みずき台２丁目西",
    "stop": "光明池駅",
    "passTime": "18:08",
    "vehicleType": "南海バス(車椅子・ベビーカー・ノンステップ)",
    "updateTime": "2026/07/19 18:10"
  },
  {
    "vehicleNum": "092952",
    "vehicleCd": "113",
    "vehicleCorpCd": "1",
    "running": true,
    "lat": 34.460889,
    "lon": 135.456278,
    "route": "泉大津駅前→和泉中央駅→和泉青葉台",
    "stop": "和泉中央駅",
    "passTime": "18:09",
    "vehicleType": "南海バス(車椅子・ベビーカー・ノンステップ)",
    "updateTime": "2026/07/19 18:10"
  },
  {
    "vehicleNum": "092975",
    "vehicleCd": "115",
    "vehicleCorpCd": "1",
    "running": true,
    "lat": 34.449194,
    "lon": 135.447694,
    "route": "ららぽーと和泉前→直行→和泉中央駅",
    "stop": "ららぽーと和泉前",
    "passTime": "18:06",
    "vehicleType": "南海バス(車椅子・ベビーカー・ノンステップ)",
    "updateTime": "2026/07/19 18:10"
  },
  {
    "vehicleNum": "092978",
    "vehicleCd": "325",
    "vehicleCorpCd": "1",
    "running": true,
    "lat": 34.440583,
    "lon": 135.466778,
    "route": "和泉中央駅→はつが野六丁目→和泉中央駅",
    "stop": "はつが野三丁目",
    "passTime": "18:07",
    "vehicleType": "南海バス(車椅子・ベビーカー・ノンステップ)",
    "updateTime": "2026/07/19 18:10"
  },
  {
    "vehicleNum": "093071",
    "vehicleCd": "274",
    "vehicleCorpCd": "1",
    "running": true,
    "lat": 34.474778,
    "lon": 135.473389,
    "route": "光明池駅→赤坂台４丁→光明池駅",
    "stop": "光明池駅",
    "passTime": "18:08",
    "vehicleType": "南海バス(車椅子・ベビーカー・ノンステップ)",
    "updateTime": "2026/07/19 18:10"
  },
  {
    "vehicleNum": "093113",
    "vehicleCd": "133",
    "vehicleCorpCd": "1",
    "running": true,
    "lat": 34.473389,
    "lon": 135.467389,
    "route": "堺東駅前→鳳駅前→光明池駅",
    "stop": "伏屋",
    "passTime": "18:08",
    "vehicleType": "南海バス(車椅子・ベビーカー・ノンステップ)",
    "updateTime": "2026/07/19 18:10"
  }
]