[
  {
    "vehicleNum": "070103",
    "vehicleCd": "425",
    "vehicleCorpCd": "1",
    "running": true,
    "lat": 34.497,
    "lon": 135.556778,
    "route": "泉ヶ丘駅→狭山ニュータウンセンター→金剛駅前",
    "stop": "半田",
    "passTime": "19:35",
    "vehicleType": "泉北コミュニティバス(車椅子・ベビーカー・ノンステップ)",
    "updateTime": "2026/07/21 19:36"
  },
  {
    "vehicleNum": "070101",
    "vehicleCd": "400",
    "vehicleCorpCd": "1",
    "running": true,
    "lat": 34.479694,
    "lon": 135.547694,
    "route": "金剛駅前→狭山ニュータウンセンター→泉ヶ丘駅",
    "stop": "狭山ニュータウンセンター",
    "passTime": "19:33",
    "vehicleType": "泉北コミュニティバス(車椅子・ベビーカー・ノンステップ)",
    "updateTime": "2026/07/21 19:36"
  },
  {
    "vehicleNum": "070107",
    "vehicleCd": "405",
    "vehicleCorpCd": "1",
    "running": true,
    "lat": 34.489778,
    "lon": 135.542389,
    "route": "泉ヶ丘駅→狭山ニュータウンセンター→金剛駅前",
    "stop": "南第一小学校前",
    "passTime": "19:35",
    "vehicleType": "泉北コミュニティバス(車椅子・ベビーカー・ノンステップ)",
    "updateTime": "2026/07/21 19:36"
  },
  {
    "vehicleNum": "071602",
    "vehicleCd": "109",
    "vehicleCorpCd": "1",
    "running": true,
    "lat": 34.578889,
    "lon": 135.474194,
    "route": "堺駅前→大小路→堺東駅前",
    "stop": "市小学校前",
    "passTime": "19:35",
    "vehicleType": "堺シャトル(車椅子・ベビーカー・ノンステップ)",
    "updateTime": "2026/07/21 19:36"
  },
  {
    "vehicleNum": "071604",
    "vehicleCd": "217",
    "vehicleCorpCd": "1",
    "running": true,
    "lat": 34.574194,
    "lon": 135.484194,
    "route": "堺東駅前→大小路→堺駅前",
    "stop": "堺東駅前",
    "passTime": "19:35",
    "vehicleType": "堺シャトル(車椅子・ベビーカー・ノンステップ)",
    "updateTime": "2026/07/21 19:36"
  },
  {
    "vehicleNum": "072501",
    "vehicleCd": "598",
    "vehicleCorpCd": "1",
    "running": true,
    "lat": 34.575278,
    "lon": 135.522278,
    "route": "河内松原駅前→阪和堺市駅前→堺東駅前",
    "stop": "南花田町",
    "passTime": "19:36",
    "vehicleType": "南海バス(車椅子・ベビーカー・ノンステップ)",
    "updateTime": "2026/07/21 19:36"
  },
  {
    "vehicleNum": "072502",
    "vehicleCd": "331",
    "vehicleCorpCd": "1",
    "running": true,
    "lat": 34.570083,
    "lon": 135.482389,
    "route": "堺駅南口→阪和堺市駅",
    "stop": "一条通",
    "passTime": "19:35",
    "vehicleType": "南海バス(車椅子・ベビーカー・ノンステップ)",
    "updateTime": "2026/07/21 19:36"
  },
  {
    "vehicleNum": "080105",
    "vehicleCd": "127",
    "vehicleCorpCd": "2",
    "running": true,
    "lat": 34.415972,
    "lon": 135.411472,
    "route": "岸和田駅前→岸和田警察署前→河合→白原車庫",
    "stop": "宮の台",
    "passTime": "19:35",
    "vehicleType": "南海ウイングバス(車椅子・ベビーカー・ワンステップ)",
    "updateTime": "2026/07/21 19:36"
  },
  {
    "vehicleNum": "080134",
    "vehicleCd": "118",
    "vehicleCorpCd": "2",
    "running": true,
    "lat": 34.437778,
    "lon": 135.43,
    "route": "岸和田駅前→下松駅前→道の駅愛彩ランド",
    "stop": "蜻蛉池公園前",
    "passTime": "19:32",
    "vehicleType": "南海ウイングバス(車椅子・ベビーカー・ワンステップ)",
    "updateTime": "2026/07/21 19:36"
  },
  {
    "vehicleNum": "080159",
    "vehicleCd": "145",
    "vehicleCorpCd": "1",
    "running": true,
    "lat": 34.554889,
    "lon": 135.492778,
    "route": "堺東駅前→もず駅前→深井駅→あみだ池",
    "stop": "もず駅前",
    "passTime": "19:34",
    "vehicleType": "南海バス(車椅子・ベビーカー・ワンステップ)",
    "updateTime": "2026/07/21 19:36"
  },
  {
    "vehicleNum": "080191",
    "vehicleCd": "68",
    "vehicleCorpCd": "1",
    "running": true,
    "lat": 34.569194,
    "lon": 135.501778,
    "route": "近畿中央呼吸器センター前→三国ヶ丘駅前",
    "stop": "近畿中央呼吸器センター前",
    "passTime": "19:35",
    "vehicleType": "南海バス(車椅子・ベビーカー・ワンステップ)",
    "updateTime": "2026/07/21 19:36"
  },
  {
    "vehicleNum": "080186",
    "vehicleCd": "39",
    "vehicleCorpCd": "2",
    "running": true,
    "lat": 34.400778,
    "lon": 135.344778,
    "route": "泉佐野駅前→ダンバラ公園前→熊取駅前→つばさが丘北口",
    "stop": "大久保",
    "passTime": "19:34",
    "vehicleType": "南海ウイングバス(車椅子・ベビーカー・ノンステップ)",
    "updateTime": "2026/07/21 19:36"
  },
  {
    "vehicleNum": "080270",
    "vehicleCd": "86",
    "vehicleCorpCd": "2",
    "running": true,
    "lat": 34.405583,
    "lon": 135.3415,
    "route": "つばさが丘北口→大阪体育大学前→熊取駅前→ダンバラ公園前→泉佐野駅前",
    "stop": "青年会場前",
    "passTime": "19:34",
    "vehicleType": "南海バス(車椅子・ワンステップ)",
    "updateTime": "2026/07/21 19:36"
  },
  {
    "vehicleNum": "080315",
    "vehicleCd": "80",
    "vehicleCorpCd": "1",
    "running": true,
    "lat": 34.574278,
    "lon": 135.483,
    "route": "堺駅前→堺東駅前→河内松原駅前",
    "stop": "堺東駅前",
    "passTime": "19:36",
    "vehicleType": "南海バス(車椅子・ベビーカー・ワンステップ)",
    "updateTime": "2026/07/21 19:36"
  },
  {
    "vehicleNum": "080322",
    "vehicleCd": "116",
    "vehicleCorpCd": "2",
    "running": true,
    "lat": 34.401889,
    "lon": 135.342889,
    "route": "熊取駅前→山の手台→小谷→熊取駅前",
    "stop": "大久保",
    "passTime": "19:35",
    "vehicleType": "南海ウイングバス(車椅子・ワンステップ)",
    "updateTime": "2026/07/21 19:36"
  },
  {
    "vehicleNum": "080381",
    "vehicleCd": "88",
    "vehicleCorpCd": "1",
    "running": true,
    "lat": 34.6385,
    "lon": 135.420278,
    "route": "ＡＴＣ→堺東駅前",
    "stop": "コスモタワー",
    "passTime": "19:33",
    "vehicleType": "南海バス(車椅子・ワンステップ)",
    "updateTime": "2026/07/21 19:36"
  },
  {
    "vehicleNum": "080345",
    "vehicleCd": "121",
    "vehicleCorpCd": "2",
    "running": true,
    "lat": 34.3855,
    "lon": 135.3525,
    "route": "大阪体育大学前→熊取駅前",
    "stop": "朝代",
    "passTime": "19:35",
    "vehicleType": "南海ウイングバス",
    "updateTime": "2026/07/21 19:36"
  },
  {
    "vehicleNum": "080412",
    "vehicleCd": "115",
    "vehicleCorpCd": "2",
    "running": true,
    "lat": 34.401778,
    "lon": 135.364,
    "route": "熊取駅前→熊取ニュータウン(フリー乗降)",
    "stop": "希望が丘南",
    "passTime": "19:36",
    "vehicleType": "南海ウイングバス(車椅子・ベビーカー・ノンステップ)",
    "updateTime": "2026/07/21 19:36"
  },
  {
    "vehicleNum": "080482",
    "vehicleCd": "156",
    "vehicleCorpCd": "1",
    "running": true,
    "lat": 34.5475,
    "lon": 135.446583,
    "route": "石津川駅前→浜寺公園駅前通→鳳駅前→堺市立総合医療センター前",
    "stop": "諏訪ノ森駅前",
    "passTime": "19:35",
    "vehicleType": "南海バス(車椅子・ベビーカー・ノンステップ)",
    "updateTime": "2026/07/21 19:36"
  },
  {
    "vehicleNum": "080483",
    "vehicleCd": "157",
    "vehicleCorpCd": "1",
    "running": true,
    "lat": 34.546972,
    "lon": 135.493083,
    "route": "堺市立総合医療センター前→北条→中もず駅前",
    "stop": "もず陵南町",
    "passTime": "19:34",
    "vehicleType": "南海バス(車椅子・ベビーカー・ノンステップ)",
    "updateTime": "2026/07/21 19:36"
  },
  {
    "vehicleNum": "080627",
    "vehicleCd": "446",
    "vehicleCorpCd": "1",
    "running": true,
    "lat": 34.5565,
    "lon": 135.541778,
    "route": "美原区役所→野遠→地下鉄新金岡駅前",
    "stop": "出屋敷",
    "passTime": "19:36",
    "vehicleType": "南海バス(車椅子・ベビーカー・ノンステップ)",
    "updateTime": "2026/07/21 19:36"
  },
  {
    "vehicleNum": "080628",
    "vehicleCd": "445",
    "vehicleCorpCd": "1",
    "running": true,
    "lat": 34.5585,
    "lon": 135.541583,
    "route": "地下鉄新金岡駅前→野遠→美原区役所",
    "stop": "野遠",
    "passTime": "19:34",
    "vehicleType": "南海バス(車椅子・ベビーカー・ノンステップ)",
    "updateTime": "2026/07/21 19:36"
  },
  {
    "vehicleNum": "080643",
    "vehicleCd": "94",
    "vehicleCorpCd": "1",
    "running": true,
    "lat": 34.524,
    "lon": 135.462389,
    "route": "堺東駅前→鳳駅前→光明池駅",
    "stop": "上",
    "passTime": "19:35",
    "vehicleType": "南海バス(車椅子・ベビーカー・ノンステップ)",
    "updateTime": "2026/07/21 19:36"
  },
  {
    "vehicleNum": "080652",
    "vehicleCd": "456",
    "vehicleCorpCd": "1",
    "running": true,
    "lat": 34.544389,
    "lon": 135.544,
    "route": "地下鉄新金岡駅前→野遠→北野田駅前",
    "stop": "大饗",
    "passTime": "19:35",
    "vehicleType": "南海バス",
    "updateTime": "2026/07/21 19:36"
  },
  {
    "vehicleNum": "080644",
    "vehicleCd": "452",
    "vehicleCorpCd": "1",
    "running": true,
    "lat": 34.563694,
    "lon": 135.475889,
    "route": "堺駅南口→堺駅前",
    "stop": "賑町",
    "passTime": "19:34",
    "vehicleType": "南海バス(車椅子・ベビーカー・ノンステップ)",
    "updateTime": "2026/07/21 19:36"
  },
  {
    "vehicleNum": "080697",
    "vehicleCd": "461",
    "vehicleCorpCd": "1",
    "running": true,
    "lat": 34.578389,
    "lon": 135.483583,
    "route": "河内松原駅前→阪和堺市駅前→堺駅前",
    "stop": "方違神社前",
    "passTime": "19:34",
    "vehicleType": "南海バス",
    "updateTime": "2026/07/21 19:36"
  },
  {
    "vehicleNum": "080698",
    "vehicleCd": "531",
    "vehicleCorpCd": "1",
    "running": true,
    "lat": 34.588889,
    "lon": 135.533889,
    "route": "堺東駅前→錦綾町→河内天美駅前",
    "stop": "天美西",
    "passTime": "19:32",
    "vehicleType": "南海バス",
    "updateTime": "2026/07/21 19:36"
  },
  {
    "vehicleNum": "080707",
    "vehicleCd": "544",
    "vehicleCorpCd": "1",
    "running": true,
    "lat": 34.5935,
    "lon": 135.468889,
    "route": "堺駅西口→錦綾町→堺東駅前",
    "stop": "松屋大和川通３丁",
    "passTime": "19:31",
    "vehicleType": "南海バス(車椅子・ベビーカー・ノンステップ)",
    "updateTime": "2026/07/21 19:36"
  },
  {
    "vehicleNum": "080740",
    "vehicleCd": "181",
    "vehicleCorpCd": "1",
    "running": true,
    "lat": 34.527,
    "lon": 135.476389,
    "route": "津久野駅前→鈴の宮団地センター→深井駅",
    "stop": "鈴の宮団地北口",
    "passTime": "19:36",
    "vehicleType": "南海バス(車椅子・ベビーカー・ノンステップ)",
    "updateTime": "2026/07/21 19:36"
  },
  {
    "vehicleNum": "080734",
    "vehicleCd": "415",
    "vehicleCorpCd": "1",
    "running": true,
    "lat": 34.544083,
    "lon": 135.530278,
    "route": "美原区役所→初芝駅前→美原区役所",
    "stop": "初芝中",
    "passTime": "19:36",
    "vehicleType": "南海バス",
    "updateTime": "2026/07/21 19:36"
  },
  {
    "vehicleNum": "080711",
    "vehicleCd": "79",
    "vehicleCorpCd": "2",
    "running": true,
    "lat": 34.396,
    "lon": 135.329,
    "route": "泉佐野→日根野駅",
    "stop": "俵屋",
    "passTime": "19:35",
    "vehicleType": "南海ウイングバス(車椅子・ベビーカー・ノンステップ)",
    "updateTime": "2026/07/21 19:36"
  },
  {
    "vehicleNum": "080744",
    "vehicleCd": "550",
    "vehicleCorpCd": "1",
    "running": true,
    "lat": 34.536583,
    "lon": 135.470694,
    "route": "泉ヶ丘駅→泉北２号線→津久野駅前",
    "stop": "平岡西口",
    "passTime": "19:34",
    "vehicleType": "南海バス(車椅子・ベビーカー・ノンステップ)",
    "updateTime": "2026/07/21 19:36"
  },
  {
    "vehicleNum": "080746",
    "vehicleCd": "395",
    "vehicleCorpCd": "1",
    "running": true,
    "lat": 34.496194,
    "lon": 135.571889,
    "route": "金剛駅前→寺池台小学校前→金剛駅前",
    "stop": "高辺台二丁目",
    "passTime": "19:36",
    "vehicleType": "南海バス(車椅子・ベビーカー・ノンステップ)",
    "updateTime": "2026/07/21 19:36"
  },
  {
    "vehicleNum": "080754",
    "vehicleCd": "428",
    "vehicleCorpCd": "1",
    "running": true,
    "lat": 34.482778,
    "lon": 135.489889,
    "route": "栂・美木多駅→御池台回り→栂・美木多駅",
    "stop": "原山公園前",
    "passTime": "19:34",
    "vehicleType": "南海バス(車椅子・ベビーカー・ノンステップ)",
    "updateTime": "2026/07/21 19:36"
  },
  {
    "vehicleNum": "080751",
    "vehicleCd": "551",
    "vehicleCorpCd": "1",
    "running": true,
    "lat": 34.582583,
    "lon": 135.519194,
    "route": "河内天美駅前→天美我堂→堺東駅前",
    "stop": "西我堂",
    "passTime": "19:35",
    "vehicleType": "南海バス(車椅子・ベビーカー・ノンステップ)",
    "updateTime": "2026/07/21 19:36"
  },
  {
    "vehicleNum": "080756",
    "vehicleCd": "315",
    "vehicleCorpCd": "1",
    "running": true,
    "lat": 34.523889,
    "lon": 135.488,
    "route": "津久野駅前→堺市立総合医療センター前→八田荘団地→泉ヶ丘駅",
    "stop": "八田荘",
    "passTime": "19:36",
    "vehicleType": "南海バス(車椅子・ベビーカー・ノンステップ)",
    "updateTime": "2026/07/21 19:36"
  },
  {
    "vehicleNum": "080757",
    "vehicleCd": "182",
    "vehicleCorpCd": "1",
    "running": true,
    "lat": 34.495694,
    "lon": 135.562083,
    "route": "金剛駅前→高辺台小学校前→金剛駅前",
    "stop": "金剛駅前（東側）",
    "passTime": "19:35",
    "vehicleType": "南海バス(車椅子・ベビーカー・ノンステップ)",
    "updateTime": "2026/07/21 19:36"
  },
  {
    "vehicleNum": "080761",
    "vehicleCd": "560",
    "vehicleCorpCd": "1",
    "running": true,
    "lat": 34.555972,
    "lon": 135.508,
    "route": "美原区役所前→船戸下→初芝駅前→中もず駅前",
    "stop": "蟻ヶ池",
    "passTime": "19:31",
    "vehicleType": "南海バス(車椅子・ベビーカー・ノンステップ)",
    "updateTime": "2026/07/21 19:36"
  },
  {
    "vehicleNum": "080764",
    "vehicleCd": "563",
    "vehicleCorpCd": "1",
    "running": true,
    "lat": 34.575194,
    "lon": 135.473083,
    "route": "堺駅南口→福町→北野田駅前",
    "stop": "大寺南門山之口前",
    "passTime": "19:34",
    "vehicleType": "南海バス(車椅子・ベビーカー・ノンステップ)",
    "updateTime": "2026/07/21 19:36"
  },
  {
    "vehicleNum": "080765",
    "vehicleCd": "564",
    "vehicleCorpCd": "1",
    "running": true,
    "lat": 34.569194,
    "lon": 135.483194,
    "route": "北野田駅前→西口園→堺駅南口",
    "stop": "一条通",
    "passTime": "19:36",
    "vehicleType": "南海バス(車椅子・ベビーカー・ノンステップ)",
    "updateTime": "2026/07/21 19:36"
  },
  {
    "vehicleNum": "080766",
    "vehicleCd": "565",
    "vehicleCorpCd": "1",
    "running": true,
    "lat": 34.561778,
    "lon": 135.474278,
    "route": "堺東駅前→上野芝→泉ヶ丘駅",
    "stop": "大仙中町",
    "passTime": "19:35",
    "vehicleType": "南海バス(車椅子・ベビーカー・ノンステップ)",
    "updateTime": "2026/07/21 19:36"
  },
  {
    "vehicleNum": "080787",
    "vehicleCd": "301",
    "vehicleCorpCd": "1",
    "running": true,
    "lat": 34.577389,
    "lon": 135.484694,
    "route": "【急行】海浜匠町→堺東駅前→阪和堺市駅前",
    "stop": "海浜匠町",
    "passTime": "19:12",
    "vehicleType": "南海バス(車椅子・ベビーカー・ノンステップ)",
    "updateTime": "2026/07/21 19:36"
  },
  {
    "vehicleNum": "080794",
    "vehicleCd": "344",
    "vehicleCorpCd": "1",
    "running": true,
    "lat": 34.540972,
    "lon": 135.463389,
    "route": "鳳駅前→堺東駅前",
    "stop": "下田南",
    "passTime": "19:35",
    "vehicleType": "南海バス(車椅子・ベビーカー・ノンステップ)",
    "updateTime": "2026/07/21 19:36"
  },
  {
    "vehicleNum": "080795",
    "vehicleCd": "43",
    "vehicleCorpCd": "1",
    "running": true,
    "lat": 34.567278,
    "lon": 135.507083,
    "route": "堺東駅前→白鷺駅前→堺東駅前（循環）",
    "stop": "長曽根町",
    "passTime": "19:36",
    "vehicleType": "南海バス(車椅子・ベビーカー・ノンステップ)",
    "updateTime": "2026/07/21 19:36"
  },
  {
    "vehicleNum": "080808",
    "vehicleCd": "216",
    "vehicleCorpCd": "1",
    "running": true,
    "lat": 34.574194,
    "lon": 135.484,
    "route": "堺東駅前→錦綾町→河内天美駅前",
    "stop": "堺東駅前",
    "passTime": "19:35",
    "vehicleType": "南海バス(車椅子・ベビーカー・ノンステップ)",
    "updateTime": "2026/07/21 19:36"
  },
  {
    "vehicleNum": "080806",
    "vehicleCd": "307",
    "vehicleCorpCd": "1",
    "running": true,
    "lat": 34.608889,
    "lon": 135.476583,
    "route": "匠町→住之江公園駅前→匠町",
    "stop": "松屋大和川通３丁",
    "passTime": "19:25",
    "vehicleType": "南海バス(車椅子・ベビーカー・ノンステップ)",
    "updateTime": "2026/07/21 19:36"
  },
  {
    "vehicleNum": "080815",
    "vehicleCd": "575",
    "vehicleCorpCd": "1",
    "running": true,
    "lat": 34.491278,
    "lon": 135.527889,
    "route": "泉ヶ丘駅→晴美台右回り→泉ヶ丘駅",
    "stop": "高倉台４丁",
    "passTime": "19:36",
    "vehicleType": "南海バス(車椅子・ベビーカー・ノンステップ)",
    "updateTime": "2026/07/21 19:36"
  },
  {
    "vehicleNum": "080822",
    "vehicleCd": "576",
    "vehicleCorpCd": "1",
    "running": true,
    "lat": 34.525889,
    "lon": 135.505778,
    "route": "泉ヶ丘駅→田園→深井駅",
    "stop": "北垣外",
    "passTime": "19:35",
    "vehicleType": "南海バス(車椅子・ベビーカー・ノンステップ)",
    "updateTime": "2026/07/21 19:36"
  },
  {
    "vehicleNum": "080825",
    "vehicleCd": "261",
    "vehicleCorpCd": "1",
    "running": true,
    "lat": 34.539778,
    "lon": 135.514194,
    "route": "北野田駅前→福町→堺駅南口",
    "stop": "新家町",
    "passTime": "19:36",
    "vehicleType": "南海バス(車椅子・ベビーカー・ノンステップ)",
    "updateTime": "2026/07/21 19:36"
  },
  {
    "vehicleNum": "080826",
    "vehicleCd": "152",
    "vehicleCorpCd": "1",
    "running": true,
    "lat": 34.530583,
    "lon": 135.487889,
    "route": "堺東駅前→上野芝駅前→東山車庫前",
    "stop": "堀上",
    "passTime": "19:35",
    "vehicleType": "南海バス(車椅子・ベビーカー・ノンステップ)",
    "updateTime": "2026/07/21 19:36"
  },
  {
    "vehicleNum": "080836",
    "vehicleCd": "268",
    "vehicleCorpCd": "1",
    "running": true,
    "lat": 34.574694,
    "lon": 135.512278,
    "route": "堺東駅前→河内松原駅前",
    "stop": "蔵前西",
    "passTime": "19:35",
    "vehicleType": "南海バス(車椅子・ベビーカー・ノンステップ)",
    "updateTime": "2026/07/21 19:36"
  },
  {
    "vehicleNum": "080845",
    "vehicleCd": "319",
    "vehicleCorpCd": "1",
    "running": true,
    "lat": 34.539694,
    "lon": 135.472194,
    "route": "津久野駅前→堀上緑町一丁→津久野駅前→堺東駅前",
    "stop": "堺市立総合医療センター東",
    "passTime": "19:36",
    "vehicleType": "南海バス(車椅子・ベビーカー・ノンステップ)",
    "updateTime": "2026/07/21 19:36"
  },
  {
    "vehicleNum": "080846",
    "vehicleCd": "224",
    "vehicleCorpCd": "1",
    "running": true,
    "lat": 34.5005,
    "lon": 135.572389,
    "route": "金剛駅前→向陽・藤沢回り→金剛駅前",
    "stop": "金剛高校前",
    "passTime": "19:34",
    "vehicleType": "南海バス(車椅子・ベビーカー・ノンステップ)",
    "updateTime": "2026/07/21 19:36"
  },
  {
    "vehicleNum": "080851",
    "vehicleCd": "439",
    "vehicleCorpCd": "1",
    "running": true,
    "lat": 34.496083,
    "lon": 135.564278,
    "route": "金剛駅前→向陽・藤沢回り→金剛駅前",
    "stop": "久野喜台二丁目",
    "passTime": "19:36",
    "vehicleType": "南海バス(車椅子・ベビーカー・ノンステップ)",
    "updateTime": "2026/07/21 19:36"
  },
  {
    "vehicleNum": "080850",
    "vehicleCd": "24",
    "vehicleCorpCd": "1",
    "running": true,
    "lat": 34.506583,
    "lon": 135.501889,
    "route": "泉ヶ丘駅→宮山台右回り→泉ヶ丘駅",
    "stop": "深阪",
    "passTime": "19:36",
    "vehicleType": "南海バス(車椅子・ベビーカー・ノンステップ)",
    "updateTime": "2026/07/21 19:36"
  },
  {
    "vehicleNum": "080852",
    "vehicleCd": "584",
    "vehicleCorpCd": "1",
    "running": true,
    "lat": 34.500889,
    "lon": 135.582194,
    "route": "金剛駅前→向陽・藤沢回り→金剛駅前",
    "stop": "中央センター前",
    "passTime": "19:34",
    "vehicleType": "南海バス(車椅子・ベビーカー・ノンステップ)",
    "updateTime": "2026/07/21 19:36"
  },
  {
    "vehicleNum": "080854",
    "vehicleCd": "17",
    "vehicleCorpCd": "1",
    "running": true,
    "lat": 34.592778,
    "lon": 135.470083,
    "route": "【急行】海浜匠町→堺東駅前→阪和堺市駅前",
    "stop": "海浜匠町",
    "passTime": "19:24",
    "vehicleType": "南海バス(車椅子・ベビーカー・ノンステップ)",
    "updateTime": "2026/07/21 19:36"
  },
  {
    "vehicleNum": "080855",
    "vehicleCd": "16",
    "vehicleCorpCd": "1",
    "running": true,
    "lat": 34.494694,
    "lon": 135.506,
    "route": "津久野駅前→堺市立総合医療センター前→泉北２号線→泉ヶ丘駅",
    "stop": "竹城台３丁",
    "passTime": "19:36",
    "vehicleType": "南海バス(車椅子・ベビーカー・ノンステップ)",
    "updateTime": "2026/07/21 19:36"
  },
  {
    "vehicleNum": "080858",
    "vehicleCd": "225",
    "vehicleCorpCd": "1",
    "running": true,
    "lat": 34.574194,
    "lon": 135.484083,
    "route": "阪和堺市駅前→堺東駅前→堺駅西口→匠町→海浜匠町",
    "stop": "堺東駅前",
    "passTime": "19:33",
    "vehicleType": "南海バス(車椅子・ベビーカー・ノンステップ)",
    "updateTime": "2026/07/21 19:36"
  },
  {
    "vehicleNum": "080864",
    "vehicleCd": "146",
    "vehicleCorpCd": "1",
    "running": true,
    "lat": 34.577083,
    "lon": 135.492694,
    "route": "【急行】海浜匠町→阪和堺市駅前",
    "stop": "海浜匠町",
    "passTime": "19:15",
    "vehicleType": "南海バス(車椅子・ベビーカー・ノンステップ)",
    "updateTime": "2026/07/21 19:36"
  },
  {
    "vehicleNum": "080866",
    "vehicleCd": "497",
    "vehicleCorpCd": "1",
    "running": true,
    "lat": 34.500583,
    "lon": 135.573083,
    "route": "金剛駅前→高辺台小学校前→金剛駅前",
    "stop": "津々山台１丁目北",
    "passTime": "19:35",
    "vehicleType": "南海バス(車椅子・ベビーカー・ノンステップ)",
    "updateTime": "2026/07/21 19:36"
  },
  {
    "vehicleNum": "080865",
    "vehicleCd": "504",
    "vehicleCorpCd": "1",
    "running": true,
    "lat": 34.567694,
    "lon": 135.492389,
    "route": "阪和堺市駅前→堺駅南口",
    "stop": "細池橋",
    "passTime": "19:35",
    "vehicleType": "南海バス(車椅子・ベビーカー・ノンステップ)",
    "updateTime": "2026/07/21 19:36"
  },
  {
    "vehicleNum": "080867",
    "vehicleCd": "364",
    "vehicleCorpCd": "1",
    "running": true,
    "lat": 34.485694,
    "lon": 135.503083,
    "route": "泉ヶ丘駅→鉢ヶ峯→泉田中南",
    "stop": "片蔵",
    "passTime": "19:36",
    "vehicleType": "南海バス(車椅子・ベビーカー・ノンステップ)",
    "updateTime": "2026/07/21 19:36"
  },
  {
    "vehicleNum": "080869",
    "vehicleCd": "316",
    "vehicleCorpCd": "1",
    "running": true,
    "lat": 34.480278,
    "lon": 135.525194,
    "route": "泉ヶ丘駅→槙塚台左回り→泉ヶ丘駅",
    "stop": "槙塚台２丁南",
    "passTime": "19:35",
    "vehicleType": "南海バス(車椅子・ベビーカー・ノンステップ)",
    "updateTime": "2026/07/21 19:36"
  },
  {
    "vehicleNum": "080873",
    "vehicleCd": "144",
    "vehicleCorpCd": "1",
    "running": true,
    "lat": 34.494972,
    "lon": 135.524694,
    "route": "泉ヶ丘駅→スマ・エコタウン晴美台→高倉台左回り→泉ヶ丘駅",
    "stop": "高倉台センター",
    "passTime": "19:36",
    "vehicleType": "南海バス(車椅子・ベビーカー・ノンステップ)",
    "updateTime": "2026/07/21 19:36"
  },
  {
    "vehicleNum": "080875",
    "vehicleCd": "485",
    "vehicleCorpCd": "1",
    "running": true,
    "lat": 34.496278,
    "lon": 135.512694,
    "route": "泉ヶ丘駅→スマ・エコタウン晴美台→高倉台左回り→泉ヶ丘駅",
    "stop": "三原台１丁",
    "passTime": "19:30",
    "vehicleType": "南海バス(車椅子・ベビーカー・ノンステップ)",
    "updateTime": "2026/07/21 19:36"
  },
  {
    "vehicleNum": "080877",
    "vehicleCd": "588",
    "vehicleCorpCd": "1",
    "running": true,
    "lat": 34.508583,
    "lon": 135.529889,
    "route": "あみだ池→田園→深井駅",
    "stop": "見野山",
    "passTime": "19:36",
    "vehicleType": "南海バス(車椅子・ベビーカー・ノンステップ)",
    "updateTime": "2026/07/21 19:36"
  },
  {
    "vehicleNum": "080884",
    "vehicleCd": "116",
    "vehicleCorpCd": "1",
    "running": true,
    "lat": 34.488389,
    "lon": 135.516583,
    "route": "泉ヶ丘駅→槙塚台左回り→泉ヶ丘駅",
    "stop": "茶山台センター",
    "passTime": "19:35",
    "vehicleType": "南海バス(車椅子・ベビーカー・ノンステップ)",
    "updateTime": "2026/07/21 19:36"
  },
  {
    "vehicleNum": "080895",
    "vehicleCd": "167",
    "vehicleCorpCd": "1",
    "running": true,
    "lat": 34.552278,
    "lon": 135.565778,
    "route": "北野田駅前→多治井北（循環）→北野田駅前",
    "stop": "西多治井",
    "passTime": "19:33",
    "vehicleType": "南海バス(車椅子・ベビーカー・ノンステップ)",
    "updateTime": "2026/07/21 19:36"
  },
  {
    "vehicleNum": "080899",
    "vehicleCd": "498",
    "vehicleCorpCd": "1",
    "running": true,
    "lat": 34.600389,
    "lon": 135.425778,
    "route": "【急行】海浜匠町→堺駅西口",
    "stop": "海浜匠町",
    "passTime": "19:35",
    "vehicleType": "南海バス(車椅子・ベビーカー・ワンステップ)",
    "updateTime": "2026/07/21 19:36"
  },
  {
    "vehicleNum": "080898",
    "vehicleCd": "501",
    "vehicleCorpCd": "1",
    "running": true,
    "lat": 34.599583,
    "lon": 135.428389,
    "route": "【急行】海浜匠町→堺東駅前→阪和堺市駅前",
    "stop": "海浜匠町",
    "passTime": "19:36",
    "vehicleType": "南海バス(車椅子・ベビーカー・ワンステップ)",
    "updateTime": "2026/07/21 19:36"
  },
  {
    "vehicleNum": "080907",
    "vehicleCd": "499",
    "vehicleCorpCd": "1",
    "running": true,
    "lat": 34.494194,
    "lon": 135.518194,
    "route": "金剛駅前→狭山ニュータウンセンター→泉ヶ丘駅",
    "stop": "茶山台２丁",
    "passTime": "19:36",
    "vehicleType": "南海バス(車椅子・ベビーカー・ノンステップ)",
    "updateTime": "2026/07/21 19:36"
  },
  {
    "vehicleNum": "080903",
    "vehicleCd": "354",
    "vehicleCorpCd": "1",
    "running": true,
    "lat": 34.583194,
    "lon": 135.468194,
    "route": "【急行】海浜匠町→堺駅西口",
    "stop": "海浜匠町",
    "passTime": "19:20",
    "vehicleType": "南海バス(車椅子・ベビーカー・ワンステップ)",
    "updateTime": "2026/07/21 19:36"
  },
  {
    "vehicleNum": "080917",
    "vehicleCd": "70",
    "vehicleCorpCd": "1",
    "running": true,
    "lat": 34.485083,
    "lon": 135.524889,
    "route": "泉ヶ丘駅→晴美台右回り→泉ヶ丘駅",
    "stop": "槙塚台１丁",
    "passTime": "19:35",
    "vehicleType": "南海バス(車椅子・ベビーカー・ノンステップ)",
    "updateTime": "2026/07/21 19:36"
  },
  {
    "vehicleNum": "080921",
    "vehicleCd": "143",
    "vehicleCorpCd": "1",
    "running": true,
    "lat": 34.495389,
    "lon": 135.516694,
    "route": "泉ヶ丘駅→帝塚山学院泉ヶ丘校前→金剛駅前",
    "stop": "泉ヶ丘駅（南側）",
    "passTime": "19:35",
    "vehicleType": "南海バス(車椅子・ベビーカー・ノンステップ)",
    "updateTime": "2026/07/21 19:36"
  },
  {
    "vehicleNum": "080934",
    "vehicleCd": "594",
    "vehicleCorpCd": "1",
    "running": true,
    "lat": 34.586,
    "lon": 135.487278,
    "route": "堺東駅前→錦綾町→堺駅西口",
    "stop": "錦綾町",
    "passTime": "19:35",
    "vehicleType": "南海バス(車椅子・ベビーカー・ノンステップ)",
    "updateTime": "2026/07/21 19:36"
  },
  {
    "vehicleNum": "080936",
    "vehicleCd": "22",
    "vehicleCorpCd": "1",
    "running": true,
    "lat": 34.482778,
    "lon": 135.49,
    "route": "栂・美木多駅→庭代台左回り→栂・美木多駅",
    "stop": "栂・美木多駅",
    "passTime": "19:34",
    "vehicleType": "南海バス(車椅子・ベビーカー・ノンステップ)",
    "updateTime": "2026/07/21 19:36"
  },
  {
    "vehicleNum": "080935",
    "vehicleCd": "593",
    "vehicleCorpCd": "1",
    "running": true,
    "lat": 34.567,
    "lon": 135.509778,
    "route": "堺東駅前→白鷺駅前→堺東駅前（循環）",
    "stop": "長曽根住宅前",
    "passTime": "19:36",
    "vehicleType": "南海バス(車椅子・ベビーカー・ノンステップ)",
    "updateTime": "2026/07/21 19:36"
  },
  {
    "vehicleNum": "080948",
    "vehicleCd": "276",
    "vehicleCorpCd": "1",
    "running": true,
    "lat": 34.582,
    "lon": 135.475778,
    "route": "匠町→堺駅西口→堺東駅前→阪和堺市駅前",
    "stop": "花田口",
    "passTime": "19:36",
    "vehicleType": "南海バス(車椅子・ベビーカー・ノンステップ)",
    "updateTime": "2026/07/21 19:36"
  },
  {
    "vehicleNum": "080950",
    "vehicleCd": "513",
    "vehicleCorpCd": "1",
    "running": true,
    "lat": 34.569778,
    "lon": 135.480889,
    "route": "堺駅前→堺駅南口",
    "stop": "一条通",
    "passTime": "19:36",
    "vehicleType": "南海バス(車椅子・ベビーカー・ノンステップ)",
    "updateTime": "2026/07/21 19:36"
  },
  {
    "vehicleNum": "080951",
    "vehicleCd": "597",
    "vehicleCorpCd": "1",
    "running": true,
    "lat": 34.482972,
    "lon": 135.490194,
    "route": "栂・美木多駅→御池台回り→栂・美木多駅",
    "stop": "栂・美木多駅",
    "passTime": "19:35",
    "vehicleType": "南海バス(車椅子・ベビーカー・ノンステップ)",
    "updateTime": "2026/07/21 19:36"
  },
  {
    "vehicleNum": "080956",
    "vehicleCd": "71",
    "vehicleCorpCd": "1",
    "running": true,
    "lat": 34.5785,
    "lon": 135.482889,
    "route": "ＡＴＣ→堺東駅前",
    "stop": "堺駅前",
    "passTime": "19:29",
    "vehicleType": "南海バス",
    "updateTime": "2026/07/21 19:36"
  },
  {
    "vehicleNum": "080957",
    "vehicleCd": "34",
    "vehicleCorpCd": "1",
    "running": true,
    "lat": 34.581083,
    "lon": 135.469389,
    "route": "堺東駅前→ＡＴＣ",
    "stop": "堺東駅前",
    "passTime": "19:30",
    "vehicleType": "南海バス",
    "updateTime": "2026/07/21 19:36"
  },
  {
    "vehicleNum": "080967",
    "vehicleCd": "605",
    "vehicleCorpCd": "1",
    "running": true,
    "lat": 34.540889,
    "lon": 135.534,
    "route": "初芝駅前→平尾→初芝駅前",
    "stop": "日置荘小学校前",
    "passTime": "19:36",
    "vehicleType": "南海バス(車椅子・ベビーカー・ノンステップ)",
    "updateTime": "2026/07/21 19:36"
  },
  {
    "vehicleNum": "080978",
    "vehicleCd": "431",
    "vehicleCorpCd": "1",
    "running": true,
    "lat": 34.559778,
    "lon": 135.472583,
    "route": "堺東駅前→津久野駅前→堀上緑町一丁→津久野駅前",
    "stop": "塩穴通",
    "passTime": "19:36",
    "vehicleType": "南海バス(車椅子・ベビーカー・ノンステップ)",
    "updateTime": "2026/07/21 19:36"
  },
  {
    "vehicleNum": "080994",
    "vehicleCd": "130",
    "vehicleCorpCd": "1",
    "running": true,
    "lat": 34.494083,
    "lon": 135.544389,
    "route": "金剛駅前→狭山ニュータウンセンター→泉ヶ丘駅",
    "stop": "狭山西小学校前",
    "passTime": "19:35",
    "vehicleType": "南海バス(車椅子・ベビーカー・ノンステップ)",
    "updateTime": "2026/07/21 19:36"
  },
  {
    "vehicleNum": "080995",
    "vehicleCd": "118",
    "vehicleCorpCd": "1",
    "running": true,
    "lat": 34.485083,
    "lon": 135.525,
    "route": "金剛駅前→帝塚山学院泉ヶ丘校前→泉ヶ丘駅前",
    "stop": "槙塚台１丁",
    "passTime": "19:36",
    "vehicleType": "南海バス(車椅子・ベビーカー・ノンステップ)",
    "updateTime": "2026/07/21 19:36"
  },
  {
    "vehicleNum": "080999",
    "vehicleCd": "493",
    "vehicleCorpCd": "1",
    "running": true,
    "lat": 34.535083,
    "lon": 135.563194,
    "route": "初芝駅前→平尾・美原区役所前→中もず駅前",
    "stop": "船戸下",
    "passTime": "19:34",
    "vehicleType": "南海バス(車椅子・ベビーカー・ノンステップ)",
    "updateTime": "2026/07/21 19:36"
  },
  {
    "vehicleNum": "081003",
    "vehicleCd": "610",
    "vehicleCorpCd": "1",
    "running": true,
    "lat": 34.543778,
    "lon": 135.511583,
    "route": "堺駅南口→福町→北野田駅前",
    "stop": "府大研究所前",
    "passTime": "19:35",
    "vehicleType": "南海バス(車椅子・ベビーカー・ノンステップ)",
    "updateTime": "2026/07/21 19:36"
  },
  {
    "vehicleNum": "081006",
    "vehicleCd": "54",
    "vehicleCorpCd": "1",
    "running": true,
    "lat": 34.554778,
    "lon": 135.499889,
    "route": "堺駅南口→三国ヶ丘駅前→北野田駅前",
    "stop": "梅北町",
    "passTime": "19:35",
    "vehicleType": "南海バス(車椅子・ベビーカー・ノンステップ)",
    "updateTime": "2026/07/21 19:36"
  },
  {
    "vehicleNum": "081005",
    "vehicleCd": "272",
    "vehicleCorpCd": "1",
    "running": true,
    "lat": 34.527889,
    "lon": 135.474083,
    "route": "深井駅→八田荘団地→津久野駅前",
    "stop": "毛穴なかよし橋",
    "passTime": "19:36",
    "vehicleType": "南海バス(車椅子・ベビーカー・ノンステップ)",
    "updateTime": "2026/07/21 19:36"
  },
  {
    "vehicleNum": "081007",
    "vehicleCd": "127",
    "vehicleCorpCd": "1",
    "running": true,
    "lat": 34.499389,
    "lon": 135.507778,
    "route": "泉ヶ丘駅→宮山台中学校前→堺東駅前",
    "stop": "竹城台２丁",
    "passTime": "19:36",
    "vehicleType": "南海バス(車椅子・ベビーカー・ノンステップ)",
    "updateTime": "2026/07/21 19:36"
  },
  {
    "vehicleNum": "081017",
    "vehicleCd": "135",
    "vehicleCorpCd": "1",
    "running": true,
    "lat": 34.496694,
    "lon": 135.556778,
    "route": "金剛駅前→狭山ニュータウンセンター→泉ヶ丘駅",
    "stop": "半田",
    "passTime": "19:36",
    "vehicleType": "南海バス(車椅子・ベビーカー・ノンステップ)",
    "updateTime": "2026/07/21 19:36"
  },
  {
    "vehicleNum": "081019",
    "vehicleCd": "267",
    "vehicleCorpCd": "1",
    "running": true,
    "lat": 34.510778,
    "lon": 135.510278,
    "route": "深井駅→田園→泉ヶ丘駅",
    "stop": "田園",
    "passTime": "19:36",
    "vehicleType": "南海バス(車椅子・ベビーカー・ノンステップ)",
    "updateTime": "2026/07/21 19:36"
  },
  {
    "vehicleNum": "081018",
    "vehicleCd": "263",
    "vehicleCorpCd": "1",
    "running": true,
    "lat": 34.521389,
    "lon": 135.507694,
    "route": "北野田駅前→福町→深井駅",
    "stop": "東山",
    "passTime": "19:36",
    "vehicleType": "南海バス(車椅子・ベビーカー・ノンステップ)",
    "updateTime": "2026/07/21 19:36"
  },
  {
    "vehicleNum": "081016",
    "vehicleCd": "239",
    "vehicleCorpCd": "1",
    "running": true,
    "lat": 34.484,
    "lon": 135.498389,
    "route": "栂・美木多駅→原山台回り→栂・美木多駅",
    "stop": "原山台５丁北",
    "passTime": "19:36",
    "vehicleType": "南海バス(車椅子・ベビーカー・ノンステップ)",
    "updateTime": "2026/07/21 19:36"
  },
  {
    "vehicleNum": "081021",
    "vehicleCd": "243",
    "vehicleCorpCd": "1",
    "running": true,
    "lat": 34.530694,
    "lon": 135.525083,
    "route": "堺駅南口→三国ヶ丘駅前→北野田駅前",
    "stop": "西口園",
    "passTime": "19:36",
    "vehicleType": "南海バス(車椅子・ベビーカー・ノンステップ)",
    "updateTime": "2026/07/21 19:36"
  },
  {
    "vehicleNum": "081023",
    "vehicleCd": "264",
    "vehicleCorpCd": "1",
    "running": true,
    "lat": 34.540889,
    "lon": 135.534,
    "route": "初芝駅前→平尾・美原区役所前→中もず駅前",
    "stop": "日置荘小学校前",
    "passTime": "19:36",
    "vehicleType": "南海バス(車椅子・ベビーカー・ノンステップ)",
    "updateTime": "2026/07/21 19:36"
  },
  {
    "vehicleNum": "081024",
    "vehicleCd": "270",
    "vehicleCorpCd": "1",
    "running": true,
    "lat": 34.547889,
    "lon": 135.484194,
    "route": "泉ヶ丘駅→宮山台中学校前→堺東駅前",
    "stop": "向ヶ丘",
    "passTime": "19:36",
    "vehicleType": "南海バス(車椅子・ベビーカー・ノンステップ)",
    "updateTime": "2026/07/21 19:36"
  },
  {
    "vehicleNum": "081043",
    "vehicleCd": "612",
    "vehicleCorpCd": "1",
    "running": true,
    "lat": 34.465,
    "lon": 135.506,
    "route": "栂・美木多駅→御池台回り→栂・美木多駅",
    "stop": "御池台２丁",
    "passTime": "19:36",
    "vehicleType": "南海バス(車椅子・ベビーカー・ノンステップ)",
    "updateTime": "2026/07/21 19:36"
  },
  {
    "vehicleNum": "081036",
    "vehicleCd": "293",
    "vehicleCorpCd": "1",
    "running": true,
    "lat": 34.484778,
    "lon": 135.5275,
    "route": "泉ヶ丘駅→狭山ニュータウンセンター→金剛駅前",
    "stop": "槙塚台センター",
    "passTime": "19:36",
    "vehicleType": "南海バス(車椅子・ベビーカー・ノンステップ)",
    "updateTime": "2026/07/21 19:36"
  },
  {
    "vehicleNum": "081037",
    "vehicleCd": "236",
    "vehicleCorpCd": "1",
    "running": true,
    "lat": 34.505083,
    "lon": 135.5165,
    "route": "泉ヶ丘駅→三原台左回り→泉ヶ丘駅",
    "stop": "三原台２丁",
    "passTime": "19:36",
    "vehicleType": "南海バス(車椅子・ベビーカー・ノンステップ)",
    "updateTime": "2026/07/21 19:36"
  },
  {
    "vehicleNum": "090170",
    "vehicleCd": "117",
    "vehicleCorpCd": "2",
    "running": true,
    "lat": 34.463583,
    "lon": 135.397278,
    "route": "牛滝温泉→内畑→岸和田駅前",
    "stop": "久米田高校前",
    "passTime": "19:36",
    "vehicleType": "南海ウイングバス",
    "updateTime": "2026/07/21 19:36"
  },
  {
    "vehicleNum": "090331",
    "vehicleCd": "197",
    "vehicleCorpCd": "1",
    "running": true,
    "lat": 34.439083,
    "lon": 135.245,
    "route": "空港駅→ＦｅｄＥｘ先行→空港駅（循環）",
    "stop": "機内食前",
    "passTime": "19:32",
    "vehicleType": "南海バス(車椅子・ベビーカー・ワンステップ)",
    "updateTime": "2026/07/21 19:36"
  },
  {
    "vehicleNum": "090766",
    "vehicleCd": "137",
    "vehicleCorpCd": "2",
    "running": true,
    "lat": 34.402,
    "lon": 135.364083,
    "route": "熊取ニュータウン→熊取駅前→上瓦屋町→泉佐野駅前（フリー乗降）",
    "stop": "希望が丘南",
    "passTime": "19:36",
    "vehicleType": "南海ウイングバス(車椅子・ワンステップ)",
    "updateTime": "2026/07/21 19:36"
  },
  {
    "vehicleNum": "091107",
    "vehicleCd": "23",
    "vehicleCorpCd": "2",
    "running": true,
    "lat": 34.448583,
    "lon": 135.385389,
    "route": "岸和田駅前→天神山・一の宮循環　左回り→岸和田駅前",
    "stop": "東岸和田駅前",
    "passTime": "19:35",
    "vehicleType": "南海ウイングバス(車椅子・ワンステップ)",
    "updateTime": "2026/07/21 19:36"
  },
  {
    "vehicleNum": "091581",
    "vehicleCd": "198",
    "vehicleCorpCd": "1",
    "running": true,
    "lat": 34.435083,
    "lon": 135.2395,
    "route": "空港駅→国際循環→空港駅",
    "stop": "空港駅",
    "passTime": "19:35",
    "vehicleType": "南海バス(車椅子・ノンステップ)",
    "updateTime": "2026/07/21 19:36"
  },
  {
    "vehicleNum": "091659",
    "vehicleCd": "204",
    "vehicleCorpCd": "1",
    "running": true,
    "lat": 34.432083,
    "lon": 135.234278,
    "route": "給油地区→直行→空港駅",
    "stop": "機内食前",
    "passTime": "19:35",
    "vehicleType": "南海バス(車椅子・ノンステップ)",
    "updateTime": "2026/07/21 19:37"
  },
  {
    "vehicleNum": "091736",
    "vehicleCd": "65",
    "vehicleCorpCd": "2",
    "running": true,
    "lat": 34.461083,
    "lon": 135.394278,
    "route": "岸和田駅前→内畑→白原車庫",
    "stop": "岸和田警察署前",
    "passTime": "19:32",
    "vehicleType": "南海ウイングバス(車椅子・ワンステップ)",
    "updateTime": "2026/07/21 19:37"
  },
  {
    "vehicleNum": "091750",
    "vehicleCd": "335",
    "vehicleCorpCd": "1",
    "running": true,
    "lat": 34.428083,
    "lon": 135.534278,
    "route": "旭→天野山→長野",
    "stop": "旭ヶ丘口",
    "passTime": "19:34",
    "vehicleType": "南海バス(車椅子・ベビーカー・ワンステップ)",
    "updateTime": "2026/07/21 19:37"
  },
  {
    "vehicleNum": "092153",
    "vehicleCd": "529",
    "vehicleCorpCd": "1",
    "running": true,
    "lat": 34.438278,
    "lon": 135.232472,
    "route": "エアロプラザ→第２ターミナル(国内線・国際線)→エアロプラザ",
    "stop": "第2ターミナル国内線",
    "passTime": "19:36",
    "vehicleType": "南海バス",
    "updateTime": "2026/07/21 19:37"
  },
  {
    "vehicleNum": "092234",
    "vehicleCd": "534",
    "vehicleCorpCd": "1",
    "running": true,
    "lat": 34.458583,
    "lon": 135.489389,
    "route": "光明池駅→城山台５丁→光明池車庫",
    "stop": "光明台一丁目",
    "passTime": "19:36",
    "vehicleType": "南海バス(車椅子・ベビーカー・ノンステップ)",
    "updateTime": "2026/07/21 19:37"
  },
  {
    "vehicleNum": "092373",
    "vehicleCd": "553",
    "vehicleCorpCd": "1",
    "running": true,
    "lat": 34.458889,
    "lon": 135.4805,
    "route": "泉大津駅前→和泉府中駅前→光明池駅",
    "stop": "和泉和田",
    "passTime": "19:35",
    "vehicleType": "南海バス(車椅子・ベビーカー・ノンステップ)",
    "updateTime": "2026/07/21 19:37"
  },
  {
    "vehicleNum": "092382",
    "vehicleCd": "556",
    "vehicleCorpCd": "1",
    "running": true,
    "lat": 34.4605,
    "lon": 135.454278,
    "route": "光明池駅→光明池車庫→和泉中央駅→泉大津駅前",
    "stop": "和泉中央駅",
    "passTime": "19:33",
    "vehicleType": "南海バス(車椅子・ベビーカー・ノンステップ)",
    "updateTime": "2026/07/21 19:37"
  },
  {
    "vehicleNum": "092383",
    "vehicleCd": "44",
    "vehicleCorpCd": "1",
    "running": true,
    "lat": 34.446694,
    "lon": 135.453472,
    "route": "和泉中央駅→のぞみ野南→美術館",
    "stop": "内田上",
    "passTime": "19:36",
    "vehicleType": "南海バス(車椅子・ベビーカー・ワンステップ)",
    "updateTime": "2026/07/21 19:37"
  },
  {
    "vehicleNum": "092394",
    "vehicleCd": "42",
    "vehicleCorpCd": "1",
    "running": true,
    "lat": 34.437083,
    "lon": 135.236083,
    "route": "エアロプラザ→第２ターミナル(国内線・国際線)→エアロプラザ",
    "stop": "第2ターミナル国際線",
    "passTime": "19:35",
    "vehicleType": "南海バス(車椅子・ノンステップ)",
    "updateTime": "2026/07/21 19:37"
  },
  {
    "vehicleNum": "092384",
    "vehicleCd": "558",
    "vehicleCorpCd": "1",
    "running": true,
    "lat": 34.474083,
    "lon": 135.485889,
    "route": "光明池駅→城山台２丁→光明池駅",
    "stop": "城山台一丁",
    "passTime": "19:35",
    "vehicleType": "南海バス(車椅子・ベビーカー・ノンステップ)",
    "updateTime": "2026/07/21 19:37"
  },
  {
    "vehicleNum": "092398",
    "vehicleCd": "41",
    "vehicleCorpCd": "1",
    "running": true,
    "lat": 34.432583,
    "lon": 135.2355,
    "route": "エアロプラザ→第２ターミナル(国内線・国際線)→エアロプラザ",
    "stop": "エアロプラザ",
    "passTime": "19:35",
    "vehicleType": "南海バス(車椅子・ノンステップ)",
    "updateTime": "2026/07/21 19:37"
  },
  {
    "vehicleNum": "092483",
    "vehicleCd": "110",
    "vehicleCorpCd": "1",
    "running": true,
    "lat": 34.436889,
    "lon": 135.568778,
    "route": "三日市町駅前→南花台１丁目北→大矢船西町",
    "stop": "三日市町駅前",
    "passTime": "19:34",
    "vehicleType": "南海バス(車椅子・ベビーカー・ノンステップ)",
    "updateTime": "2026/07/21 19:37"
  },
  {
    "vehicleNum": "092498",
    "vehicleCd": "8",
    "vehicleCorpCd": "1",
    "running": true,
    "lat": 34.457778,
    "lon": 135.449583,
    "route": "和泉中央駅→テクノステージセンター前→和泉中央駅",
    "stop": "唐国南",
    "passTime": "19:36",
    "vehicleType": "南海バス(車椅子・ベビーカー・ノンステップ)",
    "updateTime": "2026/07/21 19:37"
  },
  {
    "vehicleNum": "092534",
    "vehicleCd": "265",
    "vehicleCorpCd": "1",
    "running": true,
    "lat": 34.497694,
    "lon": 135.412778,
    "route": "和泉中央駅→阪本→泉大津駅前",
    "stop": "池浦中央",
    "passTime": "19:36",
    "vehicleType": "南海バス(車椅子・ベビーカー・ノンステップ)",
    "updateTime": "2026/07/21 19:37"
  },
  {
    "vehicleNum": "092569",
    "vehicleCd": "266",
    "vehicleCorpCd": "1",
    "running": true,
    "lat": 34.555583,
    "lon": 135.468889,
    "route": "光明池駅→山田→堺東駅前",
    "stop": "霞ヶ丘",
    "passTime": "19:34",
    "vehicleType": "南海バス(車椅子・ベビーカー・ノンステップ)",
    "updateTime": "2026/07/21 19:37"
  },
  {
    "vehicleNum": "092577",
    "vehicleCd": "578",
    "vehicleCorpCd": "1",
    "running": true,
    "lat": 34.446889,
    "lon": 135.578,
    "route": "河内長野駅前→河合寺→小吹台",
    "stop": "河合寺",
    "passTime": "19:36",
    "vehicleType": "南海バス(車椅子・ベビーカー・ノンステップ)",
    "updateTime": "2026/07/21 19:37"
  },
  {
    "vehicleNum": "092572",
    "vehicleCd": "313",
    "vehicleCorpCd": "1",
    "running": true,
    "lat": 34.4915,
    "lon": 135.472694,
    "route": "光明池駅→赤坂台４丁→光明池駅",
    "stop": "赤坂台センター",
    "passTime": "19:35",
    "vehicleType": "南海バス(車椅子・ベビーカー・ノンステップ)",
    "updateTime": "2026/07/21 19:37"
  },
  {
    "vehicleNum": "092570",
    "vehicleCd": "577",
    "vehicleCorpCd": "1",
    "running": true,
    "lat": 34.542889,
    "lon": 135.463389,
    "route": "堺東駅前→鳳駅前→国分峠東",
    "stop": "下田",
    "passTime": "19:35",
    "vehicleType": "南海バス(車椅子・ベビーカー・ノンステップ)",
    "updateTime": "2026/07/21 19:37"
  },
  {
    "vehicleNum": "092578",
    "vehicleCd": "147",
    "vehicleCorpCd": "1",
    "running": true,
    "lat": 34.438,
    "lon": 135.595694,
    "route": "小吹台→河内長野駅前",
    "stop": "観心寺",
    "passTime": "19:36",
    "vehicleType": "南海バス(車椅子・ベビーカー・ノンステップ)",
    "updateTime": "2026/07/21 19:37"
  },
  {
    "vehicleNum": "092579",
    "vehicleCd": "579",
    "vehicleCorpCd": "1",
    "running": true,
    "lat": 34.448889,
    "lon": 135.550278,
    "route": "千代→緑→小山田→千代",
    "stop": "福祉センターあかみね",
    "passTime": "19:35",
    "vehicleType": "南海バス(車椅子・ベビーカー・ノンステップ)",
    "updateTime": "2026/07/21 19:37"
  },
  {
    "vehicleNum": "092587",
    "vehicleCd": "124",
    "vehicleCorpCd": "1",
    "running": true,
    "lat": 34.425889,
    "lon": 135.547583,
    "route": "滝畑ダム→河内長野駅前",
    "stop": "中日野",
    "passTime": "19:35",
    "vehicleType": "南海バス(車椅子・ベビーカー・ノンステップ)",
    "updateTime": "2026/07/21 19:37"
  },
  {
    "vehicleNum": "092580",
    "vehicleCd": "377",
    "vehicleCorpCd": "1",
    "running": true,
    "lat": 34.473,
    "lon": 135.431694,
    "route": "泉大津駅前→和泉府中駅前→和泉中央駅",
    "stop": "寺門",
    "passTime": "19:36",
    "vehicleType": "南海バス(車椅子・ベビーカー・ノンステップ)",
    "updateTime": "2026/07/21 19:37"
  },
  {
    "vehicleNum": "092595",
    "vehicleCd": "326",
    "vehicleCorpCd": "1",
    "running": true,
    "lat": 34.425583,
    "lon": 135.591389,
    "route": "美加の台駅前→美加の台西→美加の台駅前",
    "stop": "美加の台東",
    "passTime": "19:37",
    "vehicleType": "南海バス(車椅子・ベビーカー・ノンステップ)",
    "updateTime": "2026/07/21 19:37"
  },
  {
    "vehicleNum": "092620",
    "vehicleCd": "311",
    "vehicleCorpCd": "1",
    "running": true,
    "lat": 34.422389,
    "lon": 135.558,
    "route": "南ヶ丘→南花台４丁目→三日市町駅前",
    "stop": "大矢船北町（南花台系統）",
    "passTime": "19:36",
    "vehicleType": "南海バス(車椅子・ベビーカー・ノンステップ)",
    "updateTime": "2026/07/21 19:37"
  },
  {
    "vehicleNum": "092647",
    "vehicleCd": "587",
    "vehicleCorpCd": "1",
    "running": true,
    "lat": 34.4675,
    "lon": 135.564389,
    "route": "千代田駅前→赤峯→荘園町",
    "stop": "南海西友前",
    "passTime": "19:37",
    "vehicleType": "南海バス(車椅子・ベビーカー・ノンステップ)",
    "updateTime": "2026/07/21 19:37"
  },
  {
    "vehicleNum": "092653",
    "vehicleCd": "357",
    "vehicleCorpCd": "1",
    "running": true,
    "lat": 34.467778,
    "lon": 135.565389,
    "route": "千代田駅前→貴望ヶ丘",
    "stop": "千代田駅前",
    "passTime": "19:33",
    "vehicleType": "南海バス(車椅子・ベビーカー・ノンステップ)",
    "updateTime": "2026/07/21 19:37"
  },
  {
    "vehicleNum": "092696",
    "vehicleCd": "589",
    "vehicleCorpCd": "1",
    "running": true,
    "lat": 34.453083,
    "lon": 135.463778,
    "route": "和泉中央駅→はつが野六丁目→和泉中央駅",
    "stop": "のぞみ野東",
    "passTime": "19:36",
    "vehicleType": "南海バス(車椅子・ベビーカー・ノンステップ)",
    "updateTime": "2026/07/21 19:37"
  },
  {
    "vehicleNum": "092711",
    "vehicleCd": "355",
    "vehicleCorpCd": "1",
    "running": true,
    "lat": 34.497889,
    "lon": 135.466778,
    "route": "光明池駅→山田→堺東駅前",
    "stop": "北高尾",
    "passTime": "19:37",
    "vehicleType": "南海バス(車椅子・ベビーカー・ノンステップ)",
    "updateTime": "2026/07/21 19:37"
  },
  {
    "vehicleNum": "092757",
    "vehicleCd": "306",
    "vehicleCorpCd": "1",
    "running": true,
    "lat": 34.423083,
    "lon": 135.556083,
    "route": "三日市町駅前→南花台１丁目北→南ヶ丘",
    "stop": "南花台４丁目",
    "passTime": "19:35",
    "vehicleType": "南海バス(車椅子・ベビーカー・ノンステップ)",
    "updateTime": "2026/07/21 19:37"
  },
  {
    "vehicleNum": "092758",
    "vehicleCd": "363",
    "vehicleCorpCd": "1",
    "running": true,
    "lat": 34.437194,
    "lon": 135.573194,
    "route": "三日市町駅前→清見台１丁目",
    "stop": "三日市町駅前通",
    "passTime": "19:36",
    "vehicleType": "南海バス(車椅子・ベビーカー・ノンステップ)",
    "updateTime": "2026/07/21 19:37"
  },
  {
    "vehicleNum": "092763",
    "vehicleCd": "520",
    "vehicleCorpCd": "1",
    "running": true,
    "lat": 34.466278,
    "lon": 135.463583,
    "route": "和泉中央駅→和泉青葉台",
    "stop": "和泉中央駅",
    "passTime": "19:30",
    "vehicleType": "南海バス(車椅子・ベビーカー・ノンステップ)",
    "updateTime": "2026/07/21 19:37"
  },
  {
    "vehicleNum": "092795",
    "vehicleCd": "592",
    "vehicleCorpCd": "1",
    "running": true,
    "lat": 34.563694,
    "lon": 135.475778,
    "route": "堺東駅前→鳳駅前→光明池駅",
    "stop": "大仙中町",
    "passTime": "19:37",
    "vehicleType": "南海バス(車椅子・ベビーカー・ノンステップ)",
    "updateTime": "2026/07/21 19:37"
  },
  {
    "vehicleNum": "092859",
    "vehicleCd": "32",
    "vehicleCorpCd": "1",
    "running": true,
    "lat": 34.430972,
    "lon": 135.570778,
    "route": "三日市町駅東→南青葉台",
    "stop": "三日市町駅東",
    "passTime": "19:35",
    "vehicleType": "南海バス(車椅子・ベビーカー・ノンステップ)",
    "updateTime": "2026/07/21 19:37"
  },
  {
    "vehicleNum": "092860",
    "vehicleCd": "379",
    "vehicleCorpCd": "1",
    "running": true,
    "lat": 34.424389,
    "lon": 135.577389,
    "route": "美加の台駅前→美加の台口→美加の台駅前",
    "stop": "美加の台駅前",
    "passTime": "19:36",
    "vehicleType": "南海バス(車椅子・ベビーカー・ノンステップ)",
    "updateTime": "2026/07/21 19:37"
  },
  {
    "vehicleNum": "092872",
    "vehicleCd": "500",
    "vehicleCorpCd": "1",
    "running": true,
    "lat": 34.485972,
    "lon": 135.425194,
    "route": "ららぽーと和泉前→和泉中央駅→和泉府中駅前",
    "stop": "府中町南",
    "passTime": "19:33",
    "vehicleType": "南海バス(車椅子・ベビーカー・ノンステップ)",
    "updateTime": "2026/07/21 19:37"
  },
  {
    "vehicleNum": "092873",
    "vehicleCd": "234",
    "vehicleCorpCd": "1",
    "running": true,
    "lat": 34.4535,
    "lon": 135.443778,
    "route": "和泉中央駅→テクノステージセンター前→和泉中央駅",
    "stop": "唐国南",
    "passTime": "19:33",
    "vehicleType": "南海バス(車椅子・ベビーカー・ノンステップ)",
    "updateTime": "2026/07/21 19:37"
  },
  {
    "vehicleNum": "092914",
    "vehicleCd": "75",
    "vehicleCorpCd": "1",
    "running": true,
    "lat": 34.447278,
    "lon": 135.493083,
    "route": "光明池駅→城山台５丁→みずき台２丁目西",
    "stop": "みずき台一丁目",
    "passTime": "19:36",
    "vehicleType": "南海バス(車椅子・ベビーカー・ノンステップ)",
    "updateTime": "2026/07/21 19:37"
  },
  {
    "vehicleNum": "092919",
    "vehicleCd": "230",
    "vehicleCorpCd": "1",
    "running": true,
    "lat": 34.452083,
    "lon": 135.595194,
    "route": "こんごう福祉→長野",
    "stop": "府立こんごう福祉センター前",
    "passTime": "19:36",
    "vehicleType": "南海バス(車椅子・ベビーカー・ノンステップ)",
    "updateTime": "2026/07/21 19:37"
  },
  {
    "vehicleNum": "092948",
    "vehicleCd": "606",
    "vehicleCorpCd": "1",
    "running": true,
    "lat": 34.437583,
    "lon": 135.4495,
    "route": "テクノステージセンター前→府立産技研前→和泉中央駅",
    "stop": "ららぽーと和泉前",
    "passTime": "19:36",
    "vehicleType": "南海バス(車椅子・ベビーカー・ノンステップ)",
    "updateTime": "2026/07/21 19:37"
  },
  {
    "vehicleNum": "092951",
    "vehicleCd": "340",
    "vehicleCorpCd": "1",
    "running": true,
    "lat": 34.511694,
    "lon": 135.4755,
    "route": "堺東駅前→鳳駅前→栂・美木多駅",
    "stop": "万崎",
    "passTime": "19:34",
    "vehicleType": "南海バス(車椅子・ベビーカー・ノンステップ)",
    "updateTime": "2026/07/21 19:37"
  },
  {
    "vehicleNum": "092953",
    "vehicleCd": "122",
    "vehicleCorpCd": "1",
    "running": true,
    "lat": 34.432583,
    "lon": 135.234778,
    "route": "空港駅→国際循環→空港駅",
    "stop": "機内食前",
    "passTime": "19:36",
    "vehicleType": "南海バス(車椅子・ベビーカー・ノンステップ)",
    "updateTime": "2026/07/21 19:37"
  },
  {
    "vehicleNum": "092974",
    "vehicleCd": "260",
    "vehicleCorpCd": "1",
    "running": true,
    "lat": 34.506583,
    "lon": 135.444278,
    "route": "北信太駅筋→鶴山台団地→北信太駅筋",
    "stop": "太町",
    "passTime": "19:36",
    "vehicleType": "南海バス(車椅子・ベビーカー・ノンステップ)",
    "updateTime": "2026/07/21 19:37"
  },
  {
    "vehicleNum": "093032",
    "vehicleCd": "231",
    "vehicleCorpCd": "1",
    "running": true,
    "lat": 34.438083,
    "lon": 135.232694,
    "route": "第２ターミナル(国内線・国際線)→エアロプラザ",
    "stop": "第2ターミナル国際線",
    "passTime": "19:36",
    "vehicleType": "南海バス",
    "updateTime": "2026/07/21 19:37"
  },
  {
    "vehicleNum": "092977",
    "vehicleCd": "608",
    "vehicleCorpCd": "1",
    "running": true,
    "lat": 34.491,
    "lon": 135.4165,
    "route": "和泉中央駅→寺田→泉大津駅前",
    "stop": "泉大津急性期メディカルセンター前",
    "passTime": "19:35",
    "vehicleType": "南海バス(車椅子・ベビーカー・ノンステップ)",
    "updateTime": "2026/07/21 19:37"
  },
  {
    "vehicleNum": "092978",
    "vehicleCd": "325",
    "vehicleCorpCd": "1",
    "running": true,
    "lat": 34.474389,
    "lon": 135.438194,
    "route": "和泉府中駅前→いぶき野→和泉中央駅",
    "stop": "弥生町一丁目",
    "passTime": "19:37",
    "vehicleType": "南海バス(車椅子・ベビーカー・ノンステップ)",
    "updateTime": "2026/07/21 19:37"
  },
  {
    "vehicleNum": "093035",
    "vehicleCd": "609",
    "vehicleCorpCd": "1",
    "running": true,
    "lat": 34.4375,
    "lon": 135.244583,
    "route": "エアロプラザ→第２ターミナル(国内線・国際線)→エアロプラザ",
    "stop": "第2ターミナル国際線",
    "passTime": "19:30",
    "vehicleType": "南海バス",
    "updateTime": "2026/07/21 19:37"
  },
  {
    "vehicleNum": "093071",
    "vehicleCd": "274",
    "vehicleCorpCd": "1",
    "running": true,
    "lat": 34.491389,
    "lon": 135.415889,
    "route": "泉大津駅前→和泉府中駅前→和泉中央駅",
    "stop": "池浦",
    "passTime": "19:34",
    "vehicleType": "南海バス(車椅子・ベビーカー・ノンステップ)",
    "updateTime": "2026/07/21 19:37"
  },
  {
    "vehicleNum": "093073",
    "vehicleCd": "370",
    "vehicleCorpCd": "1",
    "running": true,
    "lat": 34.486278,
    "lon": 135.424889,
    "route": "泉大津駅前→和泉中央駅→和泉青葉台",
    "stop": "和泉府中駅前",
    "passTime": "19:34",
    "vehicleType": "南海バス(車椅子・ベビーカー・ノンステップ)",
    "updateTime": "2026/07/21 19:37"
  }
]