[
  {
    "vehicleNum": "070101",
    "vehicleCd": "400",
    "vehicleCorpCd": "1",
    "running": true,
    "lat": 34.483778,
    "lon": 135.545278,
    "route": "泉ヶ丘駅→狭山ニュータウンセンター→金剛駅前",
    "stop": "南中学校前",
    "passTime": "14:06",
    "vehicleType": "泉北コミュニティバス(車椅子・ベビーカー・ノンステップ)",
    "updateTime": "2026/07/22 14:08"
  },
  {
    "vehicleNum": "070105",
    "vehicleCd": "403",
    "vehicleCorpCd": "1",
    "running": true,
    "lat": 34.484778,
    "lon": 135.5275,
    "route": "泉ヶ丘駅→狭山ニュータウンセンター→金剛駅前",
    "stop": "槙塚台センター",
    "passTime": "14:08",
    "vehicleType": "泉北コミュニティバス(車椅子・ベビーカー・ノンステップ)",
    "updateTime": "2026/07/22 14:08"
  },
  {
    "vehicleNum": "070107",
    "vehicleCd": "405",
    "vehicleCorpCd": "1",
    "running": true,
    "lat": 34.498694,
    "lon": 135.556389,
    "route": "金剛駅前→狭山ニュータウンセンター→泉ヶ丘駅",
    "stop": "半田",
    "passTime": "14:05",
    "vehicleType": "泉北コミュニティバス(車椅子・ベビーカー・ノンステップ)",
    "updateTime": "2026/07/22 14:08"
  },
  {
    "vehicleNum": "070189",
    "vehicleCd": "67",
    "vehicleCorpCd": "1",
    "running": true,
    "lat": 34.56,
    "lon": 135.471083,
    "route": "堺駅南口→堺駅前",
    "stop": "塩穴通",
    "passTime": "14:07",
    "vehicleType": "南海バス(車椅子・ベビーカー・ワンステップ)",
    "updateTime": "2026/07/22 14:08"
  },
  {
    "vehicleNum": "071606",
    "vehicleCd": "413",
    "vehicleCorpCd": "1",
    "running": true,
    "lat": 34.574583,
    "lon": 135.482,
    "route": "堺駅前→大小路→堺東駅前",
    "stop": "熊野小学校前",
    "passTime": "14:06",
    "vehicleType": "堺シャトル(車椅子・ベビーカー・ノンステップ)",
    "updateTime": "2026/07/22 14:08"
  },
  {
    "vehicleNum": "071607",
    "vehicleCd": "414",
    "vehicleCorpCd": "1",
    "running": true,
    "lat": 34.574083,
    "lon": 135.484083,
    "route": "堺東駅前→大小路→堺駅前",
    "stop": "堺東駅前",
    "passTime": "14:07",
    "vehicleType": "堺シャトル(車椅子・ベビーカー・ノンステップ)",
    "updateTime": "2026/07/22 14:08"
  },
  {
    "vehicleNum": "080088",
    "vehicleCd": "442",
    "vehicleCorpCd": "1",
    "running": true,
    "lat": 34.500778,
    "lon": 135.574583,
    "route": "金剛駅前→向陽・藤沢回り→金剛駅前",
    "stop": "公園前",
    "passTime": "14:05",
    "vehicleType": "南海バス(車椅子・ベビーカー・ワンステップ)",
    "updateTime": "2026/07/22 14:08"
  },
  {
    "vehicleNum": "080105",
    "vehicleCd": "127",
    "vehicleCorpCd": "2",
    "running": true,
    "lat": 34.430389,
    "lon": 135.394694,
    "route": "岸和田駅前→天神山・一の宮循環　右回り→岸和田駅前",
    "stop": "天神山町１丁目",
    "passTime": "14:08",
    "vehicleType": "南海ウイングバス(車椅子・ベビーカー・ワンステップ)",
    "updateTime": "2026/07/22 14:08"
  },
  {
    "vehicleNum": "080146",
    "vehicleCd": "6",
    "vehicleCorpCd": "2",
    "running": true,
    "lat": 34.401389,
    "lon": 135.358083,
    "route": "熊取ニュータウン→熊取駅前（フリー乗降）",
    "stop": "大原口",
    "passTime": "14:08",
    "vehicleType": "南海ウイングバス(車椅子・ワンステップ)",
    "updateTime": "2026/07/22 14:08"
  },
  {
    "vehicleNum": "080178",
    "vehicleCd": "56",
    "vehicleCorpCd": "2",
    "running": true,
    "lat": 34.470278,
    "lon": 135.401278,
    "route": "和泉中央駅→徳洲会病院→岸和田駅前",
    "stop": "下池田",
    "passTime": "14:07",
    "vehicleType": "南海ウイングバス(車椅子・ベビーカー・ワンステップ)",
    "updateTime": "2026/07/22 14:08"
  },
  {
    "vehicleNum": "080186",
    "vehicleCd": "39",
    "vehicleCorpCd": "2",
    "running": true,
    "lat": 34.385083,
    "lon": 135.375083,
    "route": "つばさが丘北口→大阪体育大学前→熊取駅前→ダンバラ公園前→泉佐野駅前",
    "stop": "つばさが丘東",
    "passTime": "14:08",
    "vehicleType": "南海ウイングバス(車椅子・ベビーカー・ノンステップ)",
    "updateTime": "2026/07/22 14:08"
  },
  {
    "vehicleNum": "080318",
    "vehicleCd": "83",
    "vehicleCorpCd": "1",
    "running": true,
    "lat": 34.604278,
    "lon": 135.472778,
    "route": "匠町→住之江公園駅前→匠町",
    "stop": "松屋大和川通３丁",
    "passTime": "14:05",
    "vehicleType": "南海バス(車椅子・ベビーカー・ワンステップ)",
    "updateTime": "2026/07/22 14:08"
  },
  {
    "vehicleNum": "080323",
    "vehicleCd": "59",
    "vehicleCorpCd": "2",
    "running": true,
    "lat": 34.4055,
    "lon": 135.415,
    "route": "白原車庫→河合→上古城→岸和田駅前",
    "stop": "河合",
    "passTime": "14:08",
    "vehicleType": "南海ウイングバス(車椅子・ワンステップ)",
    "updateTime": "2026/07/22 14:08"
  },
  {
    "vehicleNum": "080388",
    "vehicleCd": "52",
    "vehicleCorpCd": "2",
    "running": true,
    "lat": 34.398083,
    "lon": 135.368389,
    "route": "泉佐野駅前→泉陽ヶ丘→熊取駅前→山の手台→小谷→熊取駅前→泉陽ヶ丘→泉佐野駅前",
    "stop": "大宮",
    "passTime": "14:07",
    "vehicleType": "南海ウイングバス(車椅子・ベビーカー・ワンステップ)",
    "updateTime": "2026/07/22 14:08"
  },
  {
    "vehicleNum": "080627",
    "vehicleCd": "446",
    "vehicleCorpCd": "1",
    "running": true,
    "lat": 34.528583,
    "lon": 135.536278,
    "route": "北野田駅前→多治井北（循環）→北野田駅前",
    "stop": "高松",
    "passTime": "14:07",
    "vehicleType": "南海バス(車椅子・ベビーカー・ノンステップ)",
    "updateTime": "2026/07/22 14:08"
  },
  {
    "vehicleNum": "080628",
    "vehicleCd": "445",
    "vehicleCorpCd": "1",
    "running": true,
    "lat": 34.528694,
    "lon": 135.536083,
    "route": "北野田駅前→多治井北（循環）→北野田駅前",
    "stop": "登美丘東小学校前",
    "passTime": "14:07",
    "vehicleType": "南海バス(車椅子・ベビーカー・ノンステップ)",
    "updateTime": "2026/07/22 14:08"
  },
  {
    "vehicleNum": "080629",
    "vehicleCd": "447",
    "vehicleCorpCd": "1",
    "running": true,
    "lat": 34.540194,
    "lon": 135.559083,
    "route": "美原区役所→野遠→地下鉄新金岡駅前",
    "stop": "美原区役所前",
    "passTime": "14:05",
    "vehicleType": "南海バス(車椅子・ベビーカー・ノンステップ)",
    "updateTime": "2026/07/22 14:08"
  },
  {
    "vehicleNum": "080644",
    "vehicleCd": "452",
    "vehicleCorpCd": "1",
    "running": true,
    "lat": 34.573778,
    "lon": 135.483694,
    "route": "堺駅前→堺駅南口",
    "stop": "一条通",
    "passTime": "14:07",
    "vehicleType": "南海バス(車椅子・ベビーカー・ノンステップ)",
    "updateTime": "2026/07/22 14:08"
  },
  {
    "vehicleNum": "080671",
    "vehicleCd": "465",
    "vehicleCorpCd": "1",
    "running": true,
    "lat": 34.577083,
    "lon": 135.492278,
    "route": "河内松原駅前→阪和堺市駅前→堺駅前",
    "stop": "田出井町",
    "passTime": "14:08",
    "vehicleType": "南海バス(車椅子・ベビーカー・ノンステップ)",
    "updateTime": "2026/07/22 14:08"
  },
  {
    "vehicleNum": "080698",
    "vehicleCd": "531",
    "vehicleCorpCd": "1",
    "running": true,
    "lat": 34.565583,
    "lon": 135.493889,
    "route": "堺駅南口→近畿中央呼吸器センター前→労災病院前→阪和堺市駅前",
    "stop": "細池橋",
    "passTime": "14:05",
    "vehicleType": "南海バス",
    "updateTime": "2026/07/22 14:08"
  },
  {
    "vehicleNum": "080707",
    "vehicleCd": "544",
    "vehicleCorpCd": "1",
    "running": true,
    "lat": 34.584,
    "lon": 135.468278,
    "route": "海浜匠町→匠町→堺駅西口→堺東駅前→阪和堺市駅前",
    "stop": "堺駅西口",
    "passTime": "14:07",
    "vehicleType": "南海バス(車椅子・ベビーカー・ノンステップ)",
    "updateTime": "2026/07/22 14:08"
  },
  {
    "vehicleNum": "080708",
    "vehicleCd": "537",
    "vehicleCorpCd": "1",
    "running": true,
    "lat": 34.487194,
    "lon": 135.519,
    "route": "泉ヶ丘駅→槙塚台左回り→泉ヶ丘駅",
    "stop": "茶山台３丁",
    "passTime": "14:08",
    "vehicleType": "南海バス(車椅子・ベビーカー・ノンステップ)",
    "updateTime": "2026/07/22 14:08"
  },
  {
    "vehicleNum": "080734",
    "vehicleCd": "415",
    "vehicleCorpCd": "1",
    "running": true,
    "lat": 34.543583,
    "lon": 135.541889,
    "route": "美原区役所→初芝駅前→美原区役所",
    "stop": "西大饗",
    "passTime": "14:08",
    "vehicleType": "南海バス",
    "updateTime": "2026/07/22 14:08"
  },
  {
    "vehicleNum": "080709",
    "vehicleCd": "5",
    "vehicleCorpCd": "2",
    "running": true,
    "lat": 34.389583,
    "lon": 135.330972,
    "route": "犬鳴山→泉佐野駅前",
    "stop": "新道出",
    "passTime": "14:06",
    "vehicleType": "南海ウイングバス(車椅子・ベビーカー・ノンステップ)",
    "updateTime": "2026/07/22 14:08"
  },
  {
    "vehicleNum": "080746",
    "vehicleCd": "395",
    "vehicleCorpCd": "1",
    "running": true,
    "lat": 34.500972,
    "lon": 135.536583,
    "route": "金剛駅前→泉ヶ丘駅→近大キャンパス前→金剛駅前",
    "stop": "近大おおさかメディカルキャンパス前",
    "passTime": "14:04",
    "vehicleType": "南海バス(車椅子・ベビーカー・ノンステップ)",
    "updateTime": "2026/07/22 14:08"
  },
  {
    "vehicleNum": "080750",
    "vehicleCd": "103",
    "vehicleCorpCd": "1",
    "running": true,
    "lat": 34.542389,
    "lon": 135.5275,
    "route": "美原区役所前→船戸下→初芝駅前→中もず駅前",
    "stop": "日置荘小学校前",
    "passTime": "14:06",
    "vehicleType": "南海バス(車椅子・ベビーカー・ノンステップ)",
    "updateTime": "2026/07/22 14:08"
  },
  {
    "vehicleNum": "080747",
    "vehicleCd": "161",
    "vehicleCorpCd": "1",
    "running": true,
    "lat": 34.540972,
    "lon": 135.533583,
    "route": "中もず駅前→初芝駅前→船戸下→美原区役所前",
    "stop": "日置荘小学校前",
    "passTime": "14:08",
    "vehicleType": "南海バス(車椅子・ベビーカー・ノンステップ)",
    "updateTime": "2026/07/22 14:08"
  },
  {
    "vehicleNum": "080756",
    "vehicleCd": "315",
    "vehicleCorpCd": "1",
    "running": true,
    "lat": 34.479889,
    "lon": 135.540778,
    "route": "金剛駅前→狭山ニュータウンセンター→泉ヶ丘駅",
    "stop": "大野台五丁目",
    "passTime": "14:08",
    "vehicleType": "南海バス(車椅子・ベビーカー・ノンステップ)",
    "updateTime": "2026/07/22 14:08"
  },
  {
    "vehicleNum": "080760",
    "vehicleCd": "559",
    "vehicleCorpCd": "1",
    "running": true,
    "lat": 34.565083,
    "lon": 135.433694,
    "route": "石津川駅前→臨港７区→臨港６区→石津川駅前",
    "stop": "臨港七区",
    "passTime": "14:06",
    "vehicleType": "南海バス(車椅子・ベビーカー・ノンステップ)",
    "updateTime": "2026/07/22 14:08"
  },
  {
    "vehicleNum": "080761",
    "vehicleCd": "560",
    "vehicleCorpCd": "1",
    "running": true,
    "lat": 34.582889,
    "lon": 135.509194,
    "route": "地下鉄北花田駅前→蔵前西→ＪＲ堺市駅前→地下鉄北花田駅前",
    "stop": "浅香山住宅前",
    "passTime": "14:08",
    "vehicleType": "南海バス(車椅子・ベビーカー・ノンステップ)",
    "updateTime": "2026/07/22 14:08"
  },
  {
    "vehicleNum": "080757",
    "vehicleCd": "182",
    "vehicleCorpCd": "1",
    "running": true,
    "lat": 34.498389,
    "lon": 135.570889,
    "route": "金剛駅前→向陽・藤沢回り→金剛駅前",
    "stop": "公園前",
    "passTime": "14:08",
    "vehicleType": "南海バス(車椅子・ベビーカー・ノンステップ)",
    "updateTime": "2026/07/22 14:08"
  },
  {
    "vehicleNum": "080794",
    "vehicleCd": "344",
    "vehicleCorpCd": "1",
    "running": true,
    "lat": 34.574389,
    "lon": 135.482583,
    "route": "阪和堺市駅前→堺東駅前→堺駅西口→匠町→海浜匠町",
    "stop": "瓦町公園前",
    "passTime": "14:07",
    "vehicleType": "南海バス(車椅子・ベビーカー・ノンステップ)",
    "updateTime": "2026/07/22 14:08"
  },
  {
    "vehicleNum": "080795",
    "vehicleCd": "43",
    "vehicleCorpCd": "1",
    "running": true,
    "lat": 34.5765,
    "lon": 135.516389,
    "route": "イオンモール堺北花田→蔵前町→河内松原駅前",
    "stop": "新堀町",
    "passTime": "14:08",
    "vehicleType": "南海バス(車椅子・ベビーカー・ノンステップ)",
    "updateTime": "2026/07/22 14:08"
  },
  {
    "vehicleNum": "080800",
    "vehicleCd": "304",
    "vehicleCorpCd": "1",
    "running": true,
    "lat": 34.577694,
    "lon": 135.476083,
    "route": "堺東→住之江公園→堺東",
    "stop": "大寺北門山之口前",
    "passTime": "14:08",
    "vehicleType": "南海バス(車椅子・ベビーカー・ノンステップ)",
    "updateTime": "2026/07/22 14:08"
  },
  {
    "vehicleNum": "080809",
    "vehicleCd": "215",
    "vehicleCorpCd": "1",
    "running": true,
    "lat": 34.603889,
    "lon": 135.453,
    "route": "堺東駅前→錦綾町→堺駅西口",
    "stop": "松屋大和川通",
    "passTime": "14:06",
    "vehicleType": "南海バス(車椅子・ベビーカー・ノンステップ)",
    "updateTime": "2026/07/22 14:08"
  },
  {
    "vehicleNum": "080814",
    "vehicleCd": "193",
    "vehicleCorpCd": "1",
    "running": true,
    "lat": 34.494972,
    "lon": 135.524694,
    "route": "泉ヶ丘駅→スマ・エコタウン晴美台→高倉台左回り→泉ヶ丘駅",
    "stop": "高倉台２丁",
    "passTime": "14:07",
    "vehicleType": "南海バス(車椅子・ベビーカー・ノンステップ)",
    "updateTime": "2026/07/22 14:09"
  },
  {
    "vehicleNum": "080815",
    "vehicleCd": "575",
    "vehicleCorpCd": "1",
    "running": true,
    "lat": 34.466778,
    "lon": 135.508389,
    "route": "泉ヶ丘駅→鉢ヶ峯→泉ヶ丘駅",
    "stop": "明正",
    "passTime": "14:08",
    "vehicleType": "南海バス(車椅子・ベビーカー・ノンステップ)",
    "updateTime": "2026/07/22 14:09"
  },
  {
    "vehicleNum": "080813",
    "vehicleCd": "269",
    "vehicleCorpCd": "1",
    "running": true,
    "lat": 34.582778,
    "lon": 135.486278,
    "route": "堺東駅前→錦綾町→河内天美駅前",
    "stop": "北庄町",
    "passTime": "14:08",
    "vehicleType": "南海バス(車椅子・ベビーカー・ノンステップ)",
    "updateTime": "2026/07/22 14:09"
  },
  {
    "vehicleNum": "080836",
    "vehicleCd": "268",
    "vehicleCorpCd": "1",
    "running": true,
    "lat": 34.574889,
    "lon": 135.554194,
    "route": "堺駅前→堺東駅前→河内松原駅前",
    "stop": "高見の里駅前",
    "passTime": "14:06",
    "vehicleType": "南海バス(車椅子・ベビーカー・ノンステップ)",
    "updateTime": "2026/07/22 14:09"
  },
  {
    "vehicleNum": "080850",
    "vehicleCd": "24",
    "vehicleCorpCd": "1",
    "running": true,
    "lat": 34.519778,
    "lon": 135.4775,
    "route": "泉ヶ丘駅→泉北２号線→堺市立総合医療センター前→津久野駅前",
    "stop": "八田西団地",
    "passTime": "14:08",
    "vehicleType": "南海バス(車椅子・ベビーカー・ノンステップ)",
    "updateTime": "2026/07/22 14:09"
  },
  {
    "vehicleNum": "080855",
    "vehicleCd": "16",
    "vehicleCorpCd": "1",
    "running": true,
    "lat": 34.483083,
    "lon": 135.490389,
    "route": "栂・美木多駅→庭代台右回り→栂・美木多駅",
    "stop": "栂・美木多駅",
    "passTime": "14:07",
    "vehicleType": "南海バス(車椅子・ベビーカー・ノンステップ)",
    "updateTime": "2026/07/22 14:09"
  },
  {
    "vehicleNum": "080852",
    "vehicleCd": "584",
    "vehicleCorpCd": "1",
    "running": true,
    "lat": 34.499694,
    "lon": 135.564278,
    "route": "金剛駅前→高辺台小学校前→金剛駅前",
    "stop": "久野喜台小学校前",
    "passTime": "14:08",
    "vehicleType": "南海バス(車椅子・ベビーカー・ノンステップ)",
    "updateTime": "2026/07/22 14:09"
  },
  {
    "vehicleNum": "080854",
    "vehicleCd": "17",
    "vehicleCorpCd": "1",
    "running": true,
    "lat": 34.576778,
    "lon": 135.495583,
    "route": "堺駅前→堺東駅前→河内松原駅前",
    "stop": "阪和堺市駅前",
    "passTime": "14:06",
    "vehicleType": "南海バス(車椅子・ベビーカー・ノンステップ)",
    "updateTime": "2026/07/22 14:09"
  },
  {
    "vehicleNum": "080858",
    "vehicleCd": "225",
    "vehicleCorpCd": "1",
    "running": true,
    "lat": 34.565694,
    "lon": 135.492889,
    "route": "阪和堺市駅前→労災病院前→近畿中央呼吸器センター前→堺駅南口",
    "stop": "三国ヶ丘駅前",
    "passTime": "14:09",
    "vehicleType": "南海バス(車椅子・ベビーカー・ノンステップ)",
    "updateTime": "2026/07/22 14:09"
  },
  {
    "vehicleNum": "080859",
    "vehicleCd": "227",
    "vehicleCorpCd": "1",
    "running": true,
    "lat": 34.593194,
    "lon": 135.452889,
    "route": "堺駅西口→錦綾町→堺東駅前",
    "stop": "八幡町",
    "passTime": "14:06",
    "vehicleType": "南海バス(車椅子・ベビーカー・ノンステップ)",
    "updateTime": "2026/07/22 14:09"
  },
  {
    "vehicleNum": "080865",
    "vehicleCd": "504",
    "vehicleCorpCd": "1",
    "running": true,
    "lat": 34.567583,
    "lon": 135.502278,
    "route": "堺東駅前→労災病院前→白鷺駅前（循環）",
    "stop": "黒土町",
    "passTime": "14:08",
    "vehicleType": "南海バス(車椅子・ベビーカー・ノンステップ)",
    "updateTime": "2026/07/22 14:09"
  },
  {
    "vehicleNum": "080879",
    "vehicleCd": "359",
    "vehicleCorpCd": "1",
    "running": true,
    "lat": 34.5705,
    "lon": 135.474083,
    "route": "鳳西町南→浜寺中学校前→堺東駅前",
    "stop": "栄泰橋",
    "passTime": "14:09",
    "vehicleType": "南海バス(車椅子・ベビーカー・ノンステップ)",
    "updateTime": "2026/07/22 14:09"
  },
  {
    "vehicleNum": "080874",
    "vehicleCd": "352",
    "vehicleCorpCd": "1",
    "running": true,
    "lat": 34.487889,
    "lon": 135.5225,
    "route": "泉ヶ丘駅→晴美台右回り→泉ヶ丘駅",
    "stop": "茶山台２丁",
    "passTime": "14:06",
    "vehicleType": "南海バス(車椅子・ベビーカー・ノンステップ)",
    "updateTime": "2026/07/22 14:09"
  },
  {
    "vehicleNum": "080873",
    "vehicleCd": "144",
    "vehicleCorpCd": "1",
    "running": true,
    "lat": 34.496083,
    "lon": 135.512278,
    "route": "泉ヶ丘駅→御池台回り→泉ヶ丘駅",
    "stop": "栂・美木多駅",
    "passTime": "13:59",
    "vehicleType": "南海バス(車椅子・ベビーカー・ノンステップ)",
    "updateTime": "2026/07/22 14:09"
  },
  {
    "vehicleNum": "080878",
    "vehicleCd": "368",
    "vehicleCorpCd": "1",
    "running": true,
    "lat": 34.525083,
    "lon": 135.525389,
    "route": "北野田駅前→福町→堺駅南口",
    "stop": "下出口",
    "passTime": "14:08",
    "vehicleType": "南海バス(車椅子・ベビーカー・ノンステップ)",
    "updateTime": "2026/07/22 14:09"
  },
  {
    "vehicleNum": "080880",
    "vehicleCd": "360",
    "vehicleCorpCd": "1",
    "running": true,
    "lat": 34.584194,
    "lon": 135.500472,
    "route": "河内天美駅前→天美我堂→堺東駅前",
    "stop": "浅香",
    "passTime": "14:07",
    "vehicleType": "南海バス(車椅子・ベビーカー・ノンステップ)",
    "updateTime": "2026/07/22 14:09"
  },
  {
    "vehicleNum": "080884",
    "vehicleCd": "116",
    "vehicleCorpCd": "1",
    "running": true,
    "lat": 34.523083,
    "lon": 135.473194,
    "route": "津久野駅前→堺市立総合医療センター前→泉北２号線→泉ヶ丘駅",
    "stop": "鈴の宮団地西口",
    "passTime": "14:08",
    "vehicleType": "南海バス(車椅子・ベビーカー・ノンステップ)",
    "updateTime": "2026/07/22 14:09"
  },
  {
    "vehicleNum": "080883",
    "vehicleCd": "361",
    "vehicleCorpCd": "1",
    "running": true,
    "lat": 34.499083,
    "lon": 135.530694,
    "route": "泉ヶ丘駅→帝塚山学院泉ヶ丘校前→金剛駅前",
    "stop": "堺東高校前",
    "passTime": "14:08",
    "vehicleType": "南海バス(車椅子・ベビーカー・ノンステップ)",
    "updateTime": "2026/07/22 14:09"
  },
  {
    "vehicleNum": "080894",
    "vehicleCd": "350",
    "vehicleCorpCd": "1",
    "running": true,
    "lat": 34.5585,
    "lon": 135.540583,
    "route": "地下鉄新金岡駅前→野遠→美原区役所",
    "stop": "野遠",
    "passTime": "14:08",
    "vehicleType": "南海バス(車椅子・ベビーカー・ノンステップ)",
    "updateTime": "2026/07/22 14:09"
  },
  {
    "vehicleNum": "080907",
    "vehicleCd": "499",
    "vehicleCorpCd": "1",
    "running": true,
    "lat": 34.491972,
    "lon": 135.491583,
    "route": "栂・美木多駅→小代→堺市立総合医療センター前→津久野駅前",
    "stop": "桃山台口",
    "passTime": "14:08",
    "vehicleType": "南海バス(車椅子・ベビーカー・ノンステップ)",
    "updateTime": "2026/07/22 14:09"
  },
  {
    "vehicleNum": "080917",
    "vehicleCd": "70",
    "vehicleCorpCd": "1",
    "running": true,
    "lat": 34.506583,
    "lon": 135.502,
    "route": "津久野駅前→堺市立総合医療センター前→八田荘団地→泉ヶ丘駅",
    "stop": "深阪",
    "passTime": "14:08",
    "vehicleType": "南海バス(車椅子・ベビーカー・ノンステップ)",
    "updateTime": "2026/07/22 14:09"
  },
  {
    "vehicleNum": "080918",
    "vehicleCd": "419",
    "vehicleCorpCd": "1",
    "running": true,
    "lat": 34.604,
    "lon": 135.453389,
    "route": "匠町→住之江公園駅前→匠町",
    "stop": "松屋大和川通",
    "passTime": "14:06",
    "vehicleType": "南海バス(車椅子・ベビーカー・ノンステップ)",
    "updateTime": "2026/07/22 14:09"
  },
  {
    "vehicleNum": "080912",
    "vehicleCd": "372",
    "vehicleCorpCd": "1",
    "running": true,
    "lat": 34.588083,
    "lon": 135.536583,
    "route": "堺東駅前→錦綾町→河内天美駅前",
    "stop": "天美西",
    "passTime": "14:05",
    "vehicleType": "南海バス(車椅子・ベビーカー・ノンステップ)",
    "updateTime": "2026/07/22 14:09"
  },
  {
    "vehicleNum": "080921",
    "vehicleCd": "143",
    "vehicleCorpCd": "1",
    "running": true,
    "lat": 34.488083,
    "lon": 135.5175,
    "route": "泉ヶ丘駅→槙塚台左回り→泉ヶ丘駅",
    "stop": "茶山台３丁",
    "passTime": "14:07",
    "vehicleType": "南海バス(車椅子・ベビーカー・ノンステップ)",
    "updateTime": "2026/07/22 14:09"
  },
  {
    "vehicleNum": "080927",
    "vehicleCd": "79",
    "vehicleCorpCd": "1",
    "running": true,
    "lat": 34.503972,
    "lon": 135.505,
    "route": "泉ヶ丘駅→八田荘団地→堺市立総合医療センター前→津久野駅前",
    "stop": "古畑",
    "passTime": "14:08",
    "vehicleType": "南海バス(車椅子・ベビーカー・ノンステップ)",
    "updateTime": "2026/07/22 14:09"
  },
  {
    "vehicleNum": "080934",
    "vehicleCd": "594",
    "vehicleCorpCd": "1",
    "running": true,
    "lat": 34.575,
    "lon": 135.531,
    "route": "河内松原駅前→阪和堺市駅前→堺駅前",
    "stop": "南花田町東町会館前",
    "passTime": "14:08",
    "vehicleType": "南海バス(車椅子・ベビーカー・ノンステップ)",
    "updateTime": "2026/07/22 14:09"
  },
  {
    "vehicleNum": "080937",
    "vehicleCd": "595",
    "vehicleCorpCd": "1",
    "running": true,
    "lat": 34.5325,
    "lon": 135.523278,
    "route": "堺駅南口→三国ヶ丘駅前→北野田駅前",
    "stop": "関茶屋",
    "passTime": "14:07",
    "vehicleType": "南海バス(車椅子・ベビーカー・ノンステップ)",
    "updateTime": "2026/07/22 14:09"
  },
  {
    "vehicleNum": "080951",
    "vehicleCd": "597",
    "vehicleCorpCd": "1",
    "running": true,
    "lat": 34.494194,
    "lon": 135.518194,
    "route": "泉ヶ丘駅→晴美台右回り→泉ヶ丘駅",
    "stop": "茶山台２丁",
    "passTime": "14:08",
    "vehicleType": "南海バス(車椅子・ベビーカー・ノンステップ)",
    "updateTime": "2026/07/22 14:09"
  },
  {
    "vehicleNum": "080956",
    "vehicleCd": "71",
    "vehicleCorpCd": "1",
    "running": true,
    "lat": 34.5815,
    "lon": 135.470083,
    "route": "堺東駅前→ＡＴＣ→海遊館→堺東駅前",
    "stop": "堺駅前",
    "passTime": "14:08",
    "vehicleType": "南海バス",
    "updateTime": "2026/07/22 14:09"
  },
  {
    "vehicleNum": "080950",
    "vehicleCd": "513",
    "vehicleCorpCd": "1",
    "running": true,
    "lat": 34.565278,
    "lon": 135.514778,
    "route": "堺東駅前→労災病院前→白鷺駅前（循環）",
    "stop": "しもつ池",
    "passTime": "14:09",
    "vehicleType": "南海バス(車椅子・ベビーカー・ノンステップ)",
    "updateTime": "2026/07/22 14:09"
  },
  {
    "vehicleNum": "080994",
    "vehicleCd": "130",
    "vehicleCorpCd": "1",
    "running": true,
    "lat": 34.490889,
    "lon": 135.503694,
    "route": "泉ヶ丘駅→若松台左回り→泉ヶ丘駅",
    "stop": "泉北高校前",
    "passTime": "14:08",
    "vehicleType": "南海バス(車椅子・ベビーカー・ノンステップ)",
    "updateTime": "2026/07/22 14:09"
  },
  {
    "vehicleNum": "081001",
    "vehicleCd": "238",
    "vehicleCorpCd": "1",
    "running": true,
    "lat": 34.570778,
    "lon": 135.480278,
    "route": "北野田駅前→西口園→堺駅南口",
    "stop": "一条通",
    "passTime": "14:08",
    "vehicleType": "南海バス(車椅子・ベビーカー・ノンステップ)",
    "updateTime": "2026/07/22 14:09"
  },
  {
    "vehicleNum": "081003",
    "vehicleCd": "610",
    "vehicleCorpCd": "1",
    "running": true,
    "lat": 34.529694,
    "lon": 135.488,
    "route": "堺東駅前→上野芝→泉ヶ丘駅",
    "stop": "堀上",
    "passTime": "14:08",
    "vehicleType": "南海バス(車椅子・ベビーカー・ノンステップ)",
    "updateTime": "2026/07/22 14:09"
  },
  {
    "vehicleNum": "080999",
    "vehicleCd": "493",
    "vehicleCorpCd": "1",
    "running": true,
    "lat": 34.546083,
    "lon": 135.492194,
    "route": "中もず駅前→北条→深井駅→中老人福祉センター",
    "stop": "もず陵南町",
    "passTime": "14:08",
    "vehicleType": "南海バス(車椅子・ベビーカー・ノンステップ)",
    "updateTime": "2026/07/22 14:09"
  },
  {
    "vehicleNum": "081004",
    "vehicleCd": "271",
    "vehicleCorpCd": "1",
    "running": true,
    "lat": 34.530583,
    "lon": 135.497389,
    "route": "津久野駅前→鈴の宮団地センター→深井駅",
    "stop": "八田荘団地",
    "passTime": "14:05",
    "vehicleType": "南海バス(車椅子・ベビーカー・ノンステップ)",
    "updateTime": "2026/07/22 14:09"
  },
  {
    "vehicleNum": "081007",
    "vehicleCd": "127",
    "vehicleCorpCd": "1",
    "running": true,
    "lat": 34.521694,
    "lon": 135.503194,
    "route": "東山車庫前→小阪→堺東駅前",
    "stop": "桝矢",
    "passTime": "14:09",
    "vehicleType": "南海バス(車椅子・ベビーカー・ノンステップ)",
    "updateTime": "2026/07/22 14:09"
  },
  {
    "vehicleNum": "081008",
    "vehicleCd": "47",
    "vehicleCorpCd": "1",
    "running": true,
    "lat": 34.539389,
    "lon": 135.471889,
    "route": "深井駅→鈴の宮団地→堺市立総合医療センター前→津久野駅前",
    "stop": "堺市立総合医療センター前",
    "passTime": "14:08",
    "vehicleType": "南海バス(車椅子・ベビーカー・ノンステップ)",
    "updateTime": "2026/07/22 14:09"
  },
  {
    "vehicleNum": "081020",
    "vehicleCd": "163",
    "vehicleCorpCd": "1",
    "running": true,
    "lat": 34.568583,
    "lon": 135.484889,
    "route": "堺駅南口→福町→北野田駅前",
    "stop": "永山園",
    "passTime": "14:09",
    "vehicleType": "南海バス(車椅子・ベビーカー・ノンステップ)",
    "updateTime": "2026/07/22 14:09"
  },
  {
    "vehicleNum": "081019",
    "vehicleCd": "267",
    "vehicleCorpCd": "1",
    "running": true,
    "lat": 34.5585,
    "lon": 135.487889,
    "route": "堺東駅前→もず駅前→深井駅→あみだ池",
    "stop": "もず駅前",
    "passTime": "14:08",
    "vehicleType": "南海バス(車椅子・ベビーカー・ノンステップ)",
    "updateTime": "2026/07/22 14:09"
  },
  {
    "vehicleNum": "081021",
    "vehicleCd": "243",
    "vehicleCorpCd": "1",
    "running": true,
    "lat": 34.544083,
    "lon": 135.485583,
    "route": "泉ヶ丘駅→宮山台中学校前→堺東駅前",
    "stop": "北条",
    "passTime": "14:08",
    "vehicleType": "南海バス(車椅子・ベビーカー・ノンステップ)",
    "updateTime": "2026/07/22 14:09"
  },
  {
    "vehicleNum": "081024",
    "vehicleCd": "270",
    "vehicleCorpCd": "1",
    "running": true,
    "lat": 34.5145,
    "lon": 135.511083,
    "route": "あみだ池→深井駅→もず駅前→堺東駅前",
    "stop": "田園北口",
    "passTime": "14:08",
    "vehicleType": "南海バス(車椅子・ベビーカー・ノンステップ)",
    "updateTime": "2026/07/22 14:09"
  },
  {
    "vehicleNum": "081023",
    "vehicleCd": "264",
    "vehicleCorpCd": "1",
    "running": true,
    "lat": 34.538694,
    "lon": 135.476,
    "route": "堺東駅前→堀上緑町１丁→堺東駅前",
    "stop": "家原寺町",
    "passTime": "14:07",
    "vehicleType": "南海バス(車椅子・ベビーカー・ノンステップ)",
    "updateTime": "2026/07/22 14:09"
  },
  {
    "vehicleNum": "081034",
    "vehicleCd": "120",
    "vehicleCorpCd": "1",
    "running": true,
    "lat": 34.475472,
    "lon": 135.493083,
    "route": "泉ヶ丘駅→庭代台右回り→泉ヶ丘駅",
    "stop": "庭代台西口",
    "passTime": "14:08",
    "vehicleType": "南海バス(車椅子・ベビーカー・ノンステップ)",
    "updateTime": "2026/07/22 14:09"
  },
  {
    "vehicleNum": "081036",
    "vehicleCd": "293",
    "vehicleCorpCd": "1",
    "running": true,
    "lat": 34.464889,
    "lon": 135.499083,
    "route": "栂・美木多駅→御池台回り→栂・美木多駅",
    "stop": "御池台１丁",
    "passTime": "14:08",
    "vehicleType": "南海バス(車椅子・ベビーカー・ノンステップ)",
    "updateTime": "2026/07/22 14:09"
  },
  {
    "vehicleNum": "081044",
    "vehicleCd": "132",
    "vehicleCorpCd": "1",
    "running": true,
    "lat": 34.481278,
    "lon": 135.491,
    "route": "泉ヶ丘駅→御池台回り→泉ヶ丘駅",
    "stop": "栂・美木多駅",
    "passTime": "14:07",
    "vehicleType": "南海バス(車椅子・ベビーカー・ノンステップ)",
    "updateTime": "2026/07/22 14:09"
  },
  {
    "vehicleNum": "090104",
    "vehicleCd": "53",
    "vehicleCorpCd": "2",
    "running": true,
    "lat": 34.452889,
    "lon": 135.406778,
    "route": "下松駅前→道の駅愛彩ランド",
    "stop": "桜台中学校前",
    "passTime": "14:08",
    "vehicleType": "南海ウイングバス(車椅子・ベビーカー・ワンステップ)",
    "updateTime": "2026/07/22 14:09"
  },
  {
    "vehicleNum": "090160",
    "vehicleCd": "72",
    "vehicleCorpCd": "2",
    "running": true,
    "lat": 34.448889,
    "lon": 135.3855,
    "route": "岸和田駅前→上古城→塔原",
    "stop": "東岸和田駅前",
    "passTime": "14:08",
    "vehicleType": "南海ウイングバス(車椅子・ワンステップ)",
    "updateTime": "2026/07/22 14:09"
  },
  {
    "vehicleNum": "090170",
    "vehicleCd": "117",
    "vehicleCorpCd": "2",
    "running": true,
    "lat": 34.461083,
    "lon": 135.3945,
    "route": "白原車庫→内畑→岸和田駅前",
    "stop": "市民病院前",
    "passTime": "14:07",
    "vehicleType": "南海ウイングバス",
    "updateTime": "2026/07/22 14:09"
  },
  {
    "vehicleNum": "090144",
    "vehicleCd": "82",
    "vehicleCorpCd": "2",
    "running": true,
    "lat": 34.467583,
    "lon": 135.419,
    "route": "岸和田駅前→徳洲会病院→和泉中央駅",
    "stop": "今木",
    "passTime": "14:08",
    "vehicleType": "南海ウイングバス(車椅子・ベビーカー・ワンステップ)",
    "updateTime": "2026/07/22 14:09"
  },
  {
    "vehicleNum": "090289",
    "vehicleCd": "9",
    "vehicleCorpCd": "2",
    "running": true,
    "lat": 34.344889,
    "lon": 135.287278,
    "route": "泉南市コミュニティバス 山回り",
    "stop": "六尾",
    "passTime": "14:08",
    "vehicleType": "南海ウイングバス(車椅子・ベビーカー・ノンステップ)",
    "updateTime": "2026/07/22 14:09"
  },
  {
    "vehicleNum": "091146",
    "vehicleCd": "17",
    "vehicleCorpCd": "2",
    "running": true,
    "lat": 34.400694,
    "lon": 135.344778,
    "route": "熊取駅前→大阪体育大学前",
    "stop": "大久保",
    "passTime": "14:08",
    "vehicleType": "南海ウイングバス(車椅子・ベビーカー・ワンステップ)",
    "updateTime": "2026/07/22 14:09"
  },
  {
    "vehicleNum": "091107",
    "vehicleCd": "23",
    "vehicleCorpCd": "2",
    "running": true,
    "lat": 34.429472,
    "lon": 135.430583,
    "route": "道の駅愛彩ランド→包近→和泉中央駅",
    "stop": "蜻蛉池公園東",
    "passTime": "14:09",
    "vehicleType": "南海ウイングバス(車椅子・ワンステップ)",
    "updateTime": "2026/07/22 14:09"
  },
  {
    "vehicleNum": "091444",
    "vehicleCd": "107",
    "vehicleCorpCd": "2",
    "running": true,
    "lat": 34.408,
    "lon": 135.3645,
    "route": "泉佐野駅前→上瓦屋町→熊取駅前→熊取ニュータウン（フリー乗降）",
    "stop": "希望が丘北",
    "passTime": "14:07",
    "vehicleType": "南海ウイングバス(車椅子・ベビーカー・ノンステップ)",
    "updateTime": "2026/07/22 14:09"
  },
  {
    "vehicleNum": "091580",
    "vehicleCd": "85",
    "vehicleCorpCd": "2",
    "running": true,
    "lat": 34.372389,
    "lon": 135.2655,
    "route": "泉南市コミュニティバス 新家回り",
    "stop": "前畑団地西",
    "passTime": "14:09",
    "vehicleType": "南海ウイングバス(車椅子・ベビーカー・ノンステップ)",
    "updateTime": "2026/07/22 14:09"
  },
  {
    "vehicleNum": "091581",
    "vehicleCd": "198",
    "vehicleCorpCd": "1",
    "running": true,
    "lat": 34.421194,
    "lon": 135.222889,
    "route": "給油地区→空港駅",
    "stop": "給油地区",
    "passTime": "14:09",
    "vehicleType": "南海バス(車椅子・ノンステップ)",
    "updateTime": "2026/07/22 14:09"
  },
  {
    "vehicleNum": "091745",
    "vehicleCd": "103",
    "vehicleCorpCd": "2",
    "running": true,
    "lat": 34.388778,
    "lon": 135.448694,
    "route": "岸和田駅前→内畑→牛滝温泉",
    "stop": "上大沢",
    "passTime": "14:09",
    "vehicleType": "南海ウイングバス",
    "updateTime": "2026/07/22 14:09"
  },
  {
    "vehicleNum": "091893",
    "vehicleCd": "84",
    "vehicleCorpCd": "2",
    "running": true,
    "lat": 34.368194,
    "lon": 135.27,
    "route": "泉南市コミュニティバス 砂川回り",
    "stop": "総合福祉センター",
    "passTime": "14:08",
    "vehicleType": "岸和田市コミュニティバス(ローズバス)",
    "updateTime": "2026/07/22 14:09"
  },
  {
    "vehicleNum": "092046",
    "vehicleCd": "464",
    "vehicleCorpCd": "1",
    "running": true,
    "lat": 34.454194,
    "lon": 135.563778,
    "route": "ﾓｯｸﾙ 美加～木戸東町～美加",
    "stop": "河内長野警察署前",
    "passTime": "14:09",
    "vehicleType": "南海バス(車椅子・ベビーカー・ノンステップ)",
    "updateTime": "2026/07/22 14:09"
  },
  {
    "vehicleNum": "092153",
    "vehicleCd": "529",
    "vehicleCorpCd": "1",
    "running": true,
    "lat": 34.434278,
    "lon": 135.237778,
    "route": "エアロプラザ→第２ターミナル(国内線・国際線)→エアロプラザ",
    "stop": "第2ターミナル国内線",
    "passTime": "14:04",
    "vehicleType": "南海バス",
    "updateTime": "2026/07/22 14:09"
  },
  {
    "vehicleNum": "092135",
    "vehicleCd": "525",
    "vehicleCorpCd": "1",
    "running": true,
    "lat": 34.435278,
    "lon": 135.239778,
    "route": "エアロプラザ→第２ターミナル(国内線・国際線)→エアロプラザ",
    "stop": "エアロプラザ",
    "passTime": "14:08",
    "vehicleType": "南海バス",
    "updateTime": "2026/07/22 14:09"
  },
  {
    "vehicleNum": "092233",
    "vehicleCd": "533",
    "vehicleCorpCd": "1",
    "running": true,
    "lat": 34.477389,
    "lon": 135.467389,
    "route": "堺東駅前→鳳駅前→光明池駅",
    "stop": "下伏屋",
    "passTime": "14:07",
    "vehicleType": "南海バス(車椅子・ベビーカー・ノンステップ)",
    "updateTime": "2026/07/22 14:09"
  },
  {
    "vehicleNum": "092345",
    "vehicleCd": "160",
    "vehicleCorpCd": "1",
    "running": true,
    "lat": 34.426694,
    "lon": 135.230889,
    "route": "給油地区→ＦｅｄＥｘ→空港駅",
    "stop": "第1輸出ビル前",
    "passTime": "14:09",
    "vehicleType": "南海バス",
    "updateTime": "2026/07/22 14:09"
  },
  {
    "vehicleNum": "092384",
    "vehicleCd": "558",
    "vehicleCorpCd": "1",
    "running": true,
    "lat": 34.481472,
    "lon": 135.423694,
    "route": "泉大津駅前→和泉府中駅前→和泉中央駅",
    "stop": "和泉市役所前",
    "passTime": "14:07",
    "vehicleType": "南海バス(車椅子・ベビーカー・ノンステップ)",
    "updateTime": "2026/07/22 14:09"
  },
  {
    "vehicleNum": "092454",
    "vehicleCd": "125",
    "vehicleCorpCd": "2",
    "running": true,
    "lat": 34.370389,
    "lon": 135.2795,
    "route": "泉南市コミュニティバス 岡田Ｂ回り",
    "stop": "市場大発団地前",
    "passTime": "14:09",
    "vehicleType": "泉南市コミュニティバス(橙)",
    "updateTime": "2026/07/22 14:09"
  },
  {
    "vehicleNum": "092447",
    "vehicleCd": "573",
    "vehicleCorpCd": "1",
    "running": true,
    "lat": 34.430194,
    "lon": 135.225278,
    "route": "空港駅→ＦｅｄＥｘ→給油地区",
    "stop": "二期島国際貨物駐車場前",
    "passTime": "14:09",
    "vehicleType": "南海バス(車椅子・ベビーカー・ノンステップ)",
    "updateTime": "2026/07/22 14:09"
  },
  {
    "vehicleNum": "092467",
    "vehicleCd": "50",
    "vehicleCorpCd": "1",
    "running": true,
    "lat": 34.450194,
    "lon": 135.564583,
    "route": "河内長野駅前→長野車庫",
    "stop": "錦町",
    "passTime": "14:08",
    "vehicleType": "南海バス(車椅子・ベビーカー・ノンステップ)",
    "updateTime": "2026/07/22 14:09"
  },
  {
    "vehicleNum": "092469",
    "vehicleCd": "220",
    "vehicleCorpCd": "1",
    "running": true,
    "lat": 34.438,
    "lon": 135.595778,
    "route": "金剛山ﾛｰﾌﾟｳｪｲ前→日東町東口→河内長野駅前",
    "stop": "観心寺",
    "passTime": "14:09",
    "vehicleType": "南海バス(車椅子・ベビーカー・ノンステップ)",
    "updateTime": "2026/07/22 14:09"
  },
  {
    "vehicleNum": "092483",
    "vehicleCd": "110",
    "vehicleCorpCd": "1",
    "running": true,
    "lat": 34.436694,
    "lon": 135.569694,
    "route": "三日市町駅前→南花台１丁目北→南ヶ丘",
    "stop": "三日市町駅前",
    "passTime": "14:08",
    "vehicleType": "南海バス(車椅子・ベビーカー・ノンステップ)",
    "updateTime": "2026/07/22 14:09"
  },
  {
    "vehicleNum": "092533",
    "vehicleCd": "288",
    "vehicleCorpCd": "1",
    "running": true,
    "lat": 34.473972,
    "lon": 135.476278,
    "route": "光明池駅→新檜尾台センター→光明池駅",
    "stop": "伏屋東",
    "passTime": "14:04",
    "vehicleType": "南海バス(車椅子・ベビーカー・ノンステップ)",
    "updateTime": "2026/07/22 14:09"
  },
  {
    "vehicleNum": "092534",
    "vehicleCd": "265",
    "vehicleCorpCd": "1",
    "running": true,
    "lat": 34.476972,
    "lon": 135.434194,
    "route": "和泉府中駅前→医療センター玄関口→和泉中央駅",
    "stop": "寺門町一丁目",
    "passTime": "14:09",
    "vehicleType": "南海バス(車椅子・ベビーカー・ノンステップ)",
    "updateTime": "2026/07/22 14:09"
  },
  {
    "vehicleNum": "092570",
    "vehicleCd": "577",
    "vehicleCorpCd": "1",
    "running": true,
    "lat": 34.496778,
    "lon": 135.413,
    "route": "泉大津駅前→和泉府中駅前→和泉中央駅→光明池駅",
    "stop": "池浦中央",
    "passTime": "14:07",
    "vehicleType": "南海バス(車椅子・ベビーカー・ノンステップ)",
    "updateTime": "2026/07/22 14:09"
  },
  {
    "vehicleNum": "092470",
    "vehicleCd": "105",
    "vehicleCorpCd": "1",
    "running": true,
    "lat": 34.437583,
    "lon": 135.5965,
    "route": "河内長野駅前→日東町東口→金剛山ﾛｰﾌﾟｳｪｲ前",
    "stop": "観心寺",
    "passTime": "14:07",
    "vehicleType": "南海バス(車椅子・ベビーカー・ノンステップ)",
    "updateTime": "2026/07/22 14:09"
  },
  {
    "vehicleNum": "092572",
    "vehicleCd": "313",
    "vehicleCorpCd": "1",
    "running": true,
    "lat": 34.499194,
    "lon": 135.450083,
    "route": "北信太駅筋→鶴山台団地→北信太駅筋",
    "stop": "鶴山台南小学校前",
    "passTime": "14:08",
    "vehicleType": "南海バス(車椅子・ベビーカー・ノンステップ)",
    "updateTime": "2026/07/22 14:09"
  },
  {
    "vehicleNum": "092579",
    "vehicleCd": "579",
    "vehicleCorpCd": "1",
    "running": true,
    "lat": 34.4495,
    "lon": 135.5445,
    "route": "千代→緑→小山田→千代",
    "stop": "緑ヶ丘北町",
    "passTime": "14:09",
    "vehicleType": "南海バス(車椅子・ベビーカー・ノンステップ)",
    "updateTime": "2026/07/22 14:09"
  },
  {
    "vehicleNum": "092620",
    "vehicleCd": "311",
    "vehicleCorpCd": "1",
    "running": true,
    "lat": 34.437389,
    "lon": 135.544194,
    "route": "旭ヶ丘→水落→河内長野駅前",
    "stop": "清崎",
    "passTime": "14:08",
    "vehicleType": "南海バス(車椅子・ベビーカー・ノンステップ)",
    "updateTime": "2026/07/22 14:09"
  },
  {
    "vehicleNum": "092647",
    "vehicleCd": "587",
    "vehicleCorpCd": "1",
    "running": true,
    "lat": 34.452583,
    "lon": 135.566694,
    "route": "河内長野駅前→水落→旭ヶ丘",
    "stop": "西代町南",
    "passTime": "14:08",
    "vehicleType": "南海バス(車椅子・ベビーカー・ノンステップ)",
    "updateTime": "2026/07/22 14:09"
  },
  {
    "vehicleNum": "092623",
    "vehicleCd": "15",
    "vehicleCorpCd": "1",
    "running": true,
    "lat": 34.483694,
    "lon": 135.488694,
    "route": "泉ヶ丘駅→光明池駅→赤坂台４丁→光明池駅→泉ヶ丘駅",
    "stop": "泉ヶ丘駅（北側）",
    "passTime": "14:04",
    "vehicleType": "南海バス(車椅子・ベビーカー・ノンステップ)",
    "updateTime": "2026/07/22 14:09"
  },
  {
    "vehicleNum": "092696",
    "vehicleCd": "589",
    "vehicleCorpCd": "1",
    "running": true,
    "lat": 34.515083,
    "lon": 135.464694,
    "route": "堺東駅前→鳳駅前→国分峠東",
    "stop": "草部",
    "passTime": "14:08",
    "vehicleType": "南海バス(車椅子・ベビーカー・ノンステップ)",
    "updateTime": "2026/07/22 14:09"
  },
  {
    "vehicleNum": "092757",
    "vehicleCd": "306",
    "vehicleCorpCd": "1",
    "running": true,
    "lat": 34.423472,
    "lon": 135.554778,
    "route": "南ヶ丘→南花台４丁目→三日市町駅前",
    "stop": "大矢船北町（南花台系統）",
    "passTime": "14:07",
    "vehicleType": "南海バス(車椅子・ベビーカー・ノンステップ)",
    "updateTime": "2026/07/22 14:09"
  },
  {
    "vehicleNum": "092758",
    "vehicleCd": "363",
    "vehicleCorpCd": "1",
    "running": true,
    "lat": 34.436778,
    "lon": 135.5695,
    "route": "大矢船西町→三日市町駅前",
    "stop": "南花台１丁目北",
    "passTime": "14:05",
    "vehicleType": "南海バス(車椅子・ベビーカー・ノンステップ)",
    "updateTime": "2026/07/22 14:09"
  },
  {
    "vehicleNum": "092761",
    "vehicleCd": "23",
    "vehicleCorpCd": "1",
    "running": true,
    "lat": 34.436972,
    "lon": 135.569778,
    "route": "三日市町駅前→清見台回り→三日市町駅前",
    "stop": "三日市町駅前",
    "passTime": "14:08",
    "vehicleType": "南海バス(車椅子・ベビーカー・ノンステップ)",
    "updateTime": "2026/07/22 14:09"
  },
  {
    "vehicleNum": "092763",
    "vehicleCd": "520",
    "vehicleCorpCd": "1",
    "running": true,
    "lat": 34.451083,
    "lon": 135.491778,
    "route": "みずき台２丁目西→光明池駅",
    "stop": "光明台三丁目",
    "passTime": "14:09",
    "vehicleType": "南海バス(車椅子・ベビーカー・ノンステップ)",
    "updateTime": "2026/07/22 14:09"
  },
  {
    "vehicleNum": "092795",
    "vehicleCd": "592",
    "vehicleCorpCd": "1",
    "running": true,
    "lat": 34.532583,
    "lon": 135.460389,
    "route": "堺東駅前→鳳駅前→光明池駅",
    "stop": "西区役所前",
    "passTime": "14:06",
    "vehicleType": "南海バス(車椅子・ベビーカー・ノンステップ)",
    "updateTime": "2026/07/22 14:09"
  },
  {
    "vehicleNum": "092830",
    "vehicleCd": "367",
    "vehicleCorpCd": "1",
    "running": true,
    "lat": 34.474083,
    "lon": 135.476194,
    "route": "泉ヶ丘駅→光明池駅→城山台２丁→光明池駅→泉ヶ丘駅",
    "stop": "光明池駅",
    "passTime": "14:09",
    "vehicleType": "南海バス(車椅子・ベビーカー・ノンステップ)",
    "updateTime": "2026/07/22 14:09"
  },
  {
    "vehicleNum": "092857",
    "vehicleCd": "516",
    "vehicleCorpCd": "1",
    "running": true,
    "lat": 34.478694,
    "lon": 135.431694,
    "route": "和泉中央駅→医療センター玄関口→和泉府中駅前",
    "stop": "和泉市立総合医療センター玄関口",
    "passTime": "14:08",
    "vehicleType": "南海バス(車椅子・ベビーカー・ノンステップ)",
    "updateTime": "2026/07/22 14:09"
  },
  {
    "vehicleNum": "092858",
    "vehicleCd": "320",
    "vehicleCorpCd": "1",
    "running": true,
    "lat": 34.506889,
    "lon": 135.466194,
    "route": "光明池駅→山田→堺東駅前",
    "stop": "山田",
    "passTime": "14:09",
    "vehicleType": "南海バス(車椅子・ベビーカー・ノンステップ)",
    "updateTime": "2026/07/22 14:09"
  },
  {
    "vehicleNum": "092872",
    "vehicleCd": "500",
    "vehicleCorpCd": "1",
    "running": true,
    "lat": 34.450389,
    "lon": 135.444389,
    "route": "和泉中央駅→テクノステージセンター前→グリーンポリス前→和泉中央駅",
    "stop": "グリーンポリス前",
    "passTime": "14:09",
    "vehicleType": "南海バス(車椅子・ベビーカー・ノンステップ)",
    "updateTime": "2026/07/22 14:09"
  },
  {
    "vehicleNum": "092901",
    "vehicleCd": "356",
    "vehicleCorpCd": "1",
    "running": true,
    "lat": 34.554472,
    "lon": 135.467694,
    "route": "光明池駅→山田→堺東駅前",
    "stop": "霞ヶ丘",
    "passTime": "14:08",
    "vehicleType": "南海バス(車椅子・ベビーカー・ノンステップ)",
    "updateTime": "2026/07/22 14:09"
  },
  {
    "vehicleNum": "092914",
    "vehicleCd": "75",
    "vehicleCorpCd": "1",
    "running": true,
    "lat": 34.4615,
    "lon": 135.457889,
    "route": "泉大津駅前→和泉府中駅前→和泉中央駅",
    "stop": "上中村",
    "passTime": "14:06",
    "vehicleType": "南海バス(車椅子・ベビーカー・ノンステップ)",
    "updateTime": "2026/07/22 14:09"
  },
  {
    "vehicleNum": "092917",
    "vehicleCd": "40",
    "vehicleCorpCd": "1",
    "running": true,
    "lat": 34.452,
    "lon": 135.567694,
    "route": "滝畑ダム→奥河内くろまろの郷→河内長野駅前",
    "stop": "錦町",
    "passTime": "14:09",
    "vehicleType": "南海バス(車椅子・ベビーカー・ノンステップ)",
    "updateTime": "2026/07/22 14:09"
  },
  {
    "vehicleNum": "092918",
    "vehicleCd": "114",
    "vehicleCorpCd": "1",
    "running": true,
    "lat": 34.456194,
    "lon": 135.446694,
    "route": "和泉中央駅→テクノステージセンター前→グリーンポリス前→和泉中央駅",
    "stop": "グリーンポリス前",
    "passTime": "14:05",
    "vehicleType": "南海バス(車椅子・ベビーカー・ノンステップ)",
    "updateTime": "2026/07/22 14:09"
  },
  {
    "vehicleNum": "092937",
    "vehicleCd": "73",
    "vehicleCorpCd": "1",
    "running": true,
    "lat": 34.440389,
    "lon": 135.467083,
    "route": "和泉中央駅→はつが野→和泉青葉台→和泉中央駅（左回り）",
    "stop": "はつが野六丁目",
    "passTime": "14:08",
    "vehicleType": "南海バス(車椅子・ベビーカー・ノンステップ)",
    "updateTime": "2026/07/22 14:09"
  },
  {
    "vehicleNum": "092948",
    "vehicleCd": "606",
    "vehicleCorpCd": "1",
    "running": true,
    "lat": 34.559778,
    "lon": 135.472583,
    "route": "堺東駅前→鳳駅前→栂・美木多駅",
    "stop": "塩穴通",
    "passTime": "14:09",
    "vehicleType": "南海バス(車椅子・ベビーカー・ノンステップ)",
    "updateTime": "2026/07/22 14:09"
  },
  {
    "vehicleNum": "092953",
    "vehicleCd": "122",
    "vehicleCorpCd": "1",
    "running": true,
    "lat": 34.436083,
    "lon": 135.235694,
    "route": "エアロプラザ→第２ターミナル(国内線・国際線)→エアロプラザ",
    "stop": "第2ターミナル国際線",
    "passTime": "14:08",
    "vehicleType": "南海バス(車椅子・ベビーカー・ノンステップ)",
    "updateTime": "2026/07/22 14:09"
  },
  {
    "vehicleNum": "092977",
    "vehicleCd": "608",
    "vehicleCorpCd": "1",
    "running": true,
    "lat": 34.5325,
    "lon": 135.459583,
    "route": "国分峠東→栂・美木多駅→堺東駅前",
    "stop": "鳳駅前",
    "passTime": "14:09",
    "vehicleType": "南海バス(車椅子・ベビーカー・ノンステップ)",
    "updateTime": "2026/07/22 14:09"
  },
  {
    "vehicleNum": "093032",
    "vehicleCd": "231",
    "vehicleCorpCd": "1",
    "running": true,
    "lat": 34.437389,
    "lon": 135.231389,
    "route": "エアロプラザ→第２ターミナル(国内線・国際線)→エアロプラザ",
    "stop": "エアロプラザ",
    "passTime": "14:04",
    "vehicleType": "南海バス",
    "updateTime": "2026/07/22 14:09"
  },
  {
    "vehicleNum": "093054",
    "vehicleCd": "396",
    "vehicleCorpCd": "1",
    "running": true,
    "lat": 34.4915,
    "lon": 135.415694,
    "route": "和泉中央駅→寺田→泉大津駅前",
    "stop": "我孫子",
    "passTime": "14:09",
    "vehicleType": "南海バス(車椅子・ベビーカー・ノンステップ)",
    "updateTime": "2026/07/22 14:09"
  },
  {
    "vehicleNum": "093046",
    "vehicleCd": "246",
    "vehicleCorpCd": "1",
    "running": true,
    "lat": 34.477083,
    "lon": 135.4455,
    "route": "和泉中央駅→阪本→泉大津駅前",
    "stop": "阪本",
    "passTime": "14:09",
    "vehicleType": "南海バス(車椅子・ベビーカー・ノンステップ)",
    "updateTime": "2026/07/22 14:09"
  },
  {
    "vehicleNum": "093071",
    "vehicleCd": "274",
    "vehicleCorpCd": "1",
    "running": true,
    "lat": 34.466278,
    "lon": 135.484778,
    "route": "光明池駅→光明池車庫→和泉中央駅→泉大津駅前",
    "stop": "城山台五丁",
    "passTime": "14:08",
    "vehicleType": "南海バス(車椅子・ベビーカー・ノンステップ)",
    "updateTime": "2026/07/22 14:09"
  }
]