[
  {
    "vehicleNum": "070109",
    "vehicleCd": "407",
    "vehicleCorpCd": "1",
    "running": true,
    "lat": 34.496694,
    "lon": 135.512694,
    "route": "泉ヶ丘駅→近畿大学病院前→泉ヶ丘駅",
    "stop": "泉ヶ丘駅（南側）",
    "passTime": "05:50",
    "vehicleType": "泉北コミュニティバス(車椅子・ベビーカー・ノンステップ)",
    "updateTime": "2026/07/23 05:50"
  },
  {
    "vehicleNum": "070106",
    "vehicleCd": "404",
    "vehicleCorpCd": "1",
    "running": true,
    "lat": 34.498583,
    "lon": 135.554389,
    "route": "狭山ニュータウンセンター→右回り→金剛駅前",
    "stop": "北村",
    "passTime": "05:50",
    "vehicleType": "泉北コミュニティバス(車椅子・ベビーカー・ノンステップ)",
    "updateTime": "2026/07/23 05:50"
  },
  {
    "vehicleNum": "071605",
    "vehicleCd": "412",
    "vehicleCorpCd": "1",
    "running": true,
    "lat": 34.5775,
    "lon": 135.476389,
    "route": "堺駅前→大小路→堺東駅前",
    "stop": "大寺北門山之口前",
    "passTime": "05:49",
    "vehicleType": "堺シャトル(車椅子・ベビーカー・ノンステップ)",
    "updateTime": "2026/07/23 05:50"
  },
  {
    "vehicleNum": "080643",
    "vehicleCd": "94",
    "vehicleCorpCd": "1",
    "running": true,
    "lat": 34.4395,
    "lon": 135.467194,
    "route": "はつが野六丁目→和泉中央駅",
    "stop": "はつが野六丁目",
    "passTime": "05:50",
    "vehicleType": "南海バス(車椅子・ベビーカー・ノンステップ)",
    "updateTime": "2026/07/23 05:50"
  },
  {
    "vehicleNum": "080754",
    "vehicleCd": "428",
    "vehicleCorpCd": "1",
    "running": true,
    "lat": 34.508,
    "lon": 135.489083,
    "route": "泉ヶ丘駅→泉北２号線→津久野駅前",
    "stop": "小代常念寺前",
    "passTime": "05:50",
    "vehicleType": "南海バス(車椅子・ベビーカー・ノンステップ)",
    "updateTime": "2026/07/23 05:50"
  },
  {
    "vehicleNum": "080755",
    "vehicleCd": "170",
    "vehicleCorpCd": "1",
    "running": true,
    "lat": 34.496,
    "lon": 135.564778,
    "route": "中央センター前→向陽・藤沢回り→金剛駅前",
    "stop": "久野喜台二丁目",
    "passTime": "05:50",
    "vehicleType": "南海バス(車椅子・ベビーカー・ノンステップ)",
    "updateTime": "2026/07/23 05:50"
  },
  {
    "vehicleNum": "080757",
    "vehicleCd": "182",
    "vehicleCorpCd": "1",
    "running": true,
    "lat": 34.495694,
    "lon": 135.576389,
    "route": "津々山台１丁目南→高辺台小学校前→金剛駅前",
    "stop": "津々山台２丁目北",
    "passTime": "05:50",
    "vehicleType": "南海バス(車椅子・ベビーカー・ノンステップ)",
    "updateTime": "2026/07/23 05:50"
  },
  {
    "vehicleNum": "080758",
    "vehicleCd": "511",
    "vehicleCorpCd": "1",
    "running": true,
    "lat": 34.491194,
    "lon": 135.524694,
    "route": "三原台中学校前→高倉台右回り→泉ヶ丘駅",
    "stop": "高倉台３丁",
    "passTime": "05:50",
    "vehicleType": "南海バス(車椅子・ベビーカー・ノンステップ)",
    "updateTime": "2026/07/23 05:50"
  },
  {
    "vehicleNum": "080815",
    "vehicleCd": "575",
    "vehicleCorpCd": "1",
    "running": true,
    "lat": 34.504889,
    "lon": 135.503778,
    "route": "泉ヶ丘駅→宮山台左回り→泉ヶ丘駅",
    "stop": "古畑",
    "passTime": "05:48",
    "vehicleType": "南海バス(車椅子・ベビーカー・ノンステップ)",
    "updateTime": "2026/07/23 05:50"
  },
  {
    "vehicleNum": "080869",
    "vehicleCd": "316",
    "vehicleCorpCd": "1",
    "running": true,
    "lat": 34.485694,
    "lon": 135.532083,
    "route": "泉ヶ丘駅→晴美台右回り→泉ヶ丘駅",
    "stop": "帝塚山学院泉ケ丘校前",
    "passTime": "05:49",
    "vehicleType": "南海バス(車椅子・ベビーカー・ノンステップ)",
    "updateTime": "2026/07/23 05:50"
  },
  {
    "vehicleNum": "080920",
    "vehicleCd": "327",
    "vehicleCorpCd": "1",
    "running": true,
    "lat": 34.499583,
    "lon": 135.507694,
    "route": "泉ヶ丘駅→深阪→津久野駅前",
    "stop": "竹城台２丁",
    "passTime": "05:50",
    "vehicleType": "南海バス(車椅子・ベビーカー・ノンステップ)",
    "updateTime": "2026/07/23 05:50"
  },
  {
    "vehicleNum": "080921",
    "vehicleCd": "143",
    "vehicleCorpCd": "1",
    "running": true,
    "lat": 34.497583,
    "lon": 135.519694,
    "route": "泉ヶ丘駅→スマ・エコタウン晴美台→高倉台右回り→泉ヶ丘駅",
    "stop": "三原台１丁",
    "passTime": "05:50",
    "vehicleType": "南海バス(車椅子・ベビーカー・ノンステップ)",
    "updateTime": "2026/07/23 05:50"
  },
  {
    "vehicleNum": "080936",
    "vehicleCd": "22",
    "vehicleCorpCd": "1",
    "running": true,
    "lat": 34.473583,
    "lon": 135.492194,
    "route": "御池台２丁→庭代台１丁→栂・美木多駅",
    "stop": "庭代台１丁",
    "passTime": "05:49",
    "vehicleType": "南海バス(車椅子・ベビーカー・ノンステップ)",
    "updateTime": "2026/07/23 05:50"
  },
  {
    "vehicleNum": "080977",
    "vehicleCd": "388",
    "vehicleCorpCd": "1",
    "running": true,
    "lat": 34.543972,
    "lon": 135.485583,
    "route": "東山車庫前→小阪→堺東駅前",
    "stop": "北深井",
    "passTime": "05:49",
    "vehicleType": "南海バス(車椅子・ベビーカー・ノンステップ)",
    "updateTime": "2026/07/23 05:50"
  },
  {
    "vehicleNum": "080968",
    "vehicleCd": "424",
    "vehicleCorpCd": "1",
    "running": true,
    "lat": 34.521194,
    "lon": 135.516694,
    "route": "東山車庫前→北野田駅前",
    "stop": "西山",
    "passTime": "05:49",
    "vehicleType": "南海バス(車椅子・ベビーカー・ノンステップ)",
    "updateTime": "2026/07/23 05:50"
  },
  {
    "vehicleNum": "080978",
    "vehicleCd": "431",
    "vehicleCorpCd": "1",
    "running": true,
    "lat": 34.5375,
    "lon": 135.515889,
    "route": "下出口→大の芝→堺駅南口",
    "stop": "下草尾",
    "passTime": "05:49",
    "vehicleType": "南海バス(車椅子・ベビーカー・ノンステップ)",
    "updateTime": "2026/07/23 05:50"
  },
  {
    "vehicleNum": "080989",
    "vehicleCd": "259",
    "vehicleCorpCd": "1",
    "running": true,
    "lat": 34.522,
    "lon": 135.506778,
    "route": "あみだ池→深井駅→もず駅前→堺東駅前",
    "stop": "東山",
    "passTime": "05:50",
    "vehicleType": "南海バス(車椅子・ベビーカー・ノンステップ)",
    "updateTime": "2026/07/23 05:50"
  },
  {
    "vehicleNum": "081003",
    "vehicleCd": "610",
    "vehicleCorpCd": "1",
    "running": true,
    "lat": 34.497389,
    "lon": 135.510694,
    "route": "泉ヶ丘駅→宮山台中学校前→堺東駅前",
    "stop": "泉ヶ丘駅（北側）",
    "passTime": "05:50",
    "vehicleType": "南海バス(車椅子・ベビーカー・ノンステップ)",
    "updateTime": "2026/07/23 05:50"
  },
  {
    "vehicleNum": "080996",
    "vehicleCd": "191",
    "vehicleCorpCd": "1",
    "running": true,
    "lat": 34.536389,
    "lon": 135.560389,
    "route": "平尾→初芝駅前→中もず駅前",
    "stop": "船戸下",
    "passTime": "05:50",
    "vehicleType": "南海バス(車椅子・ベビーカー・ノンステップ)",
    "updateTime": "2026/07/23 05:50"
  },
  {
    "vehicleNum": "091791",
    "vehicleCd": "206",
    "vehicleCorpCd": "1",
    "running": true,
    "lat": 34.437583,
    "lon": 135.231278,
    "route": "エアロプラザ→第２ターミナル(国内線・国際線)→エアロプラザ",
    "stop": "エアロプラザ",
    "passTime": "05:45",
    "vehicleType": "南海バス(車椅子・ノンステップ)",
    "updateTime": "2026/07/23 05:50"
  },
  {
    "vehicleNum": "092373",
    "vehicleCd": "553",
    "vehicleCorpCd": "1",
    "running": true,
    "lat": 34.510778,
    "lon": 135.465694,
    "route": "光明池駅→山田→鳳駅前",
    "stop": "福泉中学校前",
    "passTime": "05:49",
    "vehicleType": "南海バス(車椅子・ベビーカー・ノンステップ)",
    "updateTime": "2026/07/23 05:50"
  },
  {
    "vehicleNum": "092382",
    "vehicleCd": "556",
    "vehicleCorpCd": "1",
    "running": true,
    "lat": 34.481389,
    "lon": 135.480278,
    "route": "光明池駅→新檜尾台センター→光明池駅",
    "stop": "新檜尾台一丁",
    "passTime": "05:50",
    "vehicleType": "南海バス(車椅子・ベビーカー・ノンステップ)",
    "updateTime": "2026/07/23 05:50"
  },
  {
    "vehicleNum": "092372",
    "vehicleCd": "159",
    "vehicleCorpCd": "1",
    "running": true,
    "lat": 34.554,
    "lon": 135.467,
    "route": "光明池駅→山田→堺東駅前",
    "stop": "霞ヶ丘",
    "passTime": "05:50",
    "vehicleType": "南海バス(車椅子・ベビーカー・ノンステップ)",
    "updateTime": "2026/07/23 05:50"
  },
  {
    "vehicleNum": "092384",
    "vehicleCd": "558",
    "vehicleCorpCd": "1",
    "running": true,
    "lat": 34.486278,
    "lon": 135.487278,
    "route": "栂・美木多駅→鳳駅前",
    "stop": "栂・美木多駅",
    "passTime": "05:48",
    "vehicleType": "南海バス(車椅子・ベビーカー・ノンステップ)",
    "updateTime": "2026/07/23 05:50"
  },
  {
    "vehicleNum": "092468",
    "vehicleCd": "51",
    "vehicleCorpCd": "1",
    "running": true,
    "lat": 34.433778,
    "lon": 135.561889,
    "route": "南ヶ丘→南花台４丁目→三日市町駅前（前乗り）",
    "stop": "南花台１丁目南",
    "passTime": "05:49",
    "vehicleType": "南海バス(車椅子・ベビーカー・ノンステップ)",
    "updateTime": "2026/07/23 05:50"
  },
  {
    "vehicleNum": "092469",
    "vehicleCd": "220",
    "vehicleCorpCd": "1",
    "running": true,
    "lat": 34.451083,
    "lon": 135.552389,
    "route": "緑ヶ丘北町→千代田駅前",
    "stop": "福祉センターあかみね",
    "passTime": "05:50",
    "vehicleType": "南海バス(車椅子・ベビーカー・ノンステップ)",
    "updateTime": "2026/07/23 05:50"
  },
  {
    "vehicleNum": "092862",
    "vehicleCd": "602",
    "vehicleCorpCd": "1",
    "running": true,
    "lat": 34.463278,
    "lon": 135.496,
    "route": "国分峠東→栂・美木多駅→堺東駅前",
    "stop": "山戸",
    "passTime": "05:50",
    "vehicleType": "南海バス(車椅子・ベビーカー・ノンステップ)",
    "updateTime": "2026/07/23 05:50"
  },
  {
    "vehicleNum": "092863",
    "vehicleCd": "371",
    "vehicleCorpCd": "1",
    "running": true,
    "lat": 34.485278,
    "lon": 135.466694,
    "route": "光明池駅→山田→堺東駅前",
    "stop": "檜尾山",
    "passTime": "05:50",
    "vehicleType": "南海バス(車椅子・ベビーカー・ノンステップ)",
    "updateTime": "2026/07/23 05:50"
  },
  {
    "vehicleNum": "093032",
    "vehicleCd": "231",
    "vehicleCorpCd": "1",
    "running": true,
    "lat": 34.432194,
    "lon": 135.234278,
    "route": "エアロプラザ→第２ターミナル(国内線・国際線)→エアロプラザ",
    "stop": "第2ターミナル国際線",
    "passTime": "05:47",
    "vehicleType": "南海バス",
    "updateTime": "2026/07/23 05:50"
  },
  {
    "vehicleNum": "093073",
    "vehicleCd": "370",
    "vehicleCorpCd": "1",
    "running": true,
    "lat": 34.502889,
    "lon": 135.406694,
    "route": "泉大津駅前→和泉府中駅前→和泉中央駅",
    "stop": "泉大津駅前",
    "passTime": "05:50",
    "vehicleType": "南海バス(車椅子・ベビーカー・ノンステップ)",
    "updateTime": "2026/07/23 05:50"
  },
  {
    "vehicleNum": "093113",
    "vehicleCd": "133",
    "vehicleCorpCd": "1",
    "running": true,
    "lat": 34.533083,
    "lon": 135.462278,
    "route": "光明池駅→山田→堺東駅前",
    "stop": "西堺警察署前",
    "passTime": "05:49",
    "vehicleType": "南海バス(車椅子・ベビーカー・ノンステップ)",
    "updateTime": "2026/07/23 05:50"
  }
]