[
  {
    "vehicleNum": "070101",
    "vehicleCd": "400",
    "vehicleCorpCd": "1",
    "running": true,
    "lat": 34.498389,
    "lon": 135.548,
    "route": "泉ヶ丘駅→狭山ニュータウンセンター→金剛駅前",
    "stop": "亀の甲",
    "passTime": "08:32",
    "vehicleType": "泉北コミュニティバス(車椅子・ベビーカー・ノンステップ)",
    "updateTime": "2026/07/21 08:32"
  },
  {
    "vehicleNum": "070103",
    "vehicleCd": "425",
    "vehicleCorpCd": "1",
    "running": true,
    "lat": 34.484583,
    "lon": 135.537278,
    "route": "金剛駅前→狭山ニュータウンセンター→泉ヶ丘駅",
    "stop": "大野台六丁目",
    "passTime": "08:32",
    "vehicleType": "泉北コミュニティバス(車椅子・ベビーカー・ノンステップ)",
    "updateTime": "2026/07/21 08:32"
  },
  {
    "vehicleNum": "070107",
    "vehicleCd": "405",
    "vehicleCorpCd": "1",
    "running": true,
    "lat": 34.480278,
    "lon": 135.541,
    "route": "泉ヶ丘駅→狭山ニュータウンセンター→金剛駅前",
    "stop": "大野台五丁目",
    "passTime": "08:32",
    "vehicleType": "泉北コミュニティバス(車椅子・ベビーカー・ノンステップ)",
    "updateTime": "2026/07/21 08:32"
  },
  {
    "vehicleNum": "070109",
    "vehicleCd": "407",
    "vehicleCorpCd": "1",
    "running": true,
    "lat": 34.4985,
    "lon": 135.545583,
    "route": "金剛駅前→泉ヶ丘駅→近大キャンパス前→金剛駅前",
    "stop": "金剛駅前（西側）",
    "passTime": "08:24",
    "vehicleType": "泉北コミュニティバス(車椅子・ベビーカー・ノンステップ)",
    "updateTime": "2026/07/21 08:32"
  },
  {
    "vehicleNum": "070108",
    "vehicleCd": "406",
    "vehicleCorpCd": "1",
    "running": true,
    "lat": 34.493083,
    "lon": 135.519,
    "route": "泉ヶ丘駅→狭山ニュータウンセンター→金剛駅前",
    "stop": "茶山台２丁",
    "passTime": "08:32",
    "vehicleType": "泉北コミュニティバス(車椅子・ベビーカー・ノンステップ)",
    "updateTime": "2026/07/21 08:32"
  },
  {
    "vehicleNum": "071117",
    "vehicleCd": "251",
    "vehicleCorpCd": "1",
    "running": true,
    "lat": 34.574278,
    "lon": 135.483389,
    "route": "堺東駅前→堺駅西口→堺東駅前",
    "stop": "堺市役所前",
    "passTime": "08:31",
    "vehicleType": "南海バス(車椅子・ベビーカー・ワンステップ)",
    "updateTime": "2026/07/21 08:32"
  },
  {
    "vehicleNum": "071601",
    "vehicleCd": "408",
    "vehicleCorpCd": "1",
    "running": true,
    "lat": 34.579778,
    "lon": 135.472694,
    "route": "堺東駅前→大小路→堺駅前",
    "stop": "市小学校前",
    "passTime": "08:32",
    "vehicleType": "堺シャトル(車椅子・ベビーカー・ノンステップ)",
    "updateTime": "2026/07/21 08:32"
  },
  {
    "vehicleNum": "071602",
    "vehicleCd": "109",
    "vehicleCorpCd": "1",
    "running": true,
    "lat": 34.574278,
    "lon": 135.483583,
    "route": "堺駅前→大小路→堺東駅前",
    "stop": "熊野小学校前",
    "passTime": "08:30",
    "vehicleType": "堺シャトル(車椅子・ベビーカー・ノンステップ)",
    "updateTime": "2026/07/21 08:32"
  },
  {
    "vehicleNum": "071605",
    "vehicleCd": "412",
    "vehicleCorpCd": "1",
    "running": true,
    "lat": 34.581694,
    "lon": 135.469583,
    "route": "堺駅前→大小路→堺東駅前",
    "stop": "堺駅前",
    "passTime": "08:32",
    "vehicleType": "堺シャトル(車椅子・ベビーカー・ノンステップ)",
    "updateTime": "2026/07/21 08:32"
  },
  {
    "vehicleNum": "071607",
    "vehicleCd": "414",
    "vehicleCorpCd": "1",
    "running": true,
    "lat": 34.574389,
    "lon": 135.482694,
    "route": "堺東駅前→大小路→堺駅前",
    "stop": "堺市役所前",
    "passTime": "08:32",
    "vehicleType": "堺シャトル(車椅子・ベビーカー・ノンステップ)",
    "updateTime": "2026/07/21 08:32"
  },
  {
    "vehicleNum": "072501",
    "vehicleCd": "598",
    "vehicleCorpCd": "1",
    "running": true,
    "lat": 34.5875,
    "lon": 135.527194,
    "route": "堺東駅前→錦綾町→河内天美駅前",
    "stop": "天美我堂",
    "passTime": "08:31",
    "vehicleType": "南海バス(車椅子・ベビーカー・ノンステップ)",
    "updateTime": "2026/07/21 08:32"
  },
  {
    "vehicleNum": "080088",
    "vehicleCd": "442",
    "vehicleCorpCd": "1",
    "running": true,
    "lat": 34.500194,
    "lon": 135.5705,
    "route": "金剛駅前→向陽・藤沢回り→金剛駅前",
    "stop": "公園前",
    "passTime": "08:28",
    "vehicleType": "南海バス(車椅子・ベビーカー・ワンステップ)",
    "updateTime": "2026/07/21 08:32"
  },
  {
    "vehicleNum": "080105",
    "vehicleCd": "127",
    "vehicleCorpCd": "2",
    "running": true,
    "lat": 34.439194,
    "lon": 135.398694,
    "route": "岸和田駅前→天神山・一の宮循環　右回り→岸和田駅前",
    "stop": "東土生",
    "passTime": "08:31",
    "vehicleType": "南海ウイングバス(車椅子・ベビーカー・ワンステップ)",
    "updateTime": "2026/07/21 08:32"
  },
  {
    "vehicleNum": "080146",
    "vehicleCd": "6",
    "vehicleCorpCd": "2",
    "running": true,
    "lat": 34.407278,
    "lon": 135.364278,
    "route": "熊取ニュータウン→熊取駅前",
    "stop": "若葉",
    "passTime": "08:30",
    "vehicleType": "南海ウイングバス(車椅子・ワンステップ)",
    "updateTime": "2026/07/21 08:32"
  },
  {
    "vehicleNum": "080159",
    "vehicleCd": "145",
    "vehicleCorpCd": "1",
    "running": true,
    "lat": 34.5495,
    "lon": 135.498583,
    "route": "あみだ池→深井駅→もず駅前→堺東駅前",
    "stop": "もず梅町三丁",
    "passTime": "08:31",
    "vehicleType": "南海バス(車椅子・ベビーカー・ワンステップ)",
    "updateTime": "2026/07/21 08:32"
  },
  {
    "vehicleNum": "080171",
    "vehicleCd": "40",
    "vehicleCorpCd": "2",
    "running": true,
    "lat": 34.4065,
    "lon": 135.344083,
    "route": "泉佐野駅前→上瓦屋町→熊取駅前→熊取ニュータウン",
    "stop": "佐野台口",
    "passTime": "08:31",
    "vehicleType": "南海ウイングバス(車椅子・ベビーカー・ワンステップ)",
    "updateTime": "2026/07/21 08:33"
  },
  {
    "vehicleNum": "080178",
    "vehicleCd": "56",
    "vehicleCorpCd": "2",
    "running": true,
    "lat": 34.4335,
    "lon": 135.420083,
    "route": "岸和田駅前→岸和田警察署前→道の駅愛彩ランド",
    "stop": "福田",
    "passTime": "08:30",
    "vehicleType": "南海ウイングバス(車椅子・ベビーカー・ワンステップ)",
    "updateTime": "2026/07/21 08:33"
  },
  {
    "vehicleNum": "080191",
    "vehicleCd": "68",
    "vehicleCorpCd": "1",
    "running": true,
    "lat": 34.594278,
    "lon": 135.465389,
    "route": "【急行】阪和堺市駅前→海浜匠町",
    "stop": "阪和堺市駅前",
    "passTime": "08:13",
    "vehicleType": "南海バス(車椅子・ベビーカー・ワンステップ)",
    "updateTime": "2026/07/21 08:33"
  },
  {
    "vehicleNum": "080268",
    "vehicleCd": "114",
    "vehicleCorpCd": "2",
    "running": true,
    "lat": 34.403778,
    "lon": 135.345583,
    "route": "大阪体育大学前→熊取駅前",
    "stop": "大久保",
    "passTime": "08:31",
    "vehicleType": "南海ウイングバス(車椅子・ベビーカー・ノンステップ)",
    "updateTime": "2026/07/21 08:33"
  },
  {
    "vehicleNum": "080315",
    "vehicleCd": "80",
    "vehicleCorpCd": "1",
    "running": true,
    "lat": 34.590389,
    "lon": 135.477694,
    "route": "【急行】瓦町公園前→海浜匠町",
    "stop": "瓦町公園前",
    "passTime": "08:25",
    "vehicleType": "南海バス(車椅子・ベビーカー・ワンステップ)",
    "updateTime": "2026/07/21 08:33"
  },
  {
    "vehicleNum": "080319",
    "vehicleCd": "84",
    "vehicleCorpCd": "1",
    "running": true,
    "lat": 34.601278,
    "lon": 135.462389,
    "route": "住之江公園駅前→匠町",
    "stop": "松屋大和川通",
    "passTime": "08:31",
    "vehicleType": "南海バス(車椅子・ベビーカー・ワンステップ)",
    "updateTime": "2026/07/21 08:33"
  },
  {
    "vehicleNum": "080322",
    "vehicleCd": "116",
    "vehicleCorpCd": "2",
    "running": true,
    "lat": 34.374778,
    "lon": 135.342889,
    "route": "泉佐野駅前→野々地蔵北→日根野駅前→犬鳴山",
    "stop": "東上",
    "passTime": "08:32",
    "vehicleType": "南海ウイングバス(車椅子・ワンステップ)",
    "updateTime": "2026/07/21 08:33"
  },
  {
    "vehicleNum": "080340",
    "vehicleCd": "131",
    "vehicleCorpCd": "2",
    "running": true,
    "lat": 34.379778,
    "lon": 135.357194,
    "route": "熊取→準急→大体",
    "stop": "浪商学園前",
    "passTime": "08:31",
    "vehicleType": "南海ウイングバス(車椅子・ベビーカー・ワンステップ)",
    "updateTime": "2026/07/21 08:33"
  },
  {
    "vehicleNum": "080384",
    "vehicleCd": "444",
    "vehicleCorpCd": "1",
    "running": true,
    "lat": 34.618778,
    "lon": 135.435,
    "route": "堺東駅前→ＡＴＣ→堺東駅前",
    "stop": "堺駅前",
    "passTime": "08:11",
    "vehicleType": "南海バス(車椅子・ワンステップ)",
    "updateTime": "2026/07/21 08:33"
  },
  {
    "vehicleNum": "080381",
    "vehicleCd": "88",
    "vehicleCorpCd": "1",
    "running": true,
    "lat": 34.574583,
    "lon": 135.481278,
    "route": "堺東駅前→ＡＴＣ／フェリー→堺東駅前",
    "stop": "堺東駅前",
    "passTime": "08:30",
    "vehicleType": "南海バス(車椅子・ワンステップ)",
    "updateTime": "2026/07/21 08:33"
  },
  {
    "vehicleNum": "080594",
    "vehicleCd": "437",
    "vehicleCorpCd": "1",
    "running": true,
    "lat": 34.552278,
    "lon": 135.541889,
    "route": "美原区役所→野遠→地下鉄新金岡駅前",
    "stop": "石原",
    "passTime": "08:32",
    "vehicleType": "南海バス(車椅子・ベビーカー・ノンステップ)",
    "updateTime": "2026/07/21 08:33"
  },
  {
    "vehicleNum": "080627",
    "vehicleCd": "446",
    "vehicleCorpCd": "1",
    "running": true,
    "lat": 34.5405,
    "lon": 135.558889,
    "route": "美原区役所→初芝駅前→美原区役所",
    "stop": "美原区役所前",
    "passTime": "08:28",
    "vehicleType": "南海バス(車椅子・ベビーカー・ノンステップ)",
    "updateTime": "2026/07/21 08:33"
  },
  {
    "vehicleNum": "080629",
    "vehicleCd": "447",
    "vehicleCorpCd": "1",
    "running": true,
    "lat": 34.544194,
    "lon": 135.530389,
    "route": "美原区役所→初芝駅前→美原区役所",
    "stop": "初芝中",
    "passTime": "08:32",
    "vehicleType": "南海バス(車椅子・ベビーカー・ノンステップ)",
    "updateTime": "2026/07/21 08:33"
  },
  {
    "vehicleNum": "080643",
    "vehicleCd": "94",
    "vehicleCorpCd": "1",
    "running": true,
    "lat": 34.510583,
    "lon": 135.465694,
    "route": "光明池駅→山田→堺東駅前",
    "stop": "福泉中学校前",
    "passTime": "08:32",
    "vehicleType": "南海バス(車椅子・ベビーカー・ノンステップ)",
    "updateTime": "2026/07/21 08:33"
  },
  {
    "vehicleNum": "080651",
    "vehicleCd": "455",
    "vehicleCorpCd": "1",
    "running": true,
    "lat": 34.545194,
    "lon": 135.558583,
    "route": "北野田駅前→多治井北（循環）→北野田駅前",
    "stop": "太井南",
    "passTime": "08:25",
    "vehicleType": "南海バス",
    "updateTime": "2026/07/21 08:33"
  },
  {
    "vehicleNum": "080671",
    "vehicleCd": "465",
    "vehicleCorpCd": "1",
    "running": true,
    "lat": 34.5835,
    "lon": 135.467778,
    "route": "阪和堺市駅前→堺駅西口→匠町",
    "stop": "堺駅西口",
    "passTime": "08:29",
    "vehicleType": "南海バス(車椅子・ベビーカー・ノンステップ)",
    "updateTime": "2026/07/21 08:33"
  },
  {
    "vehicleNum": "080670",
    "vehicleCd": "507",
    "vehicleCorpCd": "1",
    "running": true,
    "lat": 34.5935,
    "lon": 135.467972,
    "route": "【急行】堺駅西口→海浜匠町",
    "stop": "堺駅西口",
    "passTime": "08:23",
    "vehicleType": "南海バス(車椅子・ベビーカー・ノンステップ)",
    "updateTime": "2026/07/21 08:33"
  },
  {
    "vehicleNum": "080652",
    "vehicleCd": "456",
    "vehicleCorpCd": "1",
    "running": true,
    "lat": 34.545694,
    "lon": 135.554083,
    "route": "地下鉄新金岡駅前→野遠→美原区役所",
    "stop": "太井",
    "passTime": "08:30",
    "vehicleType": "南海バス",
    "updateTime": "2026/07/21 08:33"
  },
  {
    "vehicleNum": "080709",
    "vehicleCd": "5",
    "vehicleCorpCd": "2",
    "running": true,
    "lat": 34.436778,
    "lon": 135.438194,
    "route": "岸和田駅前→内畑→白原車庫",
    "stop": "大久保橋",
    "passTime": "08:32",
    "vehicleType": "南海ウイングバス(車椅子・ベビーカー・ノンステップ)",
    "updateTime": "2026/07/21 08:33"
  },
  {
    "vehicleNum": "080744",
    "vehicleCd": "550",
    "vehicleCorpCd": "1",
    "running": true,
    "lat": 34.484583,
    "lon": 135.491778,
    "route": "栂・美木多駅→庭代台右回り→栂・美木多駅",
    "stop": "栂・美木多駅",
    "passTime": "08:31",
    "vehicleType": "南海バス(車椅子・ベビーカー・ノンステップ)",
    "updateTime": "2026/07/21 08:33"
  },
  {
    "vehicleNum": "080741",
    "vehicleCd": "549",
    "vehicleCorpCd": "1",
    "running": true,
    "lat": 34.523778,
    "lon": 135.542,
    "route": "北野田駅前→西口園→堺駅南口",
    "stop": "北野田駅前",
    "passTime": "08:30",
    "vehicleType": "南海バス(車椅子・ベビーカー・ノンステップ)",
    "updateTime": "2026/07/21 08:33"
  },
  {
    "vehicleNum": "080746",
    "vehicleCd": "395",
    "vehicleCorpCd": "1",
    "running": true,
    "lat": 34.496,
    "lon": 135.564194,
    "route": "金剛駅前→向陽・藤沢回り→金剛駅前",
    "stop": "久野喜台二丁目",
    "passTime": "08:32",
    "vehicleType": "南海バス(車椅子・ベビーカー・ノンステップ)",
    "updateTime": "2026/07/21 08:33"
  },
  {
    "vehicleNum": "080751",
    "vehicleCd": "551",
    "vehicleCorpCd": "1",
    "running": true,
    "lat": 34.573,
    "lon": 135.476194,
    "route": "地下鉄新金岡駅前→近畿中央呼吸器センター前→堺駅南口",
    "stop": "安井町",
    "passTime": "08:31",
    "vehicleType": "南海バス(車椅子・ベビーカー・ノンステップ)",
    "updateTime": "2026/07/21 08:33"
  },
  {
    "vehicleNum": "080754",
    "vehicleCd": "428",
    "vehicleCorpCd": "1",
    "running": true,
    "lat": 34.491389,
    "lon": 135.527972,
    "route": "泉ヶ丘駅→スマ・エコタウン晴美台→高倉台右回り→泉ヶ丘駅",
    "stop": "高倉台４丁",
    "passTime": "08:32",
    "vehicleType": "南海バス(車椅子・ベビーカー・ノンステップ)",
    "updateTime": "2026/07/21 08:33"
  },
  {
    "vehicleNum": "080757",
    "vehicleCd": "182",
    "vehicleCorpCd": "1",
    "running": true,
    "lat": 34.497389,
    "lon": 135.582583,
    "route": "金剛駅前→高辺台三丁目→金剛駅前",
    "stop": "小金台２丁目",
    "passTime": "08:32",
    "vehicleType": "南海バス(車椅子・ベビーカー・ノンステップ)",
    "updateTime": "2026/07/21 08:33"
  },
  {
    "vehicleNum": "080760",
    "vehicleCd": "559",
    "vehicleCorpCd": "1",
    "running": true,
    "lat": 34.566472,
    "lon": 135.5015,
    "route": "阪和堺市駅前→労災病院前→堺駅南口",
    "stop": "黒土町",
    "passTime": "08:30",
    "vehicleType": "南海バス(車椅子・ベビーカー・ノンステップ)",
    "updateTime": "2026/07/21 08:33"
  },
  {
    "vehicleNum": "080761",
    "vehicleCd": "560",
    "vehicleCorpCd": "1",
    "running": true,
    "lat": 34.575,
    "lon": 135.548,
    "route": "堺駅前→堺東駅前→河内松原駅前",
    "stop": "高見の里駅前",
    "passTime": "08:31",
    "vehicleType": "南海バス(車椅子・ベビーカー・ノンステップ)",
    "updateTime": "2026/07/21 08:33"
  },
  {
    "vehicleNum": "080762",
    "vehicleCd": "561",
    "vehicleCorpCd": "1",
    "running": true,
    "lat": 34.574583,
    "lon": 135.500389,
    "route": "堺駅前→堺東駅前→河内松原駅前",
    "stop": "阪和堺市駅筋",
    "passTime": "08:32",
    "vehicleType": "南海バス(車椅子・ベビーカー・ノンステップ)",
    "updateTime": "2026/07/21 08:33"
  },
  {
    "vehicleNum": "080763",
    "vehicleCd": "562",
    "vehicleCorpCd": "1",
    "running": true,
    "lat": 34.547583,
    "lon": 135.4845,
    "route": "堺東駅前→上野芝駅前→東山車庫前",
    "stop": "向ヶ丘",
    "passTime": "08:32",
    "vehicleType": "南海バス(車椅子・ベビーカー・ノンステップ)",
    "updateTime": "2026/07/21 08:33"
  },
  {
    "vehicleNum": "080766",
    "vehicleCd": "565",
    "vehicleCorpCd": "1",
    "running": true,
    "lat": 34.515889,
    "lon": 135.492694,
    "route": "泉ヶ丘駅→宮山台中学校前→堺東駅前",
    "stop": "天の橋",
    "passTime": "08:32",
    "vehicleType": "南海バス(車椅子・ベビーカー・ノンステップ)",
    "updateTime": "2026/07/21 08:33"
  },
  {
    "vehicleNum": "080788",
    "vehicleCd": "299",
    "vehicleCorpCd": "1",
    "running": true,
    "lat": 34.565889,
    "lon": 135.501278,
    "route": "堺東駅前→労災病院前→白鷺駅前（循環）",
    "stop": "向陵中町",
    "passTime": "08:31",
    "vehicleType": "南海バス(車椅子・ベビーカー・ノンステップ)",
    "updateTime": "2026/07/21 08:33"
  },
  {
    "vehicleNum": "080787",
    "vehicleCd": "301",
    "vehicleCorpCd": "1",
    "running": true,
    "lat": 34.566278,
    "lon": 135.510778,
    "route": "堺東駅前→労災病院前→白鷺駅前（循環）",
    "stop": "北堺警察署前",
    "passTime": "08:31",
    "vehicleType": "南海バス(車椅子・ベビーカー・ノンステップ)",
    "updateTime": "2026/07/21 08:33"
  },
  {
    "vehicleNum": "080767",
    "vehicleCd": "566",
    "vehicleCorpCd": "1",
    "running": true,
    "lat": 34.524389,
    "lon": 135.506278,
    "route": "北野田駅前→福町→深井駅",
    "stop": "北垣外",
    "passTime": "08:33",
    "vehicleType": "南海バス(車椅子・ベビーカー・ノンステップ)",
    "updateTime": "2026/07/21 08:33"
  },
  {
    "vehicleNum": "080765",
    "vehicleCd": "564",
    "vehicleCorpCd": "1",
    "running": true,
    "lat": 34.564583,
    "lon": 135.4925,
    "route": "堺駅南口→福町→北野田駅前",
    "stop": "三国ヶ丘駅前",
    "passTime": "08:32",
    "vehicleType": "南海バス(車椅子・ベビーカー・ノンステップ)",
    "updateTime": "2026/07/21 08:33"
  },
  {
    "vehicleNum": "080794",
    "vehicleCd": "344",
    "vehicleCorpCd": "1",
    "running": true,
    "lat": 34.577083,
    "lon": 135.4925,
    "route": "河内松原駅前→阪和堺市駅前→堺駅前",
    "stop": "田出井町",
    "passTime": "08:32",
    "vehicleType": "南海バス(車椅子・ベビーカー・ノンステップ)",
    "updateTime": "2026/07/21 08:33"
  },
  {
    "vehicleNum": "080795",
    "vehicleCd": "43",
    "vehicleCorpCd": "1",
    "running": true,
    "lat": 34.575194,
    "lon": 135.526889,
    "route": "河内松原駅前→阪和堺市駅前→堺東駅前",
    "stop": "南花田町東",
    "passTime": "08:33",
    "vehicleType": "南海バス(車椅子・ベビーカー・ノンステップ)",
    "updateTime": "2026/07/21 08:33"
  },
  {
    "vehicleNum": "080799",
    "vehicleCd": "339",
    "vehicleCorpCd": "1",
    "running": true,
    "lat": 34.602278,
    "lon": 135.472278,
    "route": "匠町→住之江公園駅前→匠町",
    "stop": "住之江公園駅前",
    "passTime": "08:30",
    "vehicleType": "南海バス(車椅子・ベビーカー・ノンステップ)",
    "updateTime": "2026/07/21 08:33"
  },
  {
    "vehicleNum": "080800",
    "vehicleCd": "304",
    "vehicleCorpCd": "1",
    "running": true,
    "lat": 34.599389,
    "lon": 135.468778,
    "route": "匠町→住之江公園駅前→匠町",
    "stop": "松屋大和川通３丁",
    "passTime": "08:33",
    "vehicleType": "南海バス(車椅子・ベビーカー・ノンステップ)",
    "updateTime": "2026/07/21 08:33"
  },
  {
    "vehicleNum": "080807",
    "vehicleCd": "223",
    "vehicleCorpCd": "1",
    "running": true,
    "lat": 34.567278,
    "lon": 135.478889,
    "route": "堺東駅前→塩穴通→鳳駅前",
    "stop": "賑町",
    "passTime": "08:32",
    "vehicleType": "南海バス(車椅子・ベビーカー・ノンステップ)",
    "updateTime": "2026/07/21 08:33"
  },
  {
    "vehicleNum": "080813",
    "vehicleCd": "269",
    "vehicleCorpCd": "1",
    "running": true,
    "lat": 34.566278,
    "lon": 135.5015,
    "route": "堺駅南口→労災病院前→阪和堺市駅前",
    "stop": "黒土口",
    "passTime": "08:32",
    "vehicleType": "南海バス(車椅子・ベビーカー・ノンステップ)",
    "updateTime": "2026/07/21 08:33"
  },
  {
    "vehicleNum": "080814",
    "vehicleCd": "193",
    "vehicleCorpCd": "1",
    "running": true,
    "lat": 34.498694,
    "lon": 135.555889,
    "route": "金剛駅前→帝塚山学院泉ヶ丘校前→泉ヶ丘駅前",
    "stop": "半田",
    "passTime": "08:31",
    "vehicleType": "南海バス(車椅子・ベビーカー・ノンステップ)",
    "updateTime": "2026/07/21 08:33"
  },
  {
    "vehicleNum": "080822",
    "vehicleCd": "576",
    "vehicleCorpCd": "1",
    "running": true,
    "lat": 34.543389,
    "lon": 135.485694,
    "route": "東山車庫前→小阪→堺東駅前",
    "stop": "北深井",
    "passTime": "08:31",
    "vehicleType": "南海バス(車椅子・ベビーカー・ノンステップ)",
    "updateTime": "2026/07/21 08:33"
  },
  {
    "vehicleNum": "080815",
    "vehicleCd": "575",
    "vehicleCorpCd": "1",
    "running": true,
    "lat": 34.476694,
    "lon": 135.548194,
    "route": "金剛駅前→狭山ニュータウンセンター→泉ヶ丘駅",
    "stop": "大野台４丁目東",
    "passTime": "08:32",
    "vehicleType": "南海バス(車椅子・ベビーカー・ノンステップ)",
    "updateTime": "2026/07/21 08:33"
  },
  {
    "vehicleNum": "080826",
    "vehicleCd": "152",
    "vehicleCorpCd": "1",
    "running": true,
    "lat": 34.575389,
    "lon": 135.484083,
    "route": "堺東駅前→堀上緑町１丁→堺東駅前",
    "stop": "一条通",
    "passTime": "08:27",
    "vehicleType": "南海バス(車椅子・ベビーカー・ノンステップ)",
    "updateTime": "2026/07/21 08:33"
  },
  {
    "vehicleNum": "080844",
    "vehicleCd": "581",
    "vehicleCorpCd": "1",
    "running": true,
    "lat": 34.498278,
    "lon": 135.546,
    "route": "金剛駅前→狭山ニュータウンセンター→泉ヶ丘駅",
    "stop": "亀の甲",
    "passTime": "08:30",
    "vehicleType": "南海バス(車椅子・ベビーカー・ノンステップ)",
    "updateTime": "2026/07/21 08:33"
  },
  {
    "vehicleNum": "080846",
    "vehicleCd": "224",
    "vehicleCorpCd": "1",
    "running": true,
    "lat": 34.4895,
    "lon": 135.5705,
    "route": "金剛駅前→寺池台小学校前→金剛駅前",
    "stop": "寺池台三丁目",
    "passTime": "08:32",
    "vehicleType": "南海バス(車椅子・ベビーカー・ノンステップ)",
    "updateTime": "2026/07/21 08:33"
  },
  {
    "vehicleNum": "080845",
    "vehicleCd": "319",
    "vehicleCorpCd": "1",
    "running": true,
    "lat": 34.56,
    "lon": 135.452194,
    "route": "石津川駅前→浜寺公園駅前通→鳳駅前→堺市立総合医療センター前",
    "stop": "石津川駅前",
    "passTime": "08:30",
    "vehicleType": "南海バス(車椅子・ベビーカー・ノンステップ)",
    "updateTime": "2026/07/21 08:33"
  },
  {
    "vehicleNum": "080851",
    "vehicleCd": "439",
    "vehicleCorpCd": "1",
    "running": true,
    "lat": 34.5,
    "lon": 135.512583,
    "route": "金剛駅前→泉ヶ丘駅→近大キャンパス前→金剛駅前",
    "stop": "泉ヶ丘駅（北側）",
    "passTime": "08:31",
    "vehicleType": "南海バス(車椅子・ベビーカー・ノンステップ)",
    "updateTime": "2026/07/21 08:33"
  },
  {
    "vehicleNum": "080852",
    "vehicleCd": "584",
    "vehicleCorpCd": "1",
    "running": true,
    "lat": 34.500389,
    "lon": 135.571889,
    "route": "金剛駅前→向陽・藤沢回り→金剛駅前",
    "stop": "金剛高校前",
    "passTime": "08:30",
    "vehicleType": "南海バス(車椅子・ベビーカー・ノンステップ)",
    "updateTime": "2026/07/21 08:33"
  },
  {
    "vehicleNum": "080855",
    "vehicleCd": "16",
    "vehicleCorpCd": "1",
    "running": true,
    "lat": 34.484583,
    "lon": 135.544889,
    "route": "泉ヶ丘駅→狭山ニュータウンセンター→金剛駅前",
    "stop": "狭山ニュータウンセンター",
    "passTime": "08:32",
    "vehicleType": "南海バス(車椅子・ベビーカー・ノンステップ)",
    "updateTime": "2026/07/21 08:33"
  },
  {
    "vehicleNum": "080858",
    "vehicleCd": "225",
    "vehicleCorpCd": "1",
    "running": true,
    "lat": 34.536194,
    "lon": 135.557694,
    "route": "初芝駅前→船戸下→美原区役所前",
    "stop": "黒山",
    "passTime": "08:32",
    "vehicleType": "南海バス(車椅子・ベビーカー・ノンステップ)",
    "updateTime": "2026/07/21 08:33"
  },
  {
    "vehicleNum": "080857",
    "vehicleCd": "226",
    "vehicleCorpCd": "1",
    "running": true,
    "lat": 34.601194,
    "lon": 135.4485,
    "route": "堺東駅前→堺駅西口→海山通四丁→堺東駅前",
    "stop": "Jグリーン堺南口",
    "passTime": "08:32",
    "vehicleType": "南海バス(車椅子・ベビーカー・ノンステップ)",
    "updateTime": "2026/07/21 08:33"
  },
  {
    "vehicleNum": "080865",
    "vehicleCd": "504",
    "vehicleCorpCd": "1",
    "running": true,
    "lat": 34.595194,
    "lon": 135.442278,
    "route": "【急行】堺駅西口→海浜匠町",
    "stop": "堺駅西口",
    "passTime": "08:18",
    "vehicleType": "南海バス(車椅子・ベビーカー・ノンステップ)",
    "updateTime": "2026/07/21 08:33"
  },
  {
    "vehicleNum": "080869",
    "vehicleCd": "316",
    "vehicleCorpCd": "1",
    "running": true,
    "lat": 34.487889,
    "lon": 135.531389,
    "route": "泉ヶ丘駅→晴美台右回り→泉ヶ丘駅",
    "stop": "帝塚山学院泉ケ丘校前",
    "passTime": "08:32",
    "vehicleType": "南海バス(車椅子・ベビーカー・ノンステップ)",
    "updateTime": "2026/07/21 08:33"
  },
  {
    "vehicleNum": "080874",
    "vehicleCd": "352",
    "vehicleCorpCd": "1",
    "running": true,
    "lat": 34.528194,
    "lon": 135.470583,
    "route": "泉ヶ丘駅→泉北２号線→津久野駅前",
    "stop": "毛穴南",
    "passTime": "08:32",
    "vehicleType": "南海バス(車椅子・ベビーカー・ノンステップ)",
    "updateTime": "2026/07/21 08:33"
  },
  {
    "vehicleNum": "080868",
    "vehicleCd": "237",
    "vehicleCorpCd": "1",
    "running": true,
    "lat": 34.490278,
    "lon": 135.506889,
    "route": "泉ヶ丘駅→鉢ヶ峯→泉ヶ丘駅",
    "stop": "若松台センター",
    "passTime": "08:33",
    "vehicleType": "南海バス(車椅子・ベビーカー・ノンステップ)",
    "updateTime": "2026/07/21 08:33"
  },
  {
    "vehicleNum": "080875",
    "vehicleCd": "485",
    "vehicleCorpCd": "1",
    "running": true,
    "lat": 34.47,
    "lon": 135.494389,
    "route": "栂・美木多駅→御池台回り→栂・美木多駅",
    "stop": "庭代台１丁南",
    "passTime": "08:31",
    "vehicleType": "南海バス(車椅子・ベビーカー・ノンステップ)",
    "updateTime": "2026/07/21 08:33"
  },
  {
    "vehicleNum": "080878",
    "vehicleCd": "368",
    "vehicleCorpCd": "1",
    "running": true,
    "lat": 34.563,
    "lon": 135.493194,
    "route": "北野田駅前→福町→堺駅南口",
    "stop": "梅北２丁",
    "passTime": "08:32",
    "vehicleType": "南海バス(車椅子・ベビーカー・ノンステップ)",
    "updateTime": "2026/07/21 08:33"
  },
  {
    "vehicleNum": "080877",
    "vehicleCd": "588",
    "vehicleCorpCd": "1",
    "running": true,
    "lat": 34.554889,
    "lon": 135.500889,
    "route": "堺駅南口→三国ヶ丘駅前→北野田駅前",
    "stop": "中もず駅前（南側）",
    "passTime": "08:31",
    "vehicleType": "南海バス(車椅子・ベビーカー・ノンステップ)",
    "updateTime": "2026/07/21 08:33"
  },
  {
    "vehicleNum": "080880",
    "vehicleCd": "360",
    "vehicleCorpCd": "1",
    "running": true,
    "lat": 34.564778,
    "lon": 135.437083,
    "route": "石津川駅前→臨港７区→臨港６区→石津川駅前",
    "stop": "築港新町１丁",
    "passTime": "08:31",
    "vehicleType": "南海バス(車椅子・ベビーカー・ノンステップ)",
    "updateTime": "2026/07/21 08:33"
  },
  {
    "vehicleNum": "080884",
    "vehicleCd": "116",
    "vehicleCorpCd": "1",
    "running": true,
    "lat": 34.501583,
    "lon": 135.5225,
    "route": "泉ヶ丘駅→三原台左回り→泉ヶ丘駅",
    "stop": "三原台センター",
    "passTime": "08:33",
    "vehicleType": "南海バス(車椅子・ベビーカー・ノンステップ)",
    "updateTime": "2026/07/21 08:33"
  },
  {
    "vehicleNum": "080894",
    "vehicleCd": "350",
    "vehicleCorpCd": "1",
    "running": true,
    "lat": 34.565389,
    "lon": 135.5175,
    "route": "美原区役所→野遠→地下鉄新金岡駅前",
    "stop": "北区役所前",
    "passTime": "08:33",
    "vehicleType": "南海バス(車椅子・ベビーカー・ノンステップ)",
    "updateTime": "2026/07/21 08:33"
  },
  {
    "vehicleNum": "080898",
    "vehicleCd": "501",
    "vehicleCorpCd": "1",
    "running": true,
    "lat": 34.583694,
    "lon": 135.467972,
    "route": "【急行】堺駅西口→海浜匠町",
    "stop": "堺駅西口",
    "passTime": "08:30",
    "vehicleType": "南海バス(車椅子・ベビーカー・ワンステップ)",
    "updateTime": "2026/07/21 08:33"
  },
  {
    "vehicleNum": "080901",
    "vehicleCd": "347",
    "vehicleCorpCd": "1",
    "running": true,
    "lat": 34.592889,
    "lon": 135.469778,
    "route": "【急行】阪和堺市駅前→海浜匠町",
    "stop": "阪和堺市駅前",
    "passTime": "08:18",
    "vehicleType": "南海バス(車椅子・ベビーカー・ワンステップ)",
    "updateTime": "2026/07/21 08:33"
  },
  {
    "vehicleNum": "080903",
    "vehicleCd": "354",
    "vehicleCorpCd": "1",
    "running": true,
    "lat": 34.590889,
    "lon": 135.468194,
    "route": "【急行】堺駅西口→海浜匠町",
    "stop": "堺駅西口",
    "passTime": "08:27",
    "vehicleType": "南海バス(車椅子・ベビーカー・ワンステップ)",
    "updateTime": "2026/07/21 08:33"
  },
  {
    "vehicleNum": "080904",
    "vehicleCd": "362",
    "vehicleCorpCd": "1",
    "running": true,
    "lat": 34.536083,
    "lon": 135.5525,
    "route": "初芝駅前→平尾→初芝駅前",
    "stop": "農芸高校前",
    "passTime": "08:33",
    "vehicleType": "南海バス(車椅子・ベビーカー・ノンステップ)",
    "updateTime": "2026/07/21 08:33"
  },
  {
    "vehicleNum": "080911",
    "vehicleCd": "240",
    "vehicleCorpCd": "1",
    "running": true,
    "lat": 34.5745,
    "lon": 135.482194,
    "route": "堺駅南口→堺駅前",
    "stop": "栄泰橋",
    "passTime": "08:26",
    "vehicleType": "南海バス(車椅子・ベビーカー・ノンステップ)",
    "updateTime": "2026/07/21 08:33"
  },
  {
    "vehicleNum": "080917",
    "vehicleCd": "70",
    "vehicleCorpCd": "1",
    "running": true,
    "lat": 34.477389,
    "lon": 135.491583,
    "route": "栂・美木多駅→庭代台右回り→栂・美木多駅",
    "stop": "原山台３丁",
    "passTime": "08:33",
    "vehicleType": "南海バス(車椅子・ベビーカー・ノンステップ)",
    "updateTime": "2026/07/21 08:33"
  },
  {
    "vehicleNum": "080913",
    "vehicleCd": "128",
    "vehicleCorpCd": "1",
    "running": true,
    "lat": 34.585083,
    "lon": 135.493778,
    "route": "河内天美駅前→天美我堂→堺東駅前",
    "stop": "愛泉学園前",
    "passTime": "08:32",
    "vehicleType": "南海バス(車椅子・ベビーカー・ノンステップ)",
    "updateTime": "2026/07/21 08:33"
  },
  {
    "vehicleNum": "080934",
    "vehicleCd": "594",
    "vehicleCorpCd": "1",
    "running": true,
    "lat": 34.601278,
    "lon": 135.450889,
    "route": "堺東駅前→材木町→堺駅西口",
    "stop": "堺浜北",
    "passTime": "08:33",
    "vehicleType": "南海バス(車椅子・ベビーカー・ノンステップ)",
    "updateTime": "2026/07/21 08:33"
  },
  {
    "vehicleNum": "080935",
    "vehicleCd": "593",
    "vehicleCorpCd": "1",
    "running": true,
    "lat": 34.562278,
    "lon": 135.4745,
    "route": "堺駅前→堺駅南口",
    "stop": "旭ヶ丘北町",
    "passTime": "08:32",
    "vehicleType": "南海バス(車椅子・ベビーカー・ノンステップ)",
    "updateTime": "2026/07/21 08:33"
  },
  {
    "vehicleNum": "080937",
    "vehicleCd": "595",
    "vehicleCorpCd": "1",
    "running": true,
    "lat": 34.551778,
    "lon": 135.504278,
    "route": "北野田駅前→西口園→堺駅南口",
    "stop": "府立大学前",
    "passTime": "08:29",
    "vehicleType": "南海バス(車椅子・ベビーカー・ノンステップ)",
    "updateTime": "2026/07/21 08:33"
  },
  {
    "vehicleNum": "080936",
    "vehicleCd": "22",
    "vehicleCorpCd": "1",
    "running": true,
    "lat": 34.464278,
    "lon": 135.502083,
    "route": "栂・美木多駅→御池台回り→栂・美木多駅",
    "stop": "御池台センター",
    "passTime": "08:33",
    "vehicleType": "南海バス(車椅子・ベビーカー・ノンステップ)",
    "updateTime": "2026/07/21 08:33"
  },
  {
    "vehicleNum": "080948",
    "vehicleCd": "276",
    "vehicleCorpCd": "1",
    "running": true,
    "lat": 34.591778,
    "lon": 135.473,
    "route": "堺東駅前→綾の町電停前→匠町",
    "stop": "海山通",
    "passTime": "08:31",
    "vehicleType": "南海バス(車椅子・ベビーカー・ノンステップ)",
    "updateTime": "2026/07/21 08:33"
  },
  {
    "vehicleNum": "080951",
    "vehicleCd": "597",
    "vehicleCorpCd": "1",
    "running": true,
    "lat": 34.527389,
    "lon": 135.471,
    "route": "津久野駅前→堺市立総合医療センター前→泉北２号線→泉ヶ丘駅",
    "stop": "毛穴南",
    "passTime": "08:32",
    "vehicleType": "南海バス(車椅子・ベビーカー・ノンステップ)",
    "updateTime": "2026/07/21 08:33"
  },
  {
    "vehicleNum": "080956",
    "vehicleCd": "71",
    "vehicleCorpCd": "1",
    "running": true,
    "lat": 34.64,
    "lon": 135.414194,
    "route": "堺東駅前→ＡＴＣ→堺東駅前",
    "stop": "ATC",
    "passTime": "08:30",
    "vehicleType": "南海バス",
    "updateTime": "2026/07/21 08:33"
  },
  {
    "vehicleNum": "080957",
    "vehicleCd": "34",
    "vehicleCorpCd": "1",
    "running": true,
    "lat": 34.580583,
    "lon": 135.464583,
    "route": "堺東駅前→ＡＴＣ→堺東駅前",
    "stop": "ポートタウン東",
    "passTime": "08:17",
    "vehicleType": "南海バス",
    "updateTime": "2026/07/21 08:33"
  },
  {
    "vehicleNum": "080967",
    "vehicleCd": "605",
    "vehicleCorpCd": "1",
    "running": true,
    "lat": 34.532583,
    "lon": 135.569278,
    "route": "初芝駅前→平尾→初芝駅前",
    "stop": "平尾",
    "passTime": "08:32",
    "vehicleType": "南海バス(車椅子・ベビーカー・ノンステップ)",
    "updateTime": "2026/07/21 08:33"
  },
  {
    "vehicleNum": "080968",
    "vehicleCd": "424",
    "vehicleCorpCd": "1",
    "running": true,
    "lat": 34.542083,
    "lon": 135.512694,
    "route": "北野田駅前→福町→堺駅南口",
    "stop": "新家町",
    "passTime": "08:32",
    "vehicleType": "南海バス(車椅子・ベビーカー・ノンステップ)",
    "updateTime": "2026/07/21 08:33"
  },
  {
    "vehicleNum": "080978",
    "vehicleCd": "431",
    "vehicleCorpCd": "1",
    "running": true,
    "lat": 34.577278,
    "lon": 135.469389,
    "route": "北野田駅前→西口園→堺駅南口",
    "stop": "川尻",
    "passTime": "08:32",
    "vehicleType": "南海バス(車椅子・ベビーカー・ノンステップ)",
    "updateTime": "2026/07/21 08:33"
  },
  {
    "vehicleNum": "080882",
    "vehicleCd": "343",
    "vehicleCorpCd": "1",
    "running": true,
    "lat": 34.500278,
    "lon": 135.499889,
    "route": "泉ヶ丘駅→泉北２号線→津久野駅前",
    "stop": "竹城台口",
    "passTime": "08:33",
    "vehicleType": "南海バス(車椅子・ベビーカー・ノンステップ)",
    "updateTime": "2026/07/21 08:33"
  },
  {
    "vehicleNum": "080977",
    "vehicleCd": "388",
    "vehicleCorpCd": "1",
    "running": true,
    "lat": 34.530083,
    "lon": 135.497583,
    "route": "深井駅→東山車庫前→北野田駅前",
    "stop": "深井駅",
    "passTime": "08:33",
    "vehicleType": "南海バス(車椅子・ベビーカー・ノンステップ)",
    "updateTime": "2026/07/21 08:33"
  },
  {
    "vehicleNum": "080994",
    "vehicleCd": "130",
    "vehicleCorpCd": "1",
    "running": true,
    "lat": 34.493278,
    "lon": 135.5015,
    "route": "津久野駅前→堺市立総合医療センター前→泉北２号線→泉ヶ丘駅",
    "stop": "若竹大橋",
    "passTime": "08:33",
    "vehicleType": "南海バス(車椅子・ベビーカー・ノンステップ)",
    "updateTime": "2026/07/21 08:33"
  },
  {
    "vehicleNum": "080995",
    "vehicleCd": "118",
    "vehicleCorpCd": "1",
    "running": true,
    "lat": 34.4975,
    "lon": 135.519778,
    "route": "泉ヶ丘駅→スマ・エコタウン晴美台→高倉台右回り→泉ヶ丘駅",
    "stop": "三原台１丁",
    "passTime": "08:33",
    "vehicleType": "南海バス(車椅子・ベビーカー・ノンステップ)",
    "updateTime": "2026/07/21 08:33"
  },
  {
    "vehicleNum": "081001",
    "vehicleCd": "238",
    "vehicleCorpCd": "1",
    "running": true,
    "lat": 34.522389,
    "lon": 135.533278,
    "route": "北野田駅前→福町→深井駅",
    "stop": "伊勢道",
    "passTime": "08:33",
    "vehicleType": "南海バス(車椅子・ベビーカー・ノンステップ)",
    "updateTime": "2026/07/21 08:33"
  },
  {
    "vehicleNum": "080996",
    "vehicleCd": "191",
    "vehicleCorpCd": "1",
    "running": true,
    "lat": 34.541889,
    "lon": 135.530694,
    "route": "初芝駅前→平尾→初芝駅前",
    "stop": "初芝駅前",
    "passTime": "08:31",
    "vehicleType": "南海バス(車椅子・ベビーカー・ノンステップ)",
    "updateTime": "2026/07/21 08:33"
  },
  {
    "vehicleNum": "080999",
    "vehicleCd": "493",
    "vehicleCorpCd": "1",
    "running": true,
    "lat": 34.542472,
    "lon": 135.512472,
    "route": "堺駅南口→福町→北野田駅前",
    "stop": "下茶屋",
    "passTime": "08:32",
    "vehicleType": "南海バス(車椅子・ベビーカー・ノンステップ)",
    "updateTime": "2026/07/21 08:33"
  },
  {
    "vehicleNum": "081004",
    "vehicleCd": "271",
    "vehicleCorpCd": "1",
    "running": true,
    "lat": 34.521778,
    "lon": 135.527389,
    "route": "深井駅→東山車庫前→北野田駅前",
    "stop": "福田中",
    "passTime": "08:30",
    "vehicleType": "南海バス(車椅子・ベビーカー・ノンステップ)",
    "updateTime": "2026/07/21 08:33"
  },
  {
    "vehicleNum": "081005",
    "vehicleCd": "272",
    "vehicleCorpCd": "1",
    "running": true,
    "lat": 34.533472,
    "lon": 135.478083,
    "route": "堺東駅前→堀上緑町１丁→堺東駅前",
    "stop": "堀上緑町一丁（６０号棟前）",
    "passTime": "08:32",
    "vehicleType": "南海バス(車椅子・ベビーカー・ノンステップ)",
    "updateTime": "2026/07/21 08:33"
  },
  {
    "vehicleNum": "081019",
    "vehicleCd": "267",
    "vehicleCorpCd": "1",
    "running": true,
    "lat": 34.558694,
    "lon": 135.473278,
    "route": "泉ヶ丘駅→宮山台中学校前→堺東駅前",
    "stop": "旭ヶ丘（堺市）",
    "passTime": "08:30",
    "vehicleType": "南海バス(車椅子・ベビーカー・ノンステップ)",
    "updateTime": "2026/07/21 08:33"
  },
  {
    "vehicleNum": "081020",
    "vehicleCd": "163",
    "vehicleCorpCd": "1",
    "running": true,
    "lat": 34.569583,
    "lon": 135.480778,
    "route": "堺東駅前→上野芝→泉ヶ丘駅",
    "stop": "賑町",
    "passTime": "08:33",
    "vehicleType": "南海バス(車椅子・ベビーカー・ノンステップ)",
    "updateTime": "2026/07/21 08:33"
  },
  {
    "vehicleNum": "081021",
    "vehicleCd": "243",
    "vehicleCorpCd": "1",
    "running": true,
    "lat": 34.5165,
    "lon": 135.492194,
    "route": "中もず駅前→北条→伏尾",
    "stop": "天の橋",
    "passTime": "08:32",
    "vehicleType": "南海バス(車椅子・ベビーカー・ノンステップ)",
    "updateTime": "2026/07/21 08:33"
  },
  {
    "vehicleNum": "081024",
    "vehicleCd": "270",
    "vehicleCorpCd": "1",
    "running": true,
    "lat": 34.505278,
    "lon": 135.497389,
    "route": "堺東駅前→上野芝→泉ヶ丘駅",
    "stop": "宮山台小学校前",
    "passTime": "08:32",
    "vehicleType": "南海バス(車椅子・ベビーカー・ノンステップ)",
    "updateTime": "2026/07/21 08:33"
  },
  {
    "vehicleNum": "081023",
    "vehicleCd": "264",
    "vehicleCorpCd": "1",
    "running": true,
    "lat": 34.514194,
    "lon": 135.511194,
    "route": "深井駅→田園→泉ヶ丘駅",
    "stop": "田園北口",
    "passTime": "08:32",
    "vehicleType": "南海バス(車椅子・ベビーカー・ノンステップ)",
    "updateTime": "2026/07/21 08:33"
  },
  {
    "vehicleNum": "081035",
    "vehicleCd": "491",
    "vehicleCorpCd": "1",
    "running": true,
    "lat": 34.486889,
    "lon": 135.519194,
    "route": "泉ヶ丘駅→槙塚台右回り→泉ヶ丘駅",
    "stop": "茶山台３丁",
    "passTime": "08:33",
    "vehicleType": "南海バス(車椅子・ベビーカー・ノンステップ)",
    "updateTime": "2026/07/21 08:33"
  },
  {
    "vehicleNum": "081036",
    "vehicleCd": "293",
    "vehicleCorpCd": "1",
    "running": true,
    "lat": 34.518583,
    "lon": 135.4905,
    "route": "津久野駅前→堺市立総合医療センター前→八田荘団地→泉ヶ丘駅",
    "stop": "小阪",
    "passTime": "08:29",
    "vehicleType": "南海バス(車椅子・ベビーカー・ノンステップ)",
    "updateTime": "2026/07/21 08:33"
  },
  {
    "vehicleNum": "081043",
    "vehicleCd": "612",
    "vehicleCorpCd": "1",
    "running": true,
    "lat": 34.541889,
    "lon": 135.468583,
    "route": "泉ヶ丘駅→深阪→津久野駅前",
    "stop": "文珠前",
    "passTime": "08:29",
    "vehicleType": "南海バス(車椅子・ベビーカー・ノンステップ)",
    "updateTime": "2026/07/21 08:33"
  },
  {
    "vehicleNum": "081041",
    "vehicleCd": "611",
    "vehicleCorpCd": "1",
    "running": true,
    "lat": 34.491194,
    "lon": 135.524694,
    "route": "泉ヶ丘駅→スマ・エコタウン晴美台→高倉台右回り・中央線→泉ヶ丘駅",
    "stop": "高倉台３丁",
    "passTime": "08:33",
    "vehicleType": "南海バス(車椅子・ベビーカー・ノンステップ)",
    "updateTime": "2026/07/21 08:33"
  },
  {
    "vehicleNum": "082245",
    "vehicleCd": "438",
    "vehicleCorpCd": "1",
    "running": true,
    "lat": 34.601583,
    "lon": 135.461889,
    "route": "堺東駅前→ＡＴＣ→堺東駅前",
    "stop": "堺駅前",
    "passTime": "08:24",
    "vehicleType": "南海バス",
    "updateTime": "2026/07/21 08:33"
  },
  {
    "vehicleNum": "090035",
    "vehicleCd": "242",
    "vehicleCorpCd": "1",
    "running": true,
    "lat": 34.489889,
    "lon": 135.428583,
    "route": "北信太駅筋→鶴山台団地→和泉府中駅前",
    "stop": "和泉中学校前",
    "passTime": "08:32",
    "vehicleType": "南海バス(車椅子・ベビーカー・ワンステップ)",
    "updateTime": "2026/07/21 08:33"
  },
  {
    "vehicleNum": "090144",
    "vehicleCd": "82",
    "vehicleCorpCd": "2",
    "running": true,
    "lat": 34.462194,
    "lon": 135.380278,
    "route": "和泉中央駅→荒木町→岸和田駅前",
    "stop": "沼町",
    "passTime": "08:32",
    "vehicleType": "南海ウイングバス(車椅子・ベビーカー・ワンステップ)",
    "updateTime": "2026/07/21 08:33"
  },
  {
    "vehicleNum": "090104",
    "vehicleCd": "53",
    "vehicleCorpCd": "2",
    "running": true,
    "lat": 34.455194,
    "lon": 135.384694,
    "route": "岸和田駅前→岸和田警察署前→河合→白原車庫",
    "stop": "岸和田警察署前",
    "passTime": "08:32",
    "vehicleType": "南海ウイングバス(車椅子・ベビーカー・ワンステップ)",
    "updateTime": "2026/07/21 08:33"
  },
  {
    "vehicleNum": "090170",
    "vehicleCd": "117",
    "vehicleCorpCd": "2",
    "running": true,
    "lat": 34.406778,
    "lon": 135.420194,
    "route": "白原車庫→河合→岸和田警察署前→岸和田駅前",
    "stop": "神於",
    "passTime": "08:32",
    "vehicleType": "南海ウイングバス",
    "updateTime": "2026/07/21 08:33"
  },
  {
    "vehicleNum": "090176",
    "vehicleCd": "101",
    "vehicleCorpCd": "2",
    "running": true,
    "lat": 34.408194,
    "lon": 135.295389,
    "route": "りんくうポート北→りんくうタウン駅",
    "stop": "りんくう大通り",
    "passTime": "08:33",
    "vehicleType": "南海ウイングバス",
    "updateTime": "2026/07/21 08:33"
  },
  {
    "vehicleNum": "090279",
    "vehicleCd": "16",
    "vehicleCorpCd": "2",
    "running": true,
    "lat": 34.398194,
    "lon": 135.3525,
    "route": "熊取町　青葉台方面循環コース",
    "stop": "翠松苑",
    "passTime": "08:32",
    "vehicleType": "南海ウイングバス(車椅子)",
    "updateTime": "2026/07/21 08:33"
  },
  {
    "vehicleNum": "091147",
    "vehicleCd": "255",
    "vehicleCorpCd": "1",
    "running": true,
    "lat": 34.507583,
    "lon": 135.442278,
    "route": "北信太駅筋→鶴山台団地→北信太駅筋",
    "stop": "太町",
    "passTime": "08:31",
    "vehicleType": "南海バス(車椅子・ベビーカー・ワンステップ)",
    "updateTime": "2026/07/21 08:33"
  },
  {
    "vehicleNum": "091381",
    "vehicleCd": "330",
    "vehicleCorpCd": "1",
    "running": true,
    "lat": 34.434778,
    "lon": 135.496583,
    "route": "堺東駅前→鳳駅前→国分峠東",
    "stop": "別所南",
    "passTime": "08:30",
    "vehicleType": "南海バス(車椅子・ベビーカー・ワンステップ)",
    "updateTime": "2026/07/21 08:33"
  },
  {
    "vehicleNum": "091445",
    "vehicleCd": "426",
    "vehicleCorpCd": "1",
    "running": true,
    "lat": 34.455194,
    "lon": 135.557278,
    "route": "緑ヶ丘北町→千代田駅前",
    "stop": "配水池前",
    "passTime": "08:32",
    "vehicleType": "南海バス(車椅子・ベビーカー・ノンステップ)",
    "updateTime": "2026/07/21 08:33"
  },
  {
    "vehicleNum": "091580",
    "vehicleCd": "85",
    "vehicleCorpCd": "2",
    "running": true,
    "lat": 34.363778,
    "lon": 135.276,
    "route": "泉南市コミュニティバス 朝 新家回り（３便用）",
    "stop": "砂川駅前通り",
    "passTime": "08:33",
    "vehicleType": "南海ウイングバス(車椅子・ベビーカー・ノンステップ)",
    "updateTime": "2026/07/21 08:33"
  },
  {
    "vehicleNum": "091601",
    "vehicleCd": "202",
    "vehicleCorpCd": "1",
    "running": true,
    "lat": 34.4285,
    "lon": 135.229389,
    "route": "空港駅→直行→給油地区",
    "stop": "機内食前",
    "passTime": "08:32",
    "vehicleType": "南海バス(車椅子・ノンステップ)",
    "updateTime": "2026/07/21 08:33"
  },
  {
    "vehicleNum": "091740",
    "vehicleCd": "105",
    "vehicleCorpCd": "2",
    "running": true,
    "lat": 34.460778,
    "lon": 135.455,
    "route": "岸和田駅前→徳洲会病院→和泉中央駅",
    "stop": "唐国南",
    "passTime": "08:32",
    "vehicleType": "南海ウイングバス(車椅子・ベビーカー・ワンステップ)",
    "updateTime": "2026/07/21 08:33"
  },
  {
    "vehicleNum": "091739",
    "vehicleCd": "147",
    "vehicleCorpCd": "2",
    "running": true,
    "lat": 34.4545,
    "lon": 135.385694,
    "route": "岸和田駅前→内畑→白原車庫",
    "stop": "岸和田警察署前",
    "passTime": "08:32",
    "vehicleType": "南海ウイングバス(車椅子・ベビーカー・ワンステップ)",
    "updateTime": "2026/07/21 08:33"
  },
  {
    "vehicleNum": "091737",
    "vehicleCd": "48",
    "vehicleCorpCd": "2",
    "running": true,
    "lat": 34.429194,
    "lon": 135.429778,
    "route": "道の駅愛彩ランド→包近→和泉中央駅",
    "stop": "職業能力開発大学",
    "passTime": "08:32",
    "vehicleType": "南海ウイングバス(車椅子・ベビーカー・ワンステップ)",
    "updateTime": "2026/07/21 08:33"
  },
  {
    "vehicleNum": "091744",
    "vehicleCd": "148",
    "vehicleCorpCd": "2",
    "running": true,
    "lat": 34.462778,
    "lon": 135.405278,
    "route": "牛滝温泉→内畑→岸和田駅前",
    "stop": "久米田",
    "passTime": "08:32",
    "vehicleType": "南海ウイングバス(車椅子・ベビーカー・ワンステップ)",
    "updateTime": "2026/07/21 08:33"
  },
  {
    "vehicleNum": "091785",
    "vehicleCd": "120",
    "vehicleCorpCd": "2",
    "running": true,
    "lat": 34.394778,
    "lon": 135.349194,
    "route": "熊取町　つばさが丘循環コース",
    "stop": "山原",
    "passTime": "08:32",
    "vehicleType": "熊取町コミュニティバス(メジーナちゃん号)",
    "updateTime": "2026/07/21 08:33"
  },
  {
    "vehicleNum": "091792",
    "vehicleCd": "59",
    "vehicleCorpCd": "1",
    "running": true,
    "lat": 34.432278,
    "lon": 135.2345,
    "route": "給油地区→直行→空港駅",
    "stop": "機内食前",
    "passTime": "08:32",
    "vehicleType": "南海バス(車椅子・ノンステップ)",
    "updateTime": "2026/07/21 08:33"
  },
  {
    "vehicleNum": "091893",
    "vehicleCd": "84",
    "vehicleCorpCd": "2",
    "running": true,
    "lat": 34.348778,
    "lon": 135.274278,
    "route": "泉南市コミュニティバス 南Ａ回り",
    "stop": "岡中",
    "passTime": "08:33",
    "vehicleType": "岸和田市コミュニティバス(ローズバス)",
    "updateTime": "2026/07/21 08:33"
  },
  {
    "vehicleNum": "092045",
    "vehicleCd": "463",
    "vehicleCorpCd": "1",
    "running": true,
    "lat": 34.451694,
    "lon": 135.569889,
    "route": "ﾓｯｸﾙ 美加～木戸東町～美加",
    "stop": "七ツ辻",
    "passTime": "08:32",
    "vehicleType": "南海バス(車椅子・ベビーカー・ノンステップ)",
    "updateTime": "2026/07/21 08:33"
  },
  {
    "vehicleNum": "092153",
    "vehicleCd": "529",
    "vehicleCorpCd": "1",
    "running": true,
    "lat": 34.437583,
    "lon": 135.235194,
    "route": "エアロプラザ→第２ターミナル(国内線・国際線)→エアロプラザ",
    "stop": "第2ターミナル国際線",
    "passTime": "08:32",
    "vehicleType": "南海バス",
    "updateTime": "2026/07/21 08:33"
  },
  {
    "vehicleNum": "092141",
    "vehicleCd": "527",
    "vehicleCorpCd": "1",
    "running": true,
    "lat": 34.638583,
    "lon": 135.424889,
    "route": "堺東駅前→ＡＴＣ→堺東駅前",
    "stop": "インテックス大阪東",
    "passTime": "08:30",
    "vehicleType": "南海バス",
    "updateTime": "2026/07/21 08:33"
  },
  {
    "vehicleNum": "091895",
    "vehicleCd": "4",
    "vehicleCorpCd": "2",
    "running": true,
    "lat": 34.357194,
    "lon": 135.293,
    "route": "泉南市コミュニティバス 朝 一丘回り（３便用）",
    "stop": "砂川台団地南",
    "passTime": "08:33",
    "vehicleType": "泉南市コミュニティバス(ピンク)",
    "updateTime": "2026/07/21 08:33"
  },
  {
    "vehicleNum": "092135",
    "vehicleCd": "525",
    "vehicleCorpCd": "1",
    "running": true,
    "lat": 34.432472,
    "lon": 135.234694,
    "route": "空港駅→国際循環→空港駅",
    "stop": "機内食前",
    "passTime": "08:32",
    "vehicleType": "南海バス",
    "updateTime": "2026/07/21 08:33"
  },
  {
    "vehicleNum": "092235",
    "vehicleCd": "535",
    "vehicleCorpCd": "1",
    "running": true,
    "lat": 34.460778,
    "lon": 135.456389,
    "route": "和泉中央駅→直行→テクノステージセンター前",
    "stop": "和泉中央駅",
    "passTime": "08:32",
    "vehicleType": "南海バス(車椅子・ベビーカー・ノンステップ)",
    "updateTime": "2026/07/21 08:33"
  },
  {
    "vehicleNum": "092204",
    "vehicleCd": "416",
    "vehicleCorpCd": "1",
    "running": true,
    "lat": 34.467778,
    "lon": 135.565389,
    "route": "千代→小山田→緑→千代",
    "stop": "千代田駅前",
    "passTime": "08:31",
    "vehicleType": "南海バス",
    "updateTime": "2026/07/21 08:33"
  },
  {
    "vehicleNum": "092372",
    "vehicleCd": "159",
    "vehicleCorpCd": "1",
    "running": true,
    "lat": 34.4705,
    "lon": 135.479583,
    "route": "光明池駅→城山台２丁→光明池駅",
    "stop": "鴨谷台三丁",
    "passTime": "08:33",
    "vehicleType": "南海バス(車椅子・ベビーカー・ノンステップ)",
    "updateTime": "2026/07/21 08:33"
  },
  {
    "vehicleNum": "092373",
    "vehicleCd": "553",
    "vehicleCorpCd": "1",
    "running": true,
    "lat": 34.471194,
    "lon": 135.476583,
    "route": "光明池駅→城山台５丁→光明池車庫",
    "stop": "光明池駅",
    "passTime": "08:30",
    "vehicleType": "南海バス(車椅子・ベビーカー・ノンステップ)",
    "updateTime": "2026/07/21 08:33"
  },
  {
    "vehicleNum": "092383",
    "vehicleCd": "44",
    "vehicleCorpCd": "1",
    "running": true,
    "lat": 34.460778,
    "lon": 135.455972,
    "route": "泉大津駅前→和泉中央駅→和泉青葉台",
    "stop": "上中村",
    "passTime": "08:29",
    "vehicleType": "南海バス(車椅子・ベビーカー・ワンステップ)",
    "updateTime": "2026/07/21 08:33"
  },
  {
    "vehicleNum": "092384",
    "vehicleCd": "558",
    "vehicleCorpCd": "1",
    "running": true,
    "lat": 34.544194,
    "lon": 135.463389,
    "route": "光明池駅→山田→堺東駅前",
    "stop": "下田南",
    "passTime": "08:31",
    "vehicleType": "南海バス(車椅子・ベビーカー・ノンステップ)",
    "updateTime": "2026/07/21 08:33"
  },
  {
    "vehicleNum": "092394",
    "vehicleCd": "42",
    "vehicleCorpCd": "1",
    "running": true,
    "lat": 34.437694,
    "lon": 135.231194,
    "route": "エアロプラザ→第２ターミナル(国内線・国際線)→エアロプラザ",
    "stop": "エアロプラザ",
    "passTime": "08:28",
    "vehicleType": "南海バス(車椅子・ノンステップ)",
    "updateTime": "2026/07/21 08:33"
  },
  {
    "vehicleNum": "092398",
    "vehicleCd": "41",
    "vehicleCorpCd": "1",
    "running": true,
    "lat": 34.428694,
    "lon": 135.229694,
    "route": "空港駅→国際循環→空港駅",
    "stop": "機内食前",
    "passTime": "08:33",
    "vehicleType": "南海バス(車椅子・ノンステップ)",
    "updateTime": "2026/07/21 08:33"
  },
  {
    "vehicleNum": "092468",
    "vehicleCd": "51",
    "vehicleCorpCd": "1",
    "running": true,
    "lat": 34.422083,
    "lon": 135.559,
    "route": "三日市町駅前→南花台１丁目北→大矢船西町",
    "stop": "大矢船北町（南花台系統）",
    "passTime": "08:33",
    "vehicleType": "南海バス(車椅子・ベビーカー・ノンステップ)",
    "updateTime": "2026/07/21 08:33"
  },
  {
    "vehicleNum": "092483",
    "vehicleCd": "110",
    "vehicleCorpCd": "1",
    "running": true,
    "lat": 34.451278,
    "lon": 135.574194,
    "route": "小吹台→河内長野駅前",
    "stop": "河合寺",
    "passTime": "08:31",
    "vehicleType": "南海バス(車椅子・ベビーカー・ノンステップ)",
    "updateTime": "2026/07/21 08:33"
  },
  {
    "vehicleNum": "092502",
    "vehicleCd": "140",
    "vehicleCorpCd": "2",
    "running": true,
    "lat": 34.454194,
    "lon": 135.400278,
    "route": "ローズバス　左回り",
    "stop": "上松台東町",
    "passTime": "08:32",
    "vehicleType": "岸和田市コミュニティバス(ローズバス)",
    "updateTime": "2026/07/21 08:33"
  },
  {
    "vehicleNum": "092561",
    "vehicleCd": "74",
    "vehicleCorpCd": "1",
    "running": true,
    "lat": 34.496194,
    "lon": 135.565472,
    "route": "PL病院→金剛駅前（東側）→津々山台2丁目→PL病院",
    "stop": "高辺台三丁目",
    "passTime": "08:32",
    "vehicleType": "南海バス(車椅子・ベビーカー・ノンステップ)",
    "updateTime": "2026/07/21 08:33"
  },
  {
    "vehicleNum": "092533",
    "vehicleCd": "288",
    "vehicleCorpCd": "1",
    "running": true,
    "lat": 34.458778,
    "lon": 135.489278,
    "route": "光明池駅→城山台５丁→光明池車庫",
    "stop": "光明台一丁目",
    "passTime": "08:33",
    "vehicleType": "南海バス(車椅子・ベビーカー・ノンステップ)",
    "updateTime": "2026/07/21 08:33"
  },
  {
    "vehicleNum": "092534",
    "vehicleCd": "265",
    "vehicleCorpCd": "1",
    "running": true,
    "lat": 34.420389,
    "lon": 135.456583,
    "route": "和泉中央駅→直行→テクノステージセンター前",
    "stop": "コスモ中央公園前",
    "passTime": "08:33",
    "vehicleType": "南海バス(車椅子・ベビーカー・ノンステップ)",
    "updateTime": "2026/07/21 08:33"
  },
  {
    "vehicleNum": "092569",
    "vehicleCd": "266",
    "vehicleCorpCd": "1",
    "running": true,
    "lat": 34.4575,
    "lon": 135.450389,
    "route": "和泉中央駅→グリーンポリス→府立産技研前",
    "stop": "和泉中央駅",
    "passTime": "08:28",
    "vehicleType": "南海バス(車椅子・ベビーカー・ノンステップ)",
    "updateTime": "2026/07/21 08:33"
  },
  {
    "vehicleNum": "092570",
    "vehicleCd": "577",
    "vehicleCorpCd": "1",
    "running": true,
    "lat": 34.456694,
    "lon": 135.448778,
    "route": "和泉中央駅→直行→テクノステージセンター前",
    "stop": "唐国南",
    "passTime": "08:33",
    "vehicleType": "南海バス(車椅子・ベビーカー・ノンステップ)",
    "updateTime": "2026/07/21 08:33"
  },
  {
    "vehicleNum": "092578",
    "vehicleCd": "147",
    "vehicleCorpCd": "1",
    "running": true,
    "lat": 34.415194,
    "lon": 135.623694,
    "route": "金剛山ﾛｰﾌﾟｳｪｲ前→日東町東口→河内長野駅前",
    "stop": "錦川",
    "passTime": "08:33",
    "vehicleType": "南海バス(車椅子・ベビーカー・ノンステップ)",
    "updateTime": "2026/07/21 08:33"
  },
  {
    "vehicleNum": "092577",
    "vehicleCd": "578",
    "vehicleCorpCd": "1",
    "running": true,
    "lat": 34.441694,
    "lon": 135.577583,
    "route": "河内長野駅前→河合寺→小吹台",
    "stop": "大師町",
    "passTime": "08:33",
    "vehicleType": "南海バス(車椅子・ベビーカー・ノンステップ)",
    "updateTime": "2026/07/21 08:33"
  },
  {
    "vehicleNum": "092580",
    "vehicleCd": "377",
    "vehicleCorpCd": "1",
    "running": true,
    "lat": 34.467083,
    "lon": 135.446889,
    "route": "和泉中央駅→いぶき野→和泉府中駅前",
    "stop": "いぶき野一丁目",
    "passTime": "08:32",
    "vehicleType": "南海バス(車椅子・ベビーカー・ノンステップ)",
    "updateTime": "2026/07/21 08:33"
  },
  {
    "vehicleNum": "092595",
    "vehicleCd": "326",
    "vehicleCorpCd": "1",
    "running": true,
    "lat": 34.421889,
    "lon": 135.564389,
    "route": "神納→加塩→三日",
    "stop": "東部",
    "passTime": "08:33",
    "vehicleType": "南海バス(車椅子・ベビーカー・ノンステップ)",
    "updateTime": "2026/07/21 08:33"
  },
  {
    "vehicleNum": "092620",
    "vehicleCd": "311",
    "vehicleCorpCd": "1",
    "running": true,
    "lat": 34.466083,
    "lon": 135.562194,
    "route": "千代田駅前→赤峯→荘園町",
    "stop": "南海西友前",
    "passTime": "08:32",
    "vehicleType": "南海バス(車椅子・ベビーカー・ノンステップ)",
    "updateTime": "2026/07/21 08:33"
  },
  {
    "vehicleNum": "092647",
    "vehicleCd": "587",
    "vehicleCorpCd": "1",
    "running": true,
    "lat": 34.422889,
    "lon": 135.5465,
    "route": "滝畑ダム→河内長野駅前",
    "stop": "中日野",
    "passTime": "08:33",
    "vehicleType": "南海バス(車椅子・ベビーカー・ノンステップ)",
    "updateTime": "2026/07/21 08:33"
  },
  {
    "vehicleNum": "092653",
    "vehicleCd": "357",
    "vehicleCorpCd": "1",
    "running": true,
    "lat": 34.449889,
    "lon": 135.558278,
    "route": "河内長野駅前→水落→旭ヶ丘",
    "stop": "野作",
    "passTime": "08:32",
    "vehicleType": "南海バス(車椅子・ベビーカー・ノンステップ)",
    "updateTime": "2026/07/21 08:33"
  },
  {
    "vehicleNum": "092696",
    "vehicleCd": "589",
    "vehicleCorpCd": "1",
    "running": true,
    "lat": 34.4435,
    "lon": 135.462083,
    "route": "和泉中央駅→はつが野六丁目→和泉中央駅",
    "stop": "はつが野二丁目",
    "passTime": "08:32",
    "vehicleType": "南海バス(車椅子・ベビーカー・ノンステップ)",
    "updateTime": "2026/07/21 08:33"
  },
  {
    "vehicleNum": "092734",
    "vehicleCd": "289",
    "vehicleCorpCd": "1",
    "running": true,
    "lat": 34.426583,
    "lon": 135.570389,
    "route": "三日市町駅前→南青葉台→三日市町駅前",
    "stop": "北青葉台",
    "passTime": "08:33",
    "vehicleType": "南海バス(車椅子・ベビーカー・ノンステップ)",
    "updateTime": "2026/07/21 08:33"
  },
  {
    "vehicleNum": "092757",
    "vehicleCd": "306",
    "vehicleCorpCd": "1",
    "running": true,
    "lat": 34.457778,
    "lon": 135.564083,
    "route": "河内長野駅前→河内長野市役所前",
    "stop": "河内長野警察署前",
    "passTime": "08:30",
    "vehicleType": "南海バス(車椅子・ベビーカー・ノンステップ)",
    "updateTime": "2026/07/21 08:33"
  },
  {
    "vehicleNum": "092758",
    "vehicleCd": "363",
    "vehicleCorpCd": "1",
    "running": true,
    "lat": 34.438194,
    "lon": 135.584,
    "route": "三日市町駅前→清見台回り→三日市町駅前（前乗り）",
    "stop": "清見台２丁目",
    "passTime": "08:33",
    "vehicleType": "南海バス(車椅子・ベビーカー・ノンステップ)",
    "updateTime": "2026/07/21 08:33"
  },
  {
    "vehicleNum": "092762",
    "vehicleCd": "570",
    "vehicleCorpCd": "1",
    "running": true,
    "lat": 34.510194,
    "lon": 135.465778,
    "route": "堺東駅前→鳳駅前→光明池駅",
    "stop": "福泉中学校前",
    "passTime": "08:33",
    "vehicleType": "南海バス(車椅子・ベビーカー・ノンステップ)",
    "updateTime": "2026/07/21 08:33"
  },
  {
    "vehicleNum": "092795",
    "vehicleCd": "592",
    "vehicleCorpCd": "1",
    "running": true,
    "lat": 34.533472,
    "lon": 135.463278,
    "route": "堺東駅前→鳳駅前→光明池駅",
    "stop": "西区役所前",
    "passTime": "08:32",
    "vehicleType": "南海バス(車椅子・ベビーカー・ノンステップ)",
    "updateTime": "2026/07/21 08:33"
  },
  {
    "vehicleNum": "092829",
    "vehicleCd": "488",
    "vehicleCorpCd": "1",
    "running": true,
    "lat": 34.569889,
    "lon": 135.480889,
    "route": "光明池駅→山田→堺東駅前",
    "stop": "一条通",
    "passTime": "08:33",
    "vehicleType": "南海バス(車椅子・ベビーカー・ノンステップ)",
    "updateTime": "2026/07/21 08:33"
  },
  {
    "vehicleNum": "092830",
    "vehicleCd": "367",
    "vehicleCorpCd": "1",
    "running": true,
    "lat": 34.421889,
    "lon": 135.454,
    "route": "和泉中央駅→直行→テクノステージセンター前",
    "stop": "テクノステージ北",
    "passTime": "08:32",
    "vehicleType": "南海バス(車椅子・ベビーカー・ノンステップ)",
    "updateTime": "2026/07/21 08:33"
  },
  {
    "vehicleNum": "092831",
    "vehicleCd": "417",
    "vehicleCorpCd": "1",
    "running": true,
    "lat": 34.446694,
    "lon": 135.453583,
    "route": "和泉中央駅→のぞみ野南→美術館",
    "stop": "内田上",
    "passTime": "08:33",
    "vehicleType": "南海バス(車椅子・ベビーカー・ノンステップ)",
    "updateTime": "2026/07/21 08:33"
  },
  {
    "vehicleNum": "092856",
    "vehicleCd": "601",
    "vehicleCorpCd": "1",
    "running": true,
    "lat": 34.473278,
    "lon": 135.431278,
    "route": "泉大津駅前→和泉府中駅前→和泉中央駅",
    "stop": "寺門",
    "passTime": "08:33",
    "vehicleType": "南海バス(車椅子・ベビーカー・ノンステップ)",
    "updateTime": "2026/07/21 08:33"
  },
  {
    "vehicleNum": "092860",
    "vehicleCd": "379",
    "vehicleCorpCd": "1",
    "running": true,
    "lat": 34.446778,
    "lon": 135.554389,
    "route": "旭→天野山→長野",
    "stop": "上原口",
    "passTime": "08:33",
    "vehicleType": "南海バス(車椅子・ベビーカー・ノンステップ)",
    "updateTime": "2026/07/21 08:33"
  },
  {
    "vehicleNum": "092857",
    "vehicleCd": "516",
    "vehicleCorpCd": "1",
    "running": true,
    "lat": 34.569583,
    "lon": 135.480778,
    "route": "堺東駅前→鳳駅前→光明池駅",
    "stop": "一条通",
    "passTime": "08:34",
    "vehicleType": "南海バス(車椅子・ベビーカー・ノンステップ)",
    "updateTime": "2026/07/21 08:33"
  },
  {
    "vehicleNum": "092871",
    "vehicleCd": "33",
    "vehicleCorpCd": "1",
    "running": true,
    "lat": 34.491972,
    "lon": 135.480889,
    "route": "堺東駅前→鳳駅前→栂・美木多駅",
    "stop": "桃山台三丁",
    "passTime": "08:33",
    "vehicleType": "南海バス(車椅子・ベビーカー・ノンステップ)",
    "updateTime": "2026/07/21 08:33"
  },
  {
    "vehicleNum": "092873",
    "vehicleCd": "234",
    "vehicleCorpCd": "1",
    "running": true,
    "lat": 34.494972,
    "lon": 135.411583,
    "route": "泉大津→和泉府中駅前→桃山学院大学 ※登校日のみ運行（ご不明な点は担当営業所までお問い合わせください）",
    "stop": "泉大津駅前",
    "passTime": "08:29",
    "vehicleType": "南海バス(車椅子・ベビーカー・ノンステップ)",
    "updateTime": "2026/07/21 08:33"
  },
  {
    "vehicleNum": "092900",
    "vehicleCd": "604",
    "vehicleCorpCd": "1",
    "running": true,
    "lat": 34.478778,
    "lon": 135.443389,
    "route": "和泉青葉台→和泉中央駅→泉大津駅前",
    "stop": "阪本",
    "passTime": "08:32",
    "vehicleType": "南海バス(車椅子・ベビーカー・ノンステップ)",
    "updateTime": "2026/07/21 08:33"
  },
  {
    "vehicleNum": "092914",
    "vehicleCd": "75",
    "vehicleCorpCd": "1",
    "running": true,
    "lat": 34.460694,
    "lon": 135.454389,
    "route": "はつが野六丁目→和泉中央駅",
    "stop": "万町弘法寺前",
    "passTime": "08:30",
    "vehicleType": "南海バス(車椅子・ベビーカー・ノンステップ)",
    "updateTime": "2026/07/21 08:33"
  },
  {
    "vehicleNum": "092913",
    "vehicleCd": "154",
    "vehicleCorpCd": "1",
    "running": true,
    "lat": 34.491972,
    "lon": 135.472889,
    "route": "光明池駅→新檜尾台センター→光明池駅",
    "stop": "赤坂台五丁",
    "passTime": "08:33",
    "vehicleType": "南海バス(車椅子・ベビーカー・ノンステップ)",
    "updateTime": "2026/07/21 08:33"
  },
  {
    "vehicleNum": "092916",
    "vehicleCd": "235",
    "vehicleCorpCd": "1",
    "running": true,
    "lat": 34.4505,
    "lon": 135.473278,
    "route": "和泉青葉台→和泉中央駅→泉大津駅前",
    "stop": "納花町民会館前",
    "passTime": "08:33",
    "vehicleType": "南海バス(車椅子・ベビーカー・ノンステップ)",
    "updateTime": "2026/07/21 08:33"
  },
  {
    "vehicleNum": "092918",
    "vehicleCd": "114",
    "vehicleCorpCd": "1",
    "running": true,
    "lat": 34.552,
    "lon": 135.465083,
    "route": "栂・美木多駅→鳳駅前→堺東駅前",
    "stop": "神石橋",
    "passTime": "08:33",
    "vehicleType": "南海バス(車椅子・ベビーカー・ノンステップ)",
    "updateTime": "2026/07/21 08:33"
  },
  {
    "vehicleNum": "092937",
    "vehicleCd": "73",
    "vehicleCorpCd": "1",
    "running": true,
    "lat": 34.556194,
    "lon": 135.469583,
    "route": "堺東駅前→鳳駅前→栂・美木多駅",
    "stop": "緑ヶ丘",
    "passTime": "08:32",
    "vehicleType": "南海バス(車椅子・ベビーカー・ノンステップ)",
    "updateTime": "2026/07/21 08:33"
  },
  {
    "vehicleNum": "092952",
    "vehicleCd": "113",
    "vehicleCorpCd": "1",
    "running": true,
    "lat": 34.472194,
    "lon": 135.467778,
    "route": "光明池駅→山田→堺東駅前",
    "stop": "変電所前",
    "passTime": "08:32",
    "vehicleType": "南海バス(車椅子・ベビーカー・ノンステップ)",
    "updateTime": "2026/07/21 08:33"
  },
  {
    "vehicleNum": "092975",
    "vehicleCd": "115",
    "vehicleCorpCd": "1",
    "running": true,
    "lat": 34.469389,
    "lon": 135.458583,
    "route": "光明池駅→光明池車庫→泉大津駅前",
    "stop": "池田下",
    "passTime": "08:33",
    "vehicleType": "南海バス(車椅子・ベビーカー・ノンステップ)",
    "updateTime": "2026/07/21 08:34"
  },
  {
    "vehicleNum": "092976",
    "vehicleCd": "138",
    "vehicleCorpCd": "1",
    "running": true,
    "lat": 34.467278,
    "lon": 135.446778,
    "route": "和泉府中駅前→いぶき野→和泉中央駅",
    "stop": "弥生自治会館前",
    "passTime": "08:32",
    "vehicleType": "南海バス(車椅子・ベビーカー・ノンステップ)",
    "updateTime": "2026/07/21 08:34"
  },
  {
    "vehicleNum": "092977",
    "vehicleCd": "608",
    "vehicleCorpCd": "1",
    "running": true,
    "lat": 34.492583,
    "lon": 135.414389,
    "route": "泉大津駅前→和泉府中駅前→和泉中央駅",
    "stop": "池浦",
    "passTime": "08:30",
    "vehicleType": "南海バス(車椅子・ベビーカー・ノンステップ)",
    "updateTime": "2026/07/21 08:34"
  },
  {
    "vehicleNum": "093011",
    "vehicleCd": "27",
    "vehicleCorpCd": "1",
    "running": true,
    "lat": 34.442083,
    "lon": 135.252194,
    "route": "関空展望ホール→旅客ターミナル→関空展望ホール",
    "stop": "関空展望ホール",
    "passTime": "08:30",
    "vehicleType": "南海バス(車椅子・ベビーカー・ノンステップ)",
    "updateTime": "2026/07/21 08:34"
  },
  {
    "vehicleNum": "092978",
    "vehicleCd": "325",
    "vehicleCorpCd": "1",
    "running": true,
    "lat": 34.484278,
    "lon": 135.424694,
    "route": "和泉中央駅→寺田→泉大津駅前",
    "stop": "和泉市役所前",
    "passTime": "08:32",
    "vehicleType": "南海バス(車椅子・ベビーカー・ノンステップ)",
    "updateTime": "2026/07/21 08:34"
  },
  {
    "vehicleNum": "093035",
    "vehicleCd": "609",
    "vehicleCorpCd": "1",
    "running": true,
    "lat": 34.439389,
    "lon": 135.246389,
    "route": "エアロプラザ→第２ターミナル(国内線・国際線)→エアロプラザ",
    "stop": "第2ターミナル国際線",
    "passTime": "08:27",
    "vehicleType": "南海バス",
    "updateTime": "2026/07/21 08:34"
  },
  {
    "vehicleNum": "093046",
    "vehicleCd": "246",
    "vehicleCorpCd": "1",
    "running": true,
    "lat": 34.524194,
    "lon": 135.462278,
    "route": "国分峠東→栂・美木多駅→堺東駅前",
    "stop": "上",
    "passTime": "08:33",
    "vehicleType": "南海バス(車椅子・ベビーカー・ノンステップ)",
    "updateTime": "2026/07/21 08:34"
  },
  {
    "vehicleNum": "093071",
    "vehicleCd": "274",
    "vehicleCorpCd": "1",
    "running": true,
    "lat": 34.451083,
    "lon": 135.491889,
    "route": "みずき台２丁目西→光明池駅",
    "stop": "光明台三丁目",
    "passTime": "08:33",
    "vehicleType": "南海バス(車椅子・ベビーカー・ノンステップ)",
    "updateTime": "2026/07/21 08:34"
  },
  {
    "vehicleNum": "093074",
    "vehicleCd": "247",
    "vehicleCorpCd": "1",
    "running": true,
    "lat": 34.485972,
    "lon": 135.425194,
    "route": "泉大津駅前→和泉府中駅前→和泉中央駅→光明池駅",
    "stop": "和泉府中駅前",
    "passTime": "08:31",
    "vehicleType": "南海バス(車椅子・ベビーカー・ノンステップ)",
    "updateTime": "2026/07/21 08:34"
  },
  {
    "vehicleNum": "093114",
    "vehicleCd": "262",
    "vehicleCorpCd": "1",
    "running": true,
    "lat": 34.555694,
    "lon": 135.469083,
    "route": "光明池駅→山田→堺東駅前",
    "stop": "霞ヶ丘",
    "passTime": "08:32",
    "vehicleType": "南海バス(車椅子・ベビーカー・ノンステップ)",
    "updateTime": "2026/07/21 08:34"
  }
]