[
  {
    "vehicleNum": "070105",
    "vehicleCd": "403",
    "vehicleCorpCd": "1",
    "running": true,
    "lat": 34.498278,
    "lon": 135.548,
    "route": "金剛駅前→狭山ニュータウンセンター→泉ヶ丘駅",
    "stop": "亀の甲",
    "passTime": "08:43",
    "vehicleType": "泉北コミュニティバス(車椅子・ベビーカー・ノンステップ)",
    "updateTime": "2026/07/21 08:44"
  },
  {
    "vehicleNum": "070107",
    "vehicleCd": "405",
    "vehicleCorpCd": "1",
    "running": true,
    "lat": 34.492583,
    "lon": 135.543583,
    "route": "泉ヶ丘駅→狭山ニュータウンセンター→金剛駅前",
    "stop": "今熊",
    "passTime": "08:42",
    "vehicleType": "泉北コミュニティバス(車椅子・ベビーカー・ノンステップ)",
    "updateTime": "2026/07/21 08:44"
  },
  {
    "vehicleNum": "070108",
    "vehicleCd": "406",
    "vehicleCorpCd": "1",
    "running": true,
    "lat": 34.475083,
    "lon": 135.5465,
    "route": "泉ヶ丘駅→狭山ニュータウンセンター→金剛駅前",
    "stop": "大野口",
    "passTime": "08:43",
    "vehicleType": "泉北コミュニティバス(車椅子・ベビーカー・ノンステップ)",
    "updateTime": "2026/07/21 08:44"
  },
  {
    "vehicleNum": "070109",
    "vehicleCd": "407",
    "vehicleCorpCd": "1",
    "running": true,
    "lat": 34.499778,
    "lon": 135.513389,
    "route": "金剛駅前→泉ヶ丘駅→近大キャンパス前→金剛駅前",
    "stop": "泉ヶ丘駅（北側）",
    "passTime": "08:41",
    "vehicleType": "泉北コミュニティバス(車椅子・ベビーカー・ノンステップ)",
    "updateTime": "2026/07/21 08:44"
  },
  {
    "vehicleNum": "070189",
    "vehicleCd": "67",
    "vehicleCorpCd": "1",
    "running": true,
    "lat": 34.583583,
    "lon": 135.467889,
    "route": "堺駅西口→匠町",
    "stop": "堺駅西口",
    "passTime": "08:40",
    "vehicleType": "南海バス(車椅子・ベビーカー・ワンステップ)",
    "updateTime": "2026/07/21 08:44"
  },
  {
    "vehicleNum": "071601",
    "vehicleCd": "408",
    "vehicleCorpCd": "1",
    "running": true,
    "lat": 34.575778,
    "lon": 135.479083,
    "route": "堺駅前→大小路→堺東駅前",
    "stop": "熊野小学校前",
    "passTime": "08:44",
    "vehicleType": "堺シャトル(車椅子・ベビーカー・ノンステップ)",
    "updateTime": "2026/07/21 08:44"
  },
  {
    "vehicleNum": "071605",
    "vehicleCd": "412",
    "vehicleCorpCd": "1",
    "running": true,
    "lat": 34.574278,
    "lon": 135.483583,
    "route": "堺駅前→大小路→堺東駅前",
    "stop": "熊野小学校前",
    "passTime": "08:38",
    "vehicleType": "堺シャトル(車椅子・ベビーカー・ノンステップ)",
    "updateTime": "2026/07/21 08:44"
  },
  {
    "vehicleNum": "071606",
    "vehicleCd": "413",
    "vehicleCorpCd": "1",
    "running": true,
    "lat": 34.579778,
    "lon": 135.472694,
    "route": "堺東駅前→大小路→堺駅前",
    "stop": "市小学校前",
    "passTime": "08:43",
    "vehicleType": "堺シャトル(車椅子・ベビーカー・ノンステップ)",
    "updateTime": "2026/07/21 08:44"
  },
  {
    "vehicleNum": "071604",
    "vehicleCd": "217",
    "vehicleCorpCd": "1",
    "running": true,
    "lat": 34.574194,
    "lon": 135.484,
    "route": "堺東駅前→大小路→堺駅前",
    "stop": "堺東駅前",
    "passTime": "08:42",
    "vehicleType": "堺シャトル(車椅子・ベビーカー・ノンステップ)",
    "updateTime": "2026/07/21 08:44"
  },
  {
    "vehicleNum": "071607",
    "vehicleCd": "414",
    "vehicleCorpCd": "1",
    "running": true,
    "lat": 34.581694,
    "lon": 135.469583,
    "route": "堺駅前→大小路→堺東駅前",
    "stop": "堺駅前",
    "passTime": "08:44",
    "vehicleType": "堺シャトル(車椅子・ベビーカー・ノンステップ)",
    "updateTime": "2026/07/21 08:44"
  },
  {
    "vehicleNum": "080105",
    "vehicleCd": "127",
    "vehicleCorpCd": "2",
    "running": true,
    "lat": 34.442194,
    "lon": 135.388889,
    "route": "岸和田駅前→天神山・一の宮循環　右回り→岸和田駅前",
    "stop": "極楽寺東口",
    "passTime": "08:43",
    "vehicleType": "南海ウイングバス(車椅子・ベビーカー・ワンステップ)",
    "updateTime": "2026/07/21 08:44"
  },
  {
    "vehicleNum": "080088",
    "vehicleCd": "442",
    "vehicleCorpCd": "1",
    "running": true,
    "lat": 34.506194,
    "lon": 135.574389,
    "route": "金剛駅前→向陽・藤沢回り→金剛駅前",
    "stop": "藤沢台６丁目",
    "passTime": "08:43",
    "vehicleType": "南海バス(車椅子・ベビーカー・ワンステップ)",
    "updateTime": "2026/07/21 08:44"
  },
  {
    "vehicleNum": "080146",
    "vehicleCd": "6",
    "vehicleCorpCd": "2",
    "running": true,
    "lat": 34.404,
    "lon": 135.348972,
    "route": "熊取ニュータウン→熊取駅前",
    "stop": "北紺屋",
    "passTime": "08:43",
    "vehicleType": "南海ウイングバス(車椅子・ワンステップ)",
    "updateTime": "2026/07/21 08:44"
  },
  {
    "vehicleNum": "080159",
    "vehicleCd": "145",
    "vehicleCorpCd": "1",
    "running": true,
    "lat": 34.562389,
    "lon": 135.481194,
    "route": "あみだ池→深井駅→もず駅前→堺東駅前",
    "stop": "大仙公園西",
    "passTime": "08:44",
    "vehicleType": "南海バス(車椅子・ベビーカー・ワンステップ)",
    "updateTime": "2026/07/21 08:44"
  },
  {
    "vehicleNum": "080171",
    "vehicleCd": "40",
    "vehicleCorpCd": "2",
    "running": true,
    "lat": 34.404583,
    "lon": 135.347778,
    "route": "泉佐野駅前→上瓦屋町→熊取駅前→熊取ニュータウン",
    "stop": "北紺屋",
    "passTime": "08:43",
    "vehicleType": "南海ウイングバス(車椅子・ベビーカー・ワンステップ)",
    "updateTime": "2026/07/21 08:44"
  },
  {
    "vehicleNum": "080178",
    "vehicleCd": "56",
    "vehicleCorpCd": "2",
    "running": true,
    "lat": 34.430778,
    "lon": 135.429472,
    "route": "道の駅愛彩ランド→下松駅前→岸和田駅前",
    "stop": "職業能力開発大学",
    "passTime": "08:43",
    "vehicleType": "南海ウイングバス(車椅子・ベビーカー・ワンステップ)",
    "updateTime": "2026/07/21 08:44"
  },
  {
    "vehicleNum": "080187",
    "vehicleCd": "66",
    "vehicleCorpCd": "1",
    "running": true,
    "lat": 34.577389,
    "lon": 135.488889,
    "route": "堺東駅前→河内松原駅前",
    "stop": "方違神社前",
    "passTime": "08:44",
    "vehicleType": "南海バス(車椅子・ベビーカー・ノンステップ)",
    "updateTime": "2026/07/21 08:44"
  },
  {
    "vehicleNum": "080268",
    "vehicleCd": "114",
    "vehicleCorpCd": "2",
    "running": true,
    "lat": 34.394083,
    "lon": 135.346889,
    "route": "熊取→準急→大体",
    "stop": "中ノ池北",
    "passTime": "08:43",
    "vehicleType": "南海ウイングバス(車椅子・ベビーカー・ノンステップ)",
    "updateTime": "2026/07/21 08:44"
  },
  {
    "vehicleNum": "080316",
    "vehicleCd": "81",
    "vehicleCorpCd": "1",
    "running": true,
    "lat": 34.564972,
    "lon": 135.517583,
    "route": "地下鉄新金岡駅前→労災病院前→堺駅南口",
    "stop": "北区役所前",
    "passTime": "08:43",
    "vehicleType": "南海バス(車椅子・ベビーカー・ワンステップ)",
    "updateTime": "2026/07/21 08:44"
  },
  {
    "vehicleNum": "080315",
    "vehicleCd": "80",
    "vehicleCorpCd": "1",
    "running": true,
    "lat": 34.599778,
    "lon": 135.434778,
    "route": "【急行】瓦町公園前→海浜匠町",
    "stop": "瓦町公園前",
    "passTime": "08:25",
    "vehicleType": "南海バス(車椅子・ベビーカー・ワンステップ)",
    "updateTime": "2026/07/21 08:44"
  },
  {
    "vehicleNum": "080270",
    "vehicleCd": "86",
    "vehicleCorpCd": "2",
    "running": true,
    "lat": 34.3325,
    "lon": 135.220889,
    "route": "箱作駅前→桃の木台回り→箱作駅前",
    "stop": "箱作駅前",
    "passTime": "08:40",
    "vehicleType": "南海バス(車椅子・ワンステップ)",
    "updateTime": "2026/07/21 08:44"
  },
  {
    "vehicleNum": "080322",
    "vehicleCd": "116",
    "vehicleCorpCd": "2",
    "running": true,
    "lat": 34.350583,
    "lon": 135.372778,
    "route": "泉佐野駅前→野々地蔵北→日根野駅前→犬鳴山",
    "stop": "上大木",
    "passTime": "08:43",
    "vehicleType": "南海ウイングバス(車椅子・ワンステップ)",
    "updateTime": "2026/07/21 08:44"
  },
  {
    "vehicleNum": "080384",
    "vehicleCd": "444",
    "vehicleCorpCd": "1",
    "running": true,
    "lat": 34.6335,
    "lon": 135.418,
    "route": "堺東駅前→ＡＴＣ→堺東駅前",
    "stop": "堺駅前",
    "passTime": "08:11",
    "vehicleType": "南海バス(車椅子・ワンステップ)",
    "updateTime": "2026/07/21 08:44"
  },
  {
    "vehicleNum": "080381",
    "vehicleCd": "88",
    "vehicleCorpCd": "1",
    "running": true,
    "lat": 34.581,
    "lon": 135.463194,
    "route": "堺東駅前→ＡＴＣ／フェリー→堺東駅前",
    "stop": "堺駅前",
    "passTime": "08:38",
    "vehicleType": "南海バス(車椅子・ワンステップ)",
    "updateTime": "2026/07/21 08:44"
  },
  {
    "vehicleNum": "080594",
    "vehicleCd": "437",
    "vehicleCorpCd": "1",
    "running": true,
    "lat": 34.563389,
    "lon": 135.518889,
    "route": "美原区役所→野遠→地下鉄新金岡駅前",
    "stop": "金岡口",
    "passTime": "08:44",
    "vehicleType": "南海バス(車椅子・ベビーカー・ノンステップ)",
    "updateTime": "2026/07/21 08:44"
  },
  {
    "vehicleNum": "080627",
    "vehicleCd": "446",
    "vehicleCorpCd": "1",
    "running": true,
    "lat": 34.543889,
    "lon": 135.544389,
    "route": "美原区役所→初芝駅前→美原区役所",
    "stop": "大饗",
    "passTime": "08:43",
    "vehicleType": "南海バス(車椅子・ベビーカー・ノンステップ)",
    "updateTime": "2026/07/21 08:44"
  },
  {
    "vehicleNum": "080628",
    "vehicleCd": "445",
    "vehicleCorpCd": "1",
    "running": true,
    "lat": 34.540694,
    "lon": 135.558694,
    "route": "美原区役所→野遠→地下鉄新金岡駅前",
    "stop": "美原区役所前",
    "passTime": "08:40",
    "vehicleType": "南海バス(車椅子・ベビーカー・ノンステップ)",
    "updateTime": "2026/07/21 08:44"
  },
  {
    "vehicleNum": "080629",
    "vehicleCd": "447",
    "vehicleCorpCd": "1",
    "running": true,
    "lat": 34.552,
    "lon": 135.553,
    "route": "美原区役所→初芝駅前→美原区役所",
    "stop": "今井南",
    "passTime": "08:42",
    "vehicleType": "南海バス(車椅子・ベビーカー・ノンステップ)",
    "updateTime": "2026/07/21 08:44"
  },
  {
    "vehicleNum": "080640",
    "vehicleCd": "133",
    "vehicleCorpCd": "2",
    "running": true,
    "lat": 34.404389,
    "lon": 135.344778,
    "route": "熊取→準急→大体",
    "stop": "熊取駅前",
    "passTime": "08:43",
    "vehicleType": "南海ウイングバス(車椅子・ベビーカー・ノンステップ)",
    "updateTime": "2026/07/21 08:44"
  },
  {
    "vehicleNum": "080643",
    "vehicleCd": "94",
    "vehicleCorpCd": "1",
    "running": true,
    "lat": 34.529889,
    "lon": 135.462694,
    "route": "光明池駅→山田→堺東駅前",
    "stop": "長承寺",
    "passTime": "08:44",
    "vehicleType": "南海バス(車椅子・ベビーカー・ノンステップ)",
    "updateTime": "2026/07/21 08:44"
  },
  {
    "vehicleNum": "080651",
    "vehicleCd": "455",
    "vehicleCorpCd": "1",
    "running": true,
    "lat": 34.552278,
    "lon": 135.565889,
    "route": "北野田駅前→多治井北（循環）→北野田駅前",
    "stop": "西多治井",
    "passTime": "08:41",
    "vehicleType": "南海バス",
    "updateTime": "2026/07/21 08:44"
  },
  {
    "vehicleNum": "080671",
    "vehicleCd": "465",
    "vehicleCorpCd": "1",
    "running": true,
    "lat": 34.593694,
    "lon": 135.447083,
    "route": "阪和堺市駅前→堺駅西口→匠町",
    "stop": "塩浜町",
    "passTime": "08:41",
    "vehicleType": "南海バス(車椅子・ベビーカー・ノンステップ)",
    "updateTime": "2026/07/21 08:44"
  },
  {
    "vehicleNum": "080697",
    "vehicleCd": "461",
    "vehicleCorpCd": "1",
    "running": true,
    "lat": 34.585778,
    "lon": 135.489083,
    "route": "堺東駅前→錦綾町→河内天美駅前",
    "stop": "錦綾町",
    "passTime": "08:40",
    "vehicleType": "南海バス",
    "updateTime": "2026/07/21 08:44"
  },
  {
    "vehicleNum": "080698",
    "vehicleCd": "531",
    "vehicleCorpCd": "1",
    "running": true,
    "lat": 34.577083,
    "lon": 135.492389,
    "route": "阪和堺市駅前→堺東駅前→堺駅西口→匠町",
    "stop": "田出井町",
    "passTime": "08:44",
    "vehicleType": "南海バス",
    "updateTime": "2026/07/21 08:44"
  },
  {
    "vehicleNum": "080703",
    "vehicleCd": "219",
    "vehicleCorpCd": "1",
    "running": true,
    "lat": 34.548083,
    "lon": 135.4635,
    "route": "鳳駅前→堺東駅前",
    "stop": "下田",
    "passTime": "08:41",
    "vehicleType": "南海バス(車椅子・ベビーカー・ノンステップ)",
    "updateTime": "2026/07/21 08:44"
  },
  {
    "vehicleNum": "080705",
    "vehicleCd": "542",
    "vehicleCorpCd": "1",
    "running": true,
    "lat": 34.582889,
    "lon": 135.509278,
    "route": "北花田駅前→浅香→堺東駅前",
    "stop": "浅香山住宅前",
    "passTime": "08:43",
    "vehicleType": "南海バス(車椅子・ベビーカー・ノンステップ)",
    "updateTime": "2026/07/21 08:44"
  },
  {
    "vehicleNum": "080709",
    "vehicleCd": "5",
    "vehicleCorpCd": "2",
    "running": true,
    "lat": 34.412083,
    "lon": 135.435472,
    "route": "岸和田駅前→内畑→白原車庫",
    "stop": "西堂",
    "passTime": "08:44",
    "vehicleType": "南海ウイングバス(車椅子・ベビーカー・ノンステップ)",
    "updateTime": "2026/07/21 08:44"
  },
  {
    "vehicleNum": "080734",
    "vehicleCd": "415",
    "vehicleCorpCd": "1",
    "running": true,
    "lat": 34.559694,
    "lon": 135.5265,
    "route": "地下鉄新金岡駅前→野遠→北野田駅前",
    "stop": "大泉緑地前",
    "passTime": "08:43",
    "vehicleType": "南海バス",
    "updateTime": "2026/07/21 08:44"
  },
  {
    "vehicleNum": "080741",
    "vehicleCd": "549",
    "vehicleCorpCd": "1",
    "running": true,
    "lat": 34.536083,
    "lon": 135.520694,
    "route": "北野田駅前→西口園→堺駅南口",
    "stop": "関茶屋",
    "passTime": "08:44",
    "vehicleType": "南海バス(車椅子・ベビーカー・ノンステップ)",
    "updateTime": "2026/07/21 08:44"
  },
  {
    "vehicleNum": "080744",
    "vehicleCd": "550",
    "vehicleCorpCd": "1",
    "running": true,
    "lat": 34.468694,
    "lon": 135.499,
    "route": "栂・美木多駅→庭代台右回り→栂・美木多駅",
    "stop": "庭代台中学校前",
    "passTime": "08:43",
    "vehicleType": "南海バス(車椅子・ベビーカー・ノンステップ)",
    "updateTime": "2026/07/21 08:44"
  },
  {
    "vehicleNum": "080745",
    "vehicleCd": "57",
    "vehicleCorpCd": "1",
    "running": true,
    "lat": 34.494694,
    "lon": 135.57,
    "route": "金剛駅前→寺池台小学校前→金剛駅前",
    "stop": "寺池台一丁目",
    "passTime": "08:42",
    "vehicleType": "南海バス(車椅子・ベビーカー・ノンステップ)",
    "updateTime": "2026/07/21 08:44"
  },
  {
    "vehicleNum": "080746",
    "vehicleCd": "395",
    "vehicleCorpCd": "1",
    "running": true,
    "lat": 34.500889,
    "lon": 135.582194,
    "route": "金剛駅前→向陽・藤沢回り→金剛駅前",
    "stop": "中央センター前",
    "passTime": "08:43",
    "vehicleType": "南海バス(車椅子・ベビーカー・ノンステップ)",
    "updateTime": "2026/07/21 08:44"
  },
  {
    "vehicleNum": "080756",
    "vehicleCd": "315",
    "vehicleCorpCd": "1",
    "running": true,
    "lat": 34.485278,
    "lon": 135.530694,
    "route": "泉ヶ丘駅→帝塚山学院泉ヶ丘校前→金剛駅前",
    "stop": "槙塚台３丁",
    "passTime": "08:44",
    "vehicleType": "南海バス(車椅子・ベビーカー・ノンステップ)",
    "updateTime": "2026/07/21 08:44"
  },
  {
    "vehicleNum": "080757",
    "vehicleCd": "182",
    "vehicleCorpCd": "1",
    "running": true,
    "lat": 34.496,
    "lon": 135.564194,
    "route": "金剛駅前→高辺台三丁目→金剛駅前",
    "stop": "久野喜台二丁目",
    "passTime": "08:43",
    "vehicleType": "南海バス(車椅子・ベビーカー・ノンステップ)",
    "updateTime": "2026/07/21 08:44"
  },
  {
    "vehicleNum": "080753",
    "vehicleCd": "552",
    "vehicleCorpCd": "1",
    "running": true,
    "lat": 34.490194,
    "lon": 135.499194,
    "route": "畑→片蔵→泉ヶ丘駅",
    "stop": "栂",
    "passTime": "08:43",
    "vehicleType": "南海バス(車椅子・ベビーカー・ノンステップ)",
    "updateTime": "2026/07/21 08:44"
  },
  {
    "vehicleNum": "080760",
    "vehicleCd": "559",
    "vehicleCorpCd": "1",
    "running": true,
    "lat": 34.566694,
    "lon": 135.494583,
    "route": "阪和堺市駅前→労災病院前→堺駅南口",
    "stop": "三国ヶ丘駅前",
    "passTime": "08:42",
    "vehicleType": "南海バス(車椅子・ベビーカー・ノンステップ)",
    "updateTime": "2026/07/21 08:44"
  },
  {
    "vehicleNum": "080761",
    "vehicleCd": "560",
    "vehicleCorpCd": "1",
    "running": true,
    "lat": 34.575,
    "lon": 135.5475,
    "route": "河内松原駅前→阪和堺市駅前→堺駅前",
    "stop": "高見の里駅前",
    "passTime": "08:43",
    "vehicleType": "南海バス(車椅子・ベビーカー・ノンステップ)",
    "updateTime": "2026/07/21 08:44"
  },
  {
    "vehicleNum": "080763",
    "vehicleCd": "562",
    "vehicleCorpCd": "1",
    "running": true,
    "lat": 34.524,
    "lon": 135.487889,
    "route": "堺東駅前→上野芝駅前→東山車庫前",
    "stop": "八田荘",
    "passTime": "08:44",
    "vehicleType": "南海バス(車椅子・ベビーカー・ノンステップ)",
    "updateTime": "2026/07/21 08:44"
  },
  {
    "vehicleNum": "080764",
    "vehicleCd": "563",
    "vehicleCorpCd": "1",
    "running": true,
    "lat": 34.528194,
    "lon": 135.470694,
    "route": "津久野駅前→鈴の宮団地センター→深井駅",
    "stop": "毛穴南",
    "passTime": "08:42",
    "vehicleType": "南海バス(車椅子・ベビーカー・ノンステップ)",
    "updateTime": "2026/07/21 08:44"
  },
  {
    "vehicleNum": "080762",
    "vehicleCd": "561",
    "vehicleCorpCd": "1",
    "running": true,
    "lat": 34.575278,
    "lon": 135.522278,
    "route": "堺駅前→堺東駅前→河内松原駅前",
    "stop": "南花田町",
    "passTime": "08:44",
    "vehicleType": "南海バス(車椅子・ベビーカー・ノンステップ)",
    "updateTime": "2026/07/21 08:44"
  },
  {
    "vehicleNum": "080765",
    "vehicleCd": "564",
    "vehicleCorpCd": "1",
    "running": true,
    "lat": 34.552778,
    "lon": 135.503278,
    "route": "堺駅南口→福町→北野田駅前",
    "stop": "中もず駅前通",
    "passTime": "08:44",
    "vehicleType": "南海バス(車椅子・ベビーカー・ノンステップ)",
    "updateTime": "2026/07/21 08:44"
  },
  {
    "vehicleNum": "080766",
    "vehicleCd": "565",
    "vehicleCorpCd": "1",
    "running": true,
    "lat": 34.535083,
    "lon": 135.487583,
    "route": "泉ヶ丘駅→宮山台中学校前→堺東駅前",
    "stop": "中深井北",
    "passTime": "08:44",
    "vehicleType": "南海バス(車椅子・ベビーカー・ノンステップ)",
    "updateTime": "2026/07/21 08:44"
  },
  {
    "vehicleNum": "080787",
    "vehicleCd": "301",
    "vehicleCorpCd": "1",
    "running": true,
    "lat": 34.565583,
    "lon": 135.494,
    "route": "堺東駅前→労災病院前→白鷺駅前（循環）",
    "stop": "三国ヶ丘駅前",
    "passTime": "08:43",
    "vehicleType": "南海バス(車椅子・ベビーカー・ノンステップ)",
    "updateTime": "2026/07/21 08:44"
  },
  {
    "vehicleNum": "080788",
    "vehicleCd": "299",
    "vehicleCorpCd": "1",
    "running": true,
    "lat": 34.5655,
    "lon": 135.512278,
    "route": "堺東駅前→労災病院前→白鷺駅前（循環）",
    "stop": "北堺警察署前",
    "passTime": "08:44",
    "vehicleType": "南海バス(車椅子・ベビーカー・ノンステップ)",
    "updateTime": "2026/07/21 08:44"
  },
  {
    "vehicleNum": "080789",
    "vehicleCd": "300",
    "vehicleCorpCd": "1",
    "running": true,
    "lat": 34.585583,
    "lon": 135.469694,
    "route": "堺駅西口→南島町→堺東駅前",
    "stop": "戎島",
    "passTime": "08:42",
    "vehicleType": "南海バス(車椅子・ベビーカー・ノンステップ)",
    "updateTime": "2026/07/21 08:44"
  },
  {
    "vehicleNum": "080793",
    "vehicleCd": "112",
    "vehicleCorpCd": "1",
    "running": true,
    "lat": 34.567778,
    "lon": 135.492583,
    "route": "堺駅南口→労災病院前→地下鉄新金岡駅前",
    "stop": "細池橋",
    "passTime": "08:44",
    "vehicleType": "南海バス(車椅子・ベビーカー・ノンステップ)",
    "updateTime": "2026/07/21 08:44"
  },
  {
    "vehicleNum": "080791",
    "vehicleCd": "61",
    "vehicleCorpCd": "1",
    "running": true,
    "lat": 34.5855,
    "lon": 135.484083,
    "route": "【急行】瓦町公園前→海浜匠町",
    "stop": "瓦町公園前",
    "passTime": "08:40",
    "vehicleType": "南海バス(車椅子・ベビーカー・ノンステップ)",
    "updateTime": "2026/07/21 08:44"
  },
  {
    "vehicleNum": "080794",
    "vehicleCd": "344",
    "vehicleCorpCd": "1",
    "running": true,
    "lat": 34.570778,
    "lon": 135.480278,
    "route": "河内松原駅前→阪和堺市駅前→堺駅前",
    "stop": "一条通",
    "passTime": "08:44",
    "vehicleType": "南海バス(車椅子・ベビーカー・ノンステップ)",
    "updateTime": "2026/07/21 08:44"
  },
  {
    "vehicleNum": "080795",
    "vehicleCd": "43",
    "vehicleCorpCd": "1",
    "running": true,
    "lat": 34.574583,
    "lon": 135.499583,
    "route": "河内松原駅前→阪和堺市駅前→堺東駅前",
    "stop": "阪和堺市駅筋",
    "passTime": "08:43",
    "vehicleType": "南海バス(車椅子・ベビーカー・ノンステップ)",
    "updateTime": "2026/07/21 08:44"
  },
  {
    "vehicleNum": "080798",
    "vehicleCd": "107",
    "vehicleCorpCd": "1",
    "running": true,
    "lat": 34.577389,
    "lon": 135.497972,
    "route": "【急行】阪和堺市駅前→海浜匠町",
    "stop": "阪和堺市駅前",
    "passTime": "08:44",
    "vehicleType": "南海バス(車椅子・ベビーカー・ノンステップ)",
    "updateTime": "2026/07/21 08:44"
  },
  {
    "vehicleNum": "080800",
    "vehicleCd": "304",
    "vehicleCorpCd": "1",
    "running": true,
    "lat": 34.608889,
    "lon": 135.476778,
    "route": "匠町→住之江公園駅前→匠町",
    "stop": "松屋大和川通３丁",
    "passTime": "08:33",
    "vehicleType": "南海バス(車椅子・ベビーカー・ノンステップ)",
    "updateTime": "2026/07/21 08:44"
  },
  {
    "vehicleNum": "080807",
    "vehicleCd": "223",
    "vehicleCorpCd": "1",
    "running": true,
    "lat": 34.5495,
    "lon": 135.464083,
    "route": "堺東駅前→塩穴通→鳳駅前",
    "stop": "神石市之町",
    "passTime": "08:44",
    "vehicleType": "南海バス(車椅子・ベビーカー・ノンステップ)",
    "updateTime": "2026/07/21 08:44"
  },
  {
    "vehicleNum": "080809",
    "vehicleCd": "215",
    "vehicleCorpCd": "1",
    "running": true,
    "lat": 34.579,
    "lon": 135.466778,
    "route": "堺駅前→堺駅南口",
    "stop": "堺駅南口",
    "passTime": "08:44",
    "vehicleType": "南海バス(車椅子・ベビーカー・ノンステップ)",
    "updateTime": "2026/07/21 08:44"
  },
  {
    "vehicleNum": "080813",
    "vehicleCd": "269",
    "vehicleCorpCd": "1",
    "running": true,
    "lat": 34.565278,
    "lon": 135.514778,
    "route": "堺駅南口→労災病院前→阪和堺市駅前",
    "stop": "しもつ池",
    "passTime": "08:43",
    "vehicleType": "南海バス(車椅子・ベビーカー・ノンステップ)",
    "updateTime": "2026/07/21 08:44"
  },
  {
    "vehicleNum": "080814",
    "vehicleCd": "193",
    "vehicleCorpCd": "1",
    "running": true,
    "lat": 34.493889,
    "lon": 135.531278,
    "route": "金剛駅前→帝塚山学院泉ヶ丘校前→泉ヶ丘駅前",
    "stop": "晴美台センター",
    "passTime": "08:43",
    "vehicleType": "南海バス(車椅子・ベビーカー・ノンステップ)",
    "updateTime": "2026/07/21 08:44"
  },
  {
    "vehicleNum": "080815",
    "vehicleCd": "575",
    "vehicleCorpCd": "1",
    "running": true,
    "lat": 34.485278,
    "lon": 135.524694,
    "route": "金剛駅前→狭山ニュータウンセンター→泉ヶ丘駅",
    "stop": "槙塚台１丁",
    "passTime": "08:44",
    "vehicleType": "南海バス(車椅子・ベビーカー・ノンステップ)",
    "updateTime": "2026/07/21 08:44"
  },
  {
    "vehicleNum": "080822",
    "vehicleCd": "576",
    "vehicleCorpCd": "1",
    "running": true,
    "lat": 34.551083,
    "lon": 135.476472,
    "route": "東山車庫前→小阪→堺東駅前",
    "stop": "上野芝駅前",
    "passTime": "08:37",
    "vehicleType": "南海バス(車椅子・ベビーカー・ノンステップ)",
    "updateTime": "2026/07/21 08:44"
  },
  {
    "vehicleNum": "080825",
    "vehicleCd": "261",
    "vehicleCorpCd": "1",
    "running": true,
    "lat": 34.523694,
    "lon": 135.540194,
    "route": "北野田駅前→福町→深井駅",
    "stop": "北野田駅前",
    "passTime": "08:42",
    "vehicleType": "南海バス(車椅子・ベビーカー・ノンステップ)",
    "updateTime": "2026/07/21 08:44"
  },
  {
    "vehicleNum": "080835",
    "vehicleCd": "310",
    "vehicleCorpCd": "1",
    "running": true,
    "lat": 34.4955,
    "lon": 135.560389,
    "route": "金剛駅前→向陽・藤沢回り→金剛駅前",
    "stop": "金剛駅前（東側）",
    "passTime": "08:44",
    "vehicleType": "南海バス(車椅子・ベビーカー・ノンステップ)",
    "updateTime": "2026/07/21 08:44"
  },
  {
    "vehicleNum": "080844",
    "vehicleCd": "581",
    "vehicleCorpCd": "1",
    "running": true,
    "lat": 34.4765,
    "lon": 135.548,
    "route": "金剛駅前→狭山ニュータウンセンター→泉ヶ丘駅",
    "stop": "大野台４丁目東",
    "passTime": "08:44",
    "vehicleType": "南海バス(車椅子・ベビーカー・ノンステップ)",
    "updateTime": "2026/07/21 08:44"
  },
  {
    "vehicleNum": "080845",
    "vehicleCd": "319",
    "vehicleCorpCd": "1",
    "running": true,
    "lat": 34.537972,
    "lon": 135.452694,
    "route": "石津川駅前→浜寺公園駅前通→鳳駅前→堺市立総合医療センター前",
    "stop": "浜寺元町",
    "passTime": "08:43",
    "vehicleType": "南海バス(車椅子・ベビーカー・ノンステップ)",
    "updateTime": "2026/07/21 08:44"
  },
  {
    "vehicleNum": "080851",
    "vehicleCd": "439",
    "vehicleCorpCd": "1",
    "running": true,
    "lat": 34.500278,
    "lon": 135.542778,
    "route": "金剛駅前→泉ヶ丘駅→近大キャンパス前→金剛駅前",
    "stop": "近大おおさかメディカルキャンパス前",
    "passTime": "08:35",
    "vehicleType": "南海バス(車椅子・ベビーカー・ノンステップ)",
    "updateTime": "2026/07/21 08:44"
  },
  {
    "vehicleNum": "080855",
    "vehicleCd": "16",
    "vehicleCorpCd": "1",
    "running": true,
    "lat": 34.498389,
    "lon": 135.547,
    "route": "泉ヶ丘駅→狭山ニュータウンセンター→金剛駅前",
    "stop": "狭山西小学校前",
    "passTime": "08:41",
    "vehicleType": "南海バス(車椅子・ベビーカー・ノンステップ)",
    "updateTime": "2026/07/21 08:44"
  },
  {
    "vehicleNum": "080854",
    "vehicleCd": "17",
    "vehicleCorpCd": "1",
    "running": true,
    "lat": 34.575389,
    "lon": 135.471194,
    "route": "堺駅南口→堺駅前",
    "stop": "宿院",
    "passTime": "08:44",
    "vehicleType": "南海バス(車椅子・ベビーカー・ノンステップ)",
    "updateTime": "2026/07/21 08:44"
  },
  {
    "vehicleNum": "080857",
    "vehicleCd": "226",
    "vehicleCorpCd": "1",
    "running": true,
    "lat": 34.590889,
    "lon": 135.476083,
    "route": "堺東駅前→堺駅西口→海山通四丁→堺東駅前",
    "stop": "海山通",
    "passTime": "08:44",
    "vehicleType": "南海バス(車椅子・ベビーカー・ノンステップ)",
    "updateTime": "2026/07/21 08:44"
  },
  {
    "vehicleNum": "080866",
    "vehicleCd": "497",
    "vehicleCorpCd": "1",
    "running": true,
    "lat": 34.498083,
    "lon": 135.575583,
    "route": "金剛駅前→高辺台三丁目→金剛駅前",
    "stop": "津々山台１丁目南",
    "passTime": "08:44",
    "vehicleType": "南海バス(車椅子・ベビーカー・ノンステップ)",
    "updateTime": "2026/07/21 08:44"
  },
  {
    "vehicleNum": "080868",
    "vehicleCd": "237",
    "vehicleCorpCd": "1",
    "running": true,
    "lat": 34.4665,
    "lon": 135.508583,
    "route": "泉ヶ丘駅→鉢ヶ峯→泉ヶ丘駅",
    "stop": "明正",
    "passTime": "08:44",
    "vehicleType": "南海バス(車椅子・ベビーカー・ノンステップ)",
    "updateTime": "2026/07/21 08:44"
  },
  {
    "vehicleNum": "080876",
    "vehicleCd": "390",
    "vehicleCorpCd": "1",
    "running": true,
    "lat": 34.537694,
    "lon": 135.561083,
    "route": "美原区役所前→初芝駅前",
    "stop": "美原区役所前",
    "passTime": "08:42",
    "vehicleType": "南海バス(車椅子・ベビーカー・ノンステップ)",
    "updateTime": "2026/07/21 08:44"
  },
  {
    "vehicleNum": "080877",
    "vehicleCd": "588",
    "vehicleCorpCd": "1",
    "running": true,
    "lat": 34.536389,
    "lon": 135.519278,
    "route": "堺駅南口→三国ヶ丘駅前→北野田駅前",
    "stop": "大野芝",
    "passTime": "08:42",
    "vehicleType": "南海バス(車椅子・ベビーカー・ノンステップ)",
    "updateTime": "2026/07/21 08:44"
  },
  {
    "vehicleNum": "080878",
    "vehicleCd": "368",
    "vehicleCorpCd": "1",
    "running": true,
    "lat": 34.572694,
    "lon": 135.476694,
    "route": "北野田駅前→福町→堺駅南口",
    "stop": "安井町",
    "passTime": "08:43",
    "vehicleType": "南海バス(車椅子・ベビーカー・ノンステップ)",
    "updateTime": "2026/07/21 08:44"
  },
  {
    "vehicleNum": "080879",
    "vehicleCd": "359",
    "vehicleCorpCd": "1",
    "running": true,
    "lat": 34.526278,
    "lon": 135.477889,
    "route": "深井駅→鈴の宮団地→堺市立総合医療センター前→津久野駅前",
    "stop": "鈴の宮団地センター",
    "passTime": "08:44",
    "vehicleType": "南海バス(車椅子・ベビーカー・ノンステップ)",
    "updateTime": "2026/07/21 08:44"
  },
  {
    "vehicleNum": "080882",
    "vehicleCd": "343",
    "vehicleCorpCd": "1",
    "running": true,
    "lat": 34.519778,
    "lon": 135.4775,
    "route": "泉ヶ丘駅→泉北２号線→津久野駅前",
    "stop": "八田西町",
    "passTime": "08:43",
    "vehicleType": "南海バス(車椅子・ベビーカー・ノンステップ)",
    "updateTime": "2026/07/21 08:45"
  },
  {
    "vehicleNum": "080894",
    "vehicleCd": "350",
    "vehicleCorpCd": "1",
    "running": true,
    "lat": 34.558694,
    "lon": 135.532,
    "route": "地下鉄新金岡駅前→野遠→美原区役所",
    "stop": "大泉緑地前",
    "passTime": "08:43",
    "vehicleType": "南海バス(車椅子・ベビーカー・ノンステップ)",
    "updateTime": "2026/07/21 08:45"
  },
  {
    "vehicleNum": "080898",
    "vehicleCd": "501",
    "vehicleCorpCd": "1",
    "running": true,
    "lat": 34.599583,
    "lon": 135.435278,
    "route": "【急行】堺駅西口→海浜匠町",
    "stop": "堺駅西口",
    "passTime": "08:30",
    "vehicleType": "南海バス(車椅子・ベビーカー・ワンステップ)",
    "updateTime": "2026/07/21 08:45"
  },
  {
    "vehicleNum": "080901",
    "vehicleCd": "347",
    "vehicleCorpCd": "1",
    "running": true,
    "lat": 34.599278,
    "lon": 135.4285,
    "route": "【急行】阪和堺市駅前→海浜匠町",
    "stop": "阪和堺市駅前",
    "passTime": "08:18",
    "vehicleType": "南海バス(車椅子・ベビーカー・ワンステップ)",
    "updateTime": "2026/07/21 08:45"
  },
  {
    "vehicleNum": "080903",
    "vehicleCd": "354",
    "vehicleCorpCd": "1",
    "running": true,
    "lat": 34.599194,
    "lon": 135.428583,
    "route": "【急行】堺駅西口→海浜匠町",
    "stop": "堺駅西口",
    "passTime": "08:27",
    "vehicleType": "南海バス(車椅子・ベビーカー・ワンステップ)",
    "updateTime": "2026/07/21 08:45"
  },
  {
    "vehicleNum": "080904",
    "vehicleCd": "362",
    "vehicleCorpCd": "1",
    "running": true,
    "lat": 34.542889,
    "lon": 135.527083,
    "route": "初芝駅前→平尾→初芝駅前",
    "stop": "日置荘小学校前",
    "passTime": "08:41",
    "vehicleType": "南海バス(車椅子・ベビーカー・ノンステップ)",
    "updateTime": "2026/07/21 08:45"
  },
  {
    "vehicleNum": "080911",
    "vehicleCd": "240",
    "vehicleCorpCd": "1",
    "running": true,
    "lat": 34.560778,
    "lon": 135.469694,
    "route": "堺駅南口→堺駅前",
    "stop": "協和町",
    "passTime": "08:44",
    "vehicleType": "南海バス(車椅子・ベビーカー・ノンステップ)",
    "updateTime": "2026/07/21 08:45"
  },
  {
    "vehicleNum": "080907",
    "vehicleCd": "499",
    "vehicleCorpCd": "1",
    "running": true,
    "lat": 34.503972,
    "lon": 135.505083,
    "route": "泉ヶ丘駅→八田荘団地→堺市立総合医療センター前→津久野駅前",
    "stop": "古畑",
    "passTime": "08:44",
    "vehicleType": "南海バス(車椅子・ベビーカー・ノンステップ)",
    "updateTime": "2026/07/21 08:45"
  },
  {
    "vehicleNum": "080913",
    "vehicleCd": "128",
    "vehicleCorpCd": "1",
    "running": true,
    "lat": 34.579583,
    "lon": 135.485389,
    "route": "河内天美駅前→天美我堂→堺東駅前",
    "stop": "中向陽町",
    "passTime": "08:44",
    "vehicleType": "南海バス(車椅子・ベビーカー・ノンステップ)",
    "updateTime": "2026/07/21 08:45"
  },
  {
    "vehicleNum": "080918",
    "vehicleCd": "419",
    "vehicleCorpCd": "1",
    "running": true,
    "lat": 34.596278,
    "lon": 135.440389,
    "route": "海浜匠町→匠町→堺駅西口→堺東駅前→阪和堺市駅前",
    "stop": "匠町",
    "passTime": "08:44",
    "vehicleType": "南海バス(車椅子・ベビーカー・ノンステップ)",
    "updateTime": "2026/07/21 08:45"
  },
  {
    "vehicleNum": "080934",
    "vehicleCd": "594",
    "vehicleCorpCd": "1",
    "running": true,
    "lat": 34.595583,
    "lon": 135.458278,
    "route": "堺東駅前→材木町→堺駅西口",
    "stop": "八幡町",
    "passTime": "08:44",
    "vehicleType": "南海バス(車椅子・ベビーカー・ノンステップ)",
    "updateTime": "2026/07/21 08:45"
  },
  {
    "vehicleNum": "080935",
    "vehicleCd": "593",
    "vehicleCorpCd": "1",
    "running": true,
    "lat": 34.574694,
    "lon": 135.480694,
    "route": "堺駅前→堺駅南口",
    "stop": "堺東駅前",
    "passTime": "08:43",
    "vehicleType": "南海バス(車椅子・ベビーカー・ノンステップ)",
    "updateTime": "2026/07/21 08:45"
  },
  {
    "vehicleNum": "080936",
    "vehicleCd": "22",
    "vehicleCorpCd": "1",
    "running": true,
    "lat": 34.470694,
    "lon": 135.493889,
    "route": "栂・美木多駅→御池台回り→栂・美木多駅",
    "stop": "庭代台１丁",
    "passTime": "08:45",
    "vehicleType": "南海バス(車椅子・ベビーカー・ノンステップ)",
    "updateTime": "2026/07/21 08:45"
  },
  {
    "vehicleNum": "080937",
    "vehicleCd": "595",
    "vehicleCorpCd": "1",
    "running": true,
    "lat": 34.557083,
    "lon": 135.495194,
    "route": "北野田駅前→西口園→堺駅南口",
    "stop": "中もず町",
    "passTime": "08:43",
    "vehicleType": "南海バス(車椅子・ベビーカー・ノンステップ)",
    "updateTime": "2026/07/21 08:45"
  },
  {
    "vehicleNum": "080948",
    "vehicleCd": "276",
    "vehicleCorpCd": "1",
    "running": true,
    "lat": 34.595194,
    "lon": 135.442194,
    "route": "堺東駅前→綾の町電停前→匠町",
    "stop": "塩浜町",
    "passTime": "08:39",
    "vehicleType": "南海バス(車椅子・ベビーカー・ノンステップ)",
    "updateTime": "2026/07/21 08:45"
  },
  {
    "vehicleNum": "080956",
    "vehicleCd": "71",
    "vehicleCorpCd": "1",
    "running": true,
    "lat": 34.614694,
    "lon": 135.437083,
    "route": "堺東駅前→ＡＴＣ→堺東駅前",
    "stop": "ポートタウン東",
    "passTime": "08:39",
    "vehicleType": "南海バス",
    "updateTime": "2026/07/21 08:45"
  },
  {
    "vehicleNum": "080957",
    "vehicleCd": "34",
    "vehicleCorpCd": "1",
    "running": true,
    "lat": 34.5775,
    "lon": 135.484694,
    "route": "堺東駅前→ＡＴＣ→堺東駅前",
    "stop": "堺駅前",
    "passTime": "08:37",
    "vehicleType": "南海バス",
    "updateTime": "2026/07/21 08:45"
  },
  {
    "vehicleNum": "080967",
    "vehicleCd": "605",
    "vehicleCorpCd": "1",
    "running": true,
    "lat": 34.536778,
    "lon": 135.547,
    "route": "初芝駅前→平尾→初芝駅前",
    "stop": "北余部",
    "passTime": "08:45",
    "vehicleType": "南海バス(車椅子・ベビーカー・ノンステップ)",
    "updateTime": "2026/07/21 08:45"
  },
  {
    "vehicleNum": "080951",
    "vehicleCd": "597",
    "vehicleCorpCd": "1",
    "running": true,
    "lat": 34.504694,
    "lon": 135.496694,
    "route": "津久野駅前→堺市立総合医療センター前→泉北２号線→泉ヶ丘駅",
    "stop": "宮山台小学校前",
    "passTime": "08:44",
    "vehicleType": "南海バス(車椅子・ベビーカー・ノンステップ)",
    "updateTime": "2026/07/21 08:45"
  },
  {
    "vehicleNum": "080968",
    "vehicleCd": "424",
    "vehicleCorpCd": "1",
    "running": true,
    "lat": 34.551889,
    "lon": 135.504194,
    "route": "北野田駅前→福町→堺駅南口",
    "stop": "府立大学前",
    "passTime": "08:40",
    "vehicleType": "南海バス(車椅子・ベビーカー・ノンステップ)",
    "updateTime": "2026/07/21 08:45"
  },
  {
    "vehicleNum": "080977",
    "vehicleCd": "388",
    "vehicleCorpCd": "1",
    "running": true,
    "lat": 34.521278,
    "lon": 135.520778,
    "route": "深井駅→東山車庫前→北野田駅前",
    "stop": "金山",
    "passTime": "08:44",
    "vehicleType": "南海バス(車椅子・ベビーカー・ノンステップ)",
    "updateTime": "2026/07/21 08:45"
  },
  {
    "vehicleNum": "080989",
    "vehicleCd": "259",
    "vehicleCorpCd": "1",
    "running": true,
    "lat": 34.555694,
    "lon": 135.469194,
    "route": "堺東駅前→堀上緑町１丁→堺東駅前",
    "stop": "緑ヶ丘",
    "passTime": "08:43",
    "vehicleType": "南海バス(車椅子・ベビーカー・ノンステップ)",
    "updateTime": "2026/07/21 08:45"
  },
  {
    "vehicleNum": "080995",
    "vehicleCd": "118",
    "vehicleCorpCd": "1",
    "running": true,
    "lat": 34.494083,
    "lon": 135.529583,
    "route": "泉ヶ丘駅→スマ・エコタウン晴美台→高倉台右回り→泉ヶ丘駅",
    "stop": "晴美台１丁",
    "passTime": "08:44",
    "vehicleType": "南海バス(車椅子・ベビーカー・ノンステップ)",
    "updateTime": "2026/07/21 08:45"
  },
  {
    "vehicleNum": "080996",
    "vehicleCd": "191",
    "vehicleCorpCd": "1",
    "running": true,
    "lat": 34.536278,
    "lon": 135.560472,
    "route": "初芝駅前→平尾→初芝駅前",
    "stop": "船戸下",
    "passTime": "08:44",
    "vehicleType": "南海バス(車椅子・ベビーカー・ノンステップ)",
    "updateTime": "2026/07/21 08:45"
  },
  {
    "vehicleNum": "080999",
    "vehicleCd": "493",
    "vehicleCorpCd": "1",
    "running": true,
    "lat": 34.5225,
    "lon": 135.533778,
    "route": "堺駅南口→福町→北野田駅前",
    "stop": "伊勢道",
    "passTime": "08:44",
    "vehicleType": "南海バス(車椅子・ベビーカー・ノンステップ)",
    "updateTime": "2026/07/21 08:45"
  },
  {
    "vehicleNum": "081001",
    "vehicleCd": "238",
    "vehicleCorpCd": "1",
    "running": true,
    "lat": 34.521889,
    "lon": 135.506778,
    "route": "北野田駅前→福町→深井駅",
    "stop": "東山",
    "passTime": "08:44",
    "vehicleType": "南海バス(車椅子・ベビーカー・ノンステップ)",
    "updateTime": "2026/07/21 08:45"
  },
  {
    "vehicleNum": "081005",
    "vehicleCd": "272",
    "vehicleCorpCd": "1",
    "running": true,
    "lat": 34.540194,
    "lon": 135.471694,
    "route": "堺東駅前→堀上緑町１丁→堺東駅前",
    "stop": "津久野駅前",
    "passTime": "08:42",
    "vehicleType": "南海バス(車椅子・ベビーカー・ノンステップ)",
    "updateTime": "2026/07/21 08:45"
  },
  {
    "vehicleNum": "081008",
    "vehicleCd": "47",
    "vehicleCorpCd": "1",
    "running": true,
    "lat": 34.570083,
    "lon": 135.482278,
    "route": "堺駅南口→三国ヶ丘駅前→北野田駅前",
    "stop": "一条通",
    "passTime": "08:44",
    "vehicleType": "南海バス(車椅子・ベビーカー・ノンステップ)",
    "updateTime": "2026/07/21 08:45"
  },
  {
    "vehicleNum": "081013",
    "vehicleCd": "554",
    "vehicleCorpCd": "1",
    "running": true,
    "lat": 34.5145,
    "lon": 135.511083,
    "route": "あみだ池→田園→深井駅",
    "stop": "田園北口",
    "passTime": "08:44",
    "vehicleType": "南海バス(車椅子・ベビーカー・ノンステップ)",
    "updateTime": "2026/07/21 08:45"
  },
  {
    "vehicleNum": "081016",
    "vehicleCd": "239",
    "vehicleCorpCd": "1",
    "running": true,
    "lat": 34.486583,
    "lon": 135.520083,
    "route": "泉ヶ丘駅→ハーベストの丘",
    "stop": "泉ヶ丘駅（南側）",
    "passTime": "08:39",
    "vehicleType": "南海バス(車椅子・ベビーカー・ノンステップ)",
    "updateTime": "2026/07/21 08:45"
  },
  {
    "vehicleNum": "081018",
    "vehicleCd": "263",
    "vehicleCorpCd": "1",
    "running": true,
    "lat": 34.522,
    "lon": 135.506778,
    "route": "深井駅→田園→あみだ池",
    "stop": "東山",
    "passTime": "08:44",
    "vehicleType": "南海バス(車椅子・ベビーカー・ノンステップ)",
    "updateTime": "2026/07/21 08:45"
  },
  {
    "vehicleNum": "081019",
    "vehicleCd": "267",
    "vehicleCorpCd": "1",
    "running": true,
    "lat": 34.570083,
    "lon": 135.481083,
    "route": "泉ヶ丘駅→宮山台中学校前→堺東駅前",
    "stop": "一条通",
    "passTime": "08:43",
    "vehicleType": "南海バス(車椅子・ベビーカー・ノンステップ)",
    "updateTime": "2026/07/21 08:45"
  },
  {
    "vehicleNum": "081021",
    "vehicleCd": "243",
    "vehicleCorpCd": "1",
    "running": true,
    "lat": 34.519694,
    "lon": 135.489694,
    "route": "伏尾→北条→中もず駅前",
    "stop": "天の橋",
    "passTime": "08:41",
    "vehicleType": "南海バス(車椅子・ベビーカー・ノンステップ)",
    "updateTime": "2026/07/21 08:45"
  },
  {
    "vehicleNum": "081020",
    "vehicleCd": "163",
    "vehicleCorpCd": "1",
    "running": true,
    "lat": 34.551778,
    "lon": 135.482083,
    "route": "堺東駅前→上野芝→泉ヶ丘駅",
    "stop": "上野芝",
    "passTime": "08:44",
    "vehicleType": "南海バス(車椅子・ベビーカー・ノンステップ)",
    "updateTime": "2026/07/21 08:45"
  },
  {
    "vehicleNum": "081037",
    "vehicleCd": "236",
    "vehicleCorpCd": "1",
    "running": true,
    "lat": 34.491278,
    "lon": 135.527889,
    "route": "泉ヶ丘駅→晴美槙塚台回り→泉ヶ丘駅",
    "stop": "高倉台４丁",
    "passTime": "08:44",
    "vehicleType": "南海バス(車椅子・ベビーカー・ノンステップ)",
    "updateTime": "2026/07/21 08:45"
  },
  {
    "vehicleNum": "081040",
    "vehicleCd": "248",
    "vehicleCorpCd": "1",
    "running": true,
    "lat": 34.464889,
    "lon": 135.499194,
    "route": "栂・美木多駅→御池台回り→栂・美木多駅",
    "stop": "御池台１丁",
    "passTime": "08:44",
    "vehicleType": "南海バス(車椅子・ベビーカー・ノンステップ)",
    "updateTime": "2026/07/21 08:45"
  },
  {
    "vehicleNum": "082245",
    "vehicleCd": "438",
    "vehicleCorpCd": "1",
    "running": true,
    "lat": 34.627194,
    "lon": 135.429889,
    "route": "堺東駅前→ＡＴＣ→堺東駅前",
    "stop": "堺駅前",
    "passTime": "08:24",
    "vehicleType": "南海バス",
    "updateTime": "2026/07/21 08:45"
  },
  {
    "vehicleNum": "081036",
    "vehicleCd": "293",
    "vehicleCorpCd": "1",
    "running": true,
    "lat": 34.4975,
    "lon": 135.509083,
    "route": "津久野駅前→堺市立総合医療センター前→八田荘団地→泉ヶ丘駅",
    "stop": "竹城台２丁",
    "passTime": "08:44",
    "vehicleType": "南海バス(車椅子・ベビーカー・ノンステップ)",
    "updateTime": "2026/07/21 08:45"
  },
  {
    "vehicleNum": "090103",
    "vehicleCd": "49",
    "vehicleCorpCd": "2",
    "running": true,
    "lat": 34.464694,
    "lon": 135.378194,
    "route": "岸和田駅前→徳洲会病院→和泉中央駅",
    "stop": "岸和田郵便局前",
    "passTime": "08:44",
    "vehicleType": "南海ウイングバス(車椅子・ベビーカー・ワンステップ)",
    "updateTime": "2026/07/21 08:45"
  },
  {
    "vehicleNum": "090104",
    "vehicleCd": "53",
    "vehicleCorpCd": "2",
    "running": true,
    "lat": 34.442,
    "lon": 135.394,
    "route": "岸和田駅前→岸和田警察署前→河合→白原車庫",
    "stop": "東土生",
    "passTime": "08:44",
    "vehicleType": "南海ウイングバス(車椅子・ベビーカー・ワンステップ)",
    "updateTime": "2026/07/21 08:45"
  },
  {
    "vehicleNum": "090170",
    "vehicleCd": "117",
    "vehicleCorpCd": "2",
    "running": true,
    "lat": 34.437083,
    "lon": 135.4,
    "route": "白原車庫→河合→岸和田警察署前→岸和田駅前",
    "stop": "一の宮",
    "passTime": "08:43",
    "vehicleType": "南海ウイングバス",
    "updateTime": "2026/07/21 08:45"
  },
  {
    "vehicleNum": "091186",
    "vehicleCd": "106",
    "vehicleCorpCd": "2",
    "running": true,
    "lat": 34.417389,
    "lon": 135.440083,
    "route": "白原車庫→内畑→岸和田駅前",
    "stop": "沢峯",
    "passTime": "08:44",
    "vehicleType": "南海ウイングバス(車椅子・ベビーカー・ワンステップ)",
    "updateTime": "2026/07/21 08:45"
  },
  {
    "vehicleNum": "091147",
    "vehicleCd": "255",
    "vehicleCorpCd": "1",
    "running": true,
    "lat": 34.499194,
    "lon": 135.450194,
    "route": "北信太駅筋→鶴山台団地→北信太駅筋",
    "stop": "鶴山台南小学校前",
    "passTime": "08:45",
    "vehicleType": "南海バス(車椅子・ベビーカー・ワンステップ)",
    "updateTime": "2026/07/21 08:45"
  },
  {
    "vehicleNum": "091146",
    "vehicleCd": "17",
    "vehicleCorpCd": "2",
    "running": true,
    "lat": 34.457889,
    "lon": 135.451194,
    "route": "和泉中央駅→包近→道の駅愛彩ランド",
    "stop": "和泉中央駅",
    "passTime": "08:40",
    "vehicleType": "南海ウイングバス(車椅子・ベビーカー・ワンステップ)",
    "updateTime": "2026/07/21 08:45"
  },
  {
    "vehicleNum": "091601",
    "vehicleCd": "202",
    "vehicleCorpCd": "1",
    "running": true,
    "lat": 34.432389,
    "lon": 135.234583,
    "route": "給油地区→直行→空港駅",
    "stop": "機内食前",
    "passTime": "08:43",
    "vehicleType": "南海バス(車椅子・ノンステップ)",
    "updateTime": "2026/07/21 08:45"
  },
  {
    "vehicleNum": "091595",
    "vehicleCd": "199",
    "vehicleCorpCd": "1",
    "running": true,
    "lat": 34.435083,
    "lon": 135.239583,
    "route": "空港駅→貨物合同庁舎前→ＦｅｄＥｘ",
    "stop": "空港駅",
    "passTime": "08:44",
    "vehicleType": "南海バス(車椅子・ノンステップ)",
    "updateTime": "2026/07/21 08:45"
  },
  {
    "vehicleNum": "091737",
    "vehicleCd": "48",
    "vehicleCorpCd": "2",
    "running": true,
    "lat": 34.447,
    "lon": 135.435389,
    "route": "道の駅愛彩ランド→包近→和泉中央駅",
    "stop": "包近",
    "passTime": "08:41",
    "vehicleType": "南海ウイングバス(車椅子・ベビーカー・ワンステップ)",
    "updateTime": "2026/07/21 08:45"
  },
  {
    "vehicleNum": "091739",
    "vehicleCd": "147",
    "vehicleCorpCd": "2",
    "running": true,
    "lat": 34.462583,
    "lon": 135.4035,
    "route": "岸和田駅前→内畑→白原車庫",
    "stop": "久米田高校前",
    "passTime": "08:41",
    "vehicleType": "南海ウイングバス(車椅子・ベビーカー・ワンステップ)",
    "updateTime": "2026/07/21 08:45"
  },
  {
    "vehicleNum": "091744",
    "vehicleCd": "148",
    "vehicleCorpCd": "2",
    "running": true,
    "lat": 34.4545,
    "lon": 135.385889,
    "route": "牛滝温泉→内畑→岸和田駅前",
    "stop": "市民病院前",
    "passTime": "08:39",
    "vehicleType": "南海ウイングバス(車椅子・ベビーカー・ワンステップ)",
    "updateTime": "2026/07/21 08:45"
  },
  {
    "vehicleNum": "091740",
    "vehicleCd": "105",
    "vehicleCorpCd": "2",
    "running": true,
    "lat": 34.4575,
    "lon": 135.450389,
    "route": "和泉中央駅→徳洲会病院→岸和田駅前",
    "stop": "和泉中央駅",
    "passTime": "08:40",
    "vehicleType": "南海ウイングバス(車椅子・ベビーカー・ワンステップ)",
    "updateTime": "2026/07/21 08:45"
  },
  {
    "vehicleNum": "091792",
    "vehicleCd": "59",
    "vehicleCorpCd": "1",
    "running": true,
    "lat": 34.432389,
    "lon": 135.235194,
    "route": "空港駅→直行→給油地区",
    "stop": "空港駅",
    "passTime": "08:41",
    "vehicleType": "南海バス(車椅子・ノンステップ)",
    "updateTime": "2026/07/21 08:45"
  },
  {
    "vehicleNum": "091893",
    "vehicleCd": "84",
    "vehicleCorpCd": "2",
    "running": true,
    "lat": 34.357278,
    "lon": 135.262778,
    "route": "泉南市コミュニティバス 南Ａ回り",
    "stop": "幡代",
    "passTime": "08:43",
    "vehicleType": "岸和田市コミュニティバス(ローズバス)",
    "updateTime": "2026/07/21 08:45"
  },
  {
    "vehicleNum": "091910",
    "vehicleCd": "441",
    "vehicleCorpCd": "1",
    "running": true,
    "lat": 34.436389,
    "lon": 135.241583,
    "route": "エアロプラザ→第２ターミナル(国内線・国際線)→エアロプラザ",
    "stop": "第2ターミナル国際線",
    "passTime": "08:39",
    "vehicleType": "南海バス(車椅子・ノンステップ)",
    "updateTime": "2026/07/21 08:45"
  },
  {
    "vehicleNum": "091895",
    "vehicleCd": "4",
    "vehicleCorpCd": "2",
    "running": true,
    "lat": 34.368194,
    "lon": 135.270278,
    "route": "泉南市コミュニティバス 朝 一丘回り（３便用）",
    "stop": "泉南市役所前2",
    "passTime": "08:44",
    "vehicleType": "泉南市コミュニティバス(ピンク)",
    "updateTime": "2026/07/21 08:45"
  },
  {
    "vehicleNum": "092141",
    "vehicleCd": "527",
    "vehicleCorpCd": "1",
    "running": true,
    "lat": 34.631583,
    "lon": 135.429694,
    "route": "堺東駅前→ＡＴＣ→堺東駅前",
    "stop": "ポートタウン東",
    "passTime": "08:35",
    "vehicleType": "南海バス",
    "updateTime": "2026/07/21 08:45"
  },
  {
    "vehicleNum": "092153",
    "vehicleCd": "529",
    "vehicleCorpCd": "1",
    "running": true,
    "lat": 34.435694,
    "lon": 135.240389,
    "route": "エアロプラザ→第２ターミナル(国内線・国際線)→エアロプラザ",
    "stop": "エアロプラザ",
    "passTime": "08:44",
    "vehicleType": "南海バス",
    "updateTime": "2026/07/21 08:45"
  },
  {
    "vehicleNum": "092045",
    "vehicleCd": "463",
    "vehicleCorpCd": "1",
    "running": true,
    "lat": 34.454194,
    "lon": 135.563778,
    "route": "ﾓｯｸﾙ 美加～木戸東町～美加",
    "stop": "河内長野警察署前",
    "passTime": "08:45",
    "vehicleType": "南海バス(車椅子・ベビーカー・ノンステップ)",
    "updateTime": "2026/07/21 08:45"
  },
  {
    "vehicleNum": "092233",
    "vehicleCd": "533",
    "vehicleCorpCd": "1",
    "running": true,
    "lat": 34.567278,
    "lon": 135.478889,
    "route": "堺東駅前→鳳駅前→栂・美木多駅",
    "stop": "賑町",
    "passTime": "08:45",
    "vehicleType": "南海バス(車椅子・ベビーカー・ノンステップ)",
    "updateTime": "2026/07/21 08:45"
  },
  {
    "vehicleNum": "092235",
    "vehicleCd": "535",
    "vehicleCorpCd": "1",
    "running": true,
    "lat": 34.437778,
    "lon": 135.449694,
    "route": "和泉中央駅→直行→テクノステージセンター前",
    "stop": "ららぽーと和泉前",
    "passTime": "08:44",
    "vehicleType": "南海バス(車椅子・ベビーカー・ノンステップ)",
    "updateTime": "2026/07/21 08:45"
  },
  {
    "vehicleNum": "092345",
    "vehicleCd": "160",
    "vehicleCorpCd": "1",
    "running": true,
    "lat": 34.4285,
    "lon": 135.2295,
    "route": "空港駅→国際循環→空港駅",
    "stop": "機内食前",
    "passTime": "08:43",
    "vehicleType": "南海バス",
    "updateTime": "2026/07/21 08:45"
  },
  {
    "vehicleNum": "092382",
    "vehicleCd": "556",
    "vehicleCorpCd": "1",
    "running": true,
    "lat": 34.450194,
    "lon": 135.4445,
    "route": "和泉中央駅→グリーンポリス→府立産技研前",
    "stop": "グリーンポリス前",
    "passTime": "08:45",
    "vehicleType": "南海バス(車椅子・ベビーカー・ノンステップ)",
    "updateTime": "2026/07/21 08:45"
  },
  {
    "vehicleNum": "092373",
    "vehicleCd": "553",
    "vehicleCorpCd": "1",
    "running": true,
    "lat": 34.457583,
    "lon": 135.482583,
    "route": "光明池駅→城山台５丁→光明池車庫",
    "stop": "光明台北小学校前",
    "passTime": "08:45",
    "vehicleType": "南海バス(車椅子・ベビーカー・ノンステップ)",
    "updateTime": "2026/07/21 08:45"
  },
  {
    "vehicleNum": "092383",
    "vehicleCd": "44",
    "vehicleCorpCd": "1",
    "running": true,
    "lat": 34.457083,
    "lon": 135.473972,
    "route": "泉大津駅前→和泉中央駅→和泉青葉台",
    "stop": "和田南",
    "passTime": "08:44",
    "vehicleType": "南海バス(車椅子・ベビーカー・ワンステップ)",
    "updateTime": "2026/07/21 08:45"
  },
  {
    "vehicleNum": "092384",
    "vehicleCd": "558",
    "vehicleCorpCd": "1",
    "running": true,
    "lat": 34.552389,
    "lon": 135.465278,
    "route": "光明池駅→山田→堺東駅前",
    "stop": "神石橋",
    "passTime": "08:44",
    "vehicleType": "南海バス(車椅子・ベビーカー・ノンステップ)",
    "updateTime": "2026/07/21 08:45"
  },
  {
    "vehicleNum": "092204",
    "vehicleCd": "416",
    "vehicleCorpCd": "1",
    "running": true,
    "lat": 34.452389,
    "lon": 135.547694,
    "route": "千代→小山田→緑→千代",
    "stop": "小山田",
    "passTime": "08:45",
    "vehicleType": "南海バス",
    "updateTime": "2026/07/21 08:45"
  },
  {
    "vehicleNum": "092467",
    "vehicleCd": "50",
    "vehicleCorpCd": "1",
    "running": true,
    "lat": 34.4345,
    "lon": 135.568194,
    "route": "三日市町駅前→南花台４丁目（直行）",
    "stop": "三日市町駅前",
    "passTime": "08:40",
    "vehicleType": "南海バス(車椅子・ベビーカー・ノンステップ)",
    "updateTime": "2026/07/21 08:45"
  },
  {
    "vehicleNum": "092483",
    "vehicleCd": "110",
    "vehicleCorpCd": "1",
    "running": true,
    "lat": 34.451194,
    "lon": 135.561,
    "route": "長野→天野山→旭",
    "stop": "野作",
    "passTime": "08:44",
    "vehicleType": "南海バス(車椅子・ベビーカー・ノンステップ)",
    "updateTime": "2026/07/21 08:45"
  },
  {
    "vehicleNum": "092498",
    "vehicleCd": "8",
    "vehicleCorpCd": "1",
    "running": true,
    "lat": 34.456583,
    "lon": 135.448583,
    "route": "和泉中央駅→直行→テクノステージセンター前",
    "stop": "唐国南",
    "passTime": "08:44",
    "vehicleType": "南海バス(車椅子・ベビーカー・ノンステップ)",
    "updateTime": "2026/07/21 08:45"
  },
  {
    "vehicleNum": "092502",
    "vehicleCd": "140",
    "vehicleCorpCd": "2",
    "running": true,
    "lat": 34.463583,
    "lon": 135.395583,
    "route": "ローズバス　左回り",
    "stop": "市民病院前",
    "passTime": "08:42",
    "vehicleType": "岸和田市コミュニティバス(ローズバス)",
    "updateTime": "2026/07/21 08:45"
  },
  {
    "vehicleNum": "092561",
    "vehicleCd": "74",
    "vehicleCorpCd": "1",
    "running": true,
    "lat": 34.500083,
    "lon": 135.568194,
    "route": "PL病院→金剛駅前（東側）→津々山台2丁目→PL病院",
    "stop": "久野喜台小学校前",
    "passTime": "08:41",
    "vehicleType": "南海バス(車椅子・ベビーカー・ノンステップ)",
    "updateTime": "2026/07/21 08:45"
  },
  {
    "vehicleNum": "092570",
    "vehicleCd": "577",
    "vehicleCorpCd": "1",
    "running": true,
    "lat": 34.429,
    "lon": 135.450194,
    "route": "和泉中央駅→直行→テクノステージセンター前",
    "stop": "テクノステージ口",
    "passTime": "08:45",
    "vehicleType": "南海バス(車椅子・ベビーカー・ノンステップ)",
    "updateTime": "2026/07/21 08:45"
  },
  {
    "vehicleNum": "092580",
    "vehicleCd": "377",
    "vehicleCorpCd": "1",
    "running": true,
    "lat": 34.482889,
    "lon": 135.426778,
    "route": "和泉中央駅→いぶき野→和泉府中駅前",
    "stop": "府中町南",
    "passTime": "08:43",
    "vehicleType": "南海バス(車椅子・ベビーカー・ノンステップ)",
    "updateTime": "2026/07/21 08:45"
  },
  {
    "vehicleNum": "092578",
    "vehicleCd": "147",
    "vehicleCorpCd": "1",
    "running": true,
    "lat": 34.438694,
    "lon": 135.586,
    "route": "金剛山ﾛｰﾌﾟｳｪｲ前→日東町東口→河内長野駅前",
    "stop": "葛の口",
    "passTime": "08:44",
    "vehicleType": "南海バス(車椅子・ベビーカー・ノンステップ)",
    "updateTime": "2026/07/21 08:45"
  },
  {
    "vehicleNum": "092581",
    "vehicleCd": "375",
    "vehicleCorpCd": "1",
    "running": true,
    "lat": 34.461194,
    "lon": 135.4875,
    "route": "光明池車庫→城山台５丁→光明池駅",
    "stop": "光明台一丁目",
    "passTime": "08:44",
    "vehicleType": "南海バス(車椅子・ベビーカー・ノンステップ)",
    "updateTime": "2026/07/21 08:45"
  },
  {
    "vehicleNum": "092620",
    "vehicleCd": "311",
    "vehicleCorpCd": "1",
    "running": true,
    "lat": 34.458778,
    "lon": 135.552389,
    "route": "千代田駅前→赤峯→荘園町",
    "stop": "荘園橋",
    "passTime": "08:45",
    "vehicleType": "南海バス(車椅子・ベビーカー・ノンステップ)",
    "updateTime": "2026/07/21 08:45"
  },
  {
    "vehicleNum": "092647",
    "vehicleCd": "587",
    "vehicleCorpCd": "1",
    "running": true,
    "lat": 34.443389,
    "lon": 135.556083,
    "route": "滝畑ダム→河内長野駅前",
    "stop": "下高向",
    "passTime": "08:44",
    "vehicleType": "南海バス(車椅子・ベビーカー・ノンステップ)",
    "updateTime": "2026/07/21 08:45"
  },
  {
    "vehicleNum": "092711",
    "vehicleCd": "355",
    "vehicleCorpCd": "1",
    "running": true,
    "lat": 34.484472,
    "lon": 135.491389,
    "route": "栂・美木多駅→鳳駅前→堺東駅前",
    "stop": "栂・美木多駅",
    "passTime": "08:45",
    "vehicleType": "南海バス(車椅子・ベビーカー・ノンステップ)",
    "updateTime": "2026/07/21 08:45"
  },
  {
    "vehicleNum": "092696",
    "vehicleCd": "589",
    "vehicleCorpCd": "1",
    "running": true,
    "lat": 34.458,
    "lon": 135.4605,
    "route": "和泉中央駅→はつが野六丁目→和泉中央駅",
    "stop": "万町弘法寺前",
    "passTime": "08:44",
    "vehicleType": "南海バス(車椅子・ベビーカー・ノンステップ)",
    "updateTime": "2026/07/21 08:45"
  },
  {
    "vehicleNum": "092734",
    "vehicleCd": "289",
    "vehicleCorpCd": "1",
    "running": true,
    "lat": 34.4165,
    "lon": 135.568583,
    "route": "三日市町駅前→南青葉台→三日市町駅前",
    "stop": "南青葉台口",
    "passTime": "08:44",
    "vehicleType": "南海バス(車椅子・ベビーカー・ノンステップ)",
    "updateTime": "2026/07/21 08:45"
  },
  {
    "vehicleNum": "092757",
    "vehicleCd": "306",
    "vehicleCorpCd": "1",
    "running": true,
    "lat": 34.454389,
    "lon": 135.565694,
    "route": "河内長野市役所前→河内長野駅前",
    "stop": "河内長野警察署前",
    "passTime": "08:43",
    "vehicleType": "南海バス(車椅子・ベビーカー・ノンステップ)",
    "updateTime": "2026/07/21 08:45"
  },
  {
    "vehicleNum": "092761",
    "vehicleCd": "23",
    "vehicleCorpCd": "1",
    "running": true,
    "lat": 34.422583,
    "lon": 135.593194,
    "route": "美加の台駅前→美加の台口→美加の台駅前（前乗り）",
    "stop": "延命寺口",
    "passTime": "08:44",
    "vehicleType": "南海バス(車椅子・ベビーカー・ノンステップ)",
    "updateTime": "2026/07/21 08:45"
  },
  {
    "vehicleNum": "092762",
    "vehicleCd": "570",
    "vehicleCorpCd": "1",
    "running": true,
    "lat": 34.480778,
    "lon": 135.467389,
    "route": "堺東駅前→鳳駅前→光明池駅",
    "stop": "下伏屋",
    "passTime": "08:44",
    "vehicleType": "南海バス(車椅子・ベビーカー・ノンステップ)",
    "updateTime": "2026/07/21 08:45"
  },
  {
    "vehicleNum": "092763",
    "vehicleCd": "520",
    "vehicleCorpCd": "1",
    "running": true,
    "lat": 34.464778,
    "lon": 135.485778,
    "route": "光明池駅→城山台５丁→みずき台２丁目西",
    "stop": "城山台五丁",
    "passTime": "08:43",
    "vehicleType": "南海バス(車椅子・ベビーカー・ノンステップ)",
    "updateTime": "2026/07/21 08:45"
  },
  {
    "vehicleNum": "092795",
    "vehicleCd": "592",
    "vehicleCorpCd": "1",
    "running": true,
    "lat": 34.521583,
    "lon": 135.462889,
    "route": "堺東駅前→鳳駅前→光明池駅",
    "stop": "上",
    "passTime": "08:44",
    "vehicleType": "南海バス(車椅子・ベビーカー・ノンステップ)",
    "updateTime": "2026/07/21 08:45"
  },
  {
    "vehicleNum": "092831",
    "vehicleCd": "417",
    "vehicleCorpCd": "1",
    "running": true,
    "lat": 34.447389,
    "lon": 135.457778,
    "route": "美術館前→のぞみ野南→和泉中央駅",
    "stop": "内田上",
    "passTime": "08:43",
    "vehicleType": "南海バス(車椅子・ベビーカー・ノンステップ)",
    "updateTime": "2026/07/21 08:45"
  },
  {
    "vehicleNum": "092856",
    "vehicleCd": "601",
    "vehicleCorpCd": "1",
    "running": true,
    "lat": 34.460694,
    "lon": 135.4545,
    "route": "泉大津駅前→和泉府中駅前→和泉中央駅",
    "stop": "唐国南",
    "passTime": "08:43",
    "vehicleType": "南海バス(車椅子・ベビーカー・ノンステップ)",
    "updateTime": "2026/07/21 08:45"
  },
  {
    "vehicleNum": "092857",
    "vehicleCd": "516",
    "vehicleCorpCd": "1",
    "running": true,
    "lat": 34.5495,
    "lon": 135.464083,
    "route": "堺東駅前→鳳駅前→光明池駅",
    "stop": "神石市之町",
    "passTime": "08:45",
    "vehicleType": "南海バス(車椅子・ベビーカー・ノンステップ)",
    "updateTime": "2026/07/21 08:45"
  },
  {
    "vehicleNum": "092858",
    "vehicleCd": "320",
    "vehicleCorpCd": "1",
    "running": true,
    "lat": 34.457278,
    "lon": 135.449889,
    "route": "和泉中央駅→寺田→泉大津駅前",
    "stop": "和泉中央駅",
    "passTime": "08:39",
    "vehicleType": "南海バス(車椅子・ベビーカー・ノンステップ)",
    "updateTime": "2026/07/21 08:45"
  },
  {
    "vehicleNum": "092859",
    "vehicleCd": "32",
    "vehicleCorpCd": "1",
    "running": true,
    "lat": 34.462889,
    "lon": 135.561194,
    "route": "千代田駅前→赤峯→緑ヶ丘北町",
    "stop": "市民グランド前",
    "passTime": "08:45",
    "vehicleType": "南海バス(車椅子・ベビーカー・ノンステップ)",
    "updateTime": "2026/07/21 08:45"
  },
  {
    "vehicleNum": "092873",
    "vehicleCd": "234",
    "vehicleCorpCd": "1",
    "running": true,
    "lat": 34.486278,
    "lon": 135.424778,
    "route": "泉大津→和泉府中駅前→桃山学院大学 ※登校日のみ運行（ご不明な点は担当営業所までお問い合わせください）",
    "stop": "和泉府中駅前",
    "passTime": "08:42",
    "vehicleType": "南海バス(車椅子・ベビーカー・ノンステップ)",
    "updateTime": "2026/07/21 08:45"
  },
  {
    "vehicleNum": "092900",
    "vehicleCd": "604",
    "vehicleCorpCd": "1",
    "running": true,
    "lat": 34.486194,
    "lon": 135.425,
    "route": "和泉青葉台→和泉中央駅→泉大津駅前",
    "stop": "和泉府中駅前",
    "passTime": "08:42",
    "vehicleType": "南海バス(車椅子・ベビーカー・ノンステップ)",
    "updateTime": "2026/07/21 08:45"
  },
  {
    "vehicleNum": "092915",
    "vehicleCd": "346",
    "vehicleCorpCd": "1",
    "running": true,
    "lat": 34.4525,
    "lon": 135.574389,
    "route": "長野→こんごう福祉",
    "stop": "河合寺",
    "passTime": "08:42",
    "vehicleType": "南海バス(車椅子・ベビーカー・ノンステップ)",
    "updateTime": "2026/07/21 08:45"
  },
  {
    "vehicleNum": "092901",
    "vehicleCd": "356",
    "vehicleCorpCd": "1",
    "running": true,
    "lat": 34.489083,
    "lon": 135.419,
    "route": "泉大津駅前→和泉府中駅前→和泉中央駅",
    "stop": "泉大津急性期メディカルセンター前",
    "passTime": "08:45",
    "vehicleType": "南海バス(車椅子・ベビーカー・ノンステップ)",
    "updateTime": "2026/07/21 08:45"
  },
  {
    "vehicleNum": "092916",
    "vehicleCd": "235",
    "vehicleCorpCd": "1",
    "running": true,
    "lat": 34.466389,
    "lon": 135.464889,
    "route": "和泉青葉台→和泉中央駅→泉大津駅前",
    "stop": "室堂",
    "passTime": "08:42",
    "vehicleType": "南海バス(車椅子・ベビーカー・ノンステップ)",
    "updateTime": "2026/07/21 08:45"
  },
  {
    "vehicleNum": "092918",
    "vehicleCd": "114",
    "vehicleCorpCd": "1",
    "running": true,
    "lat": 34.562278,
    "lon": 135.4745,
    "route": "栂・美木多駅→鳳駅前→堺東駅前",
    "stop": "旭ヶ丘北町",
    "passTime": "08:45",
    "vehicleType": "南海バス(車椅子・ベビーカー・ノンステップ)",
    "updateTime": "2026/07/21 08:45"
  },
  {
    "vehicleNum": "092937",
    "vehicleCd": "73",
    "vehicleCorpCd": "1",
    "running": true,
    "lat": 34.532583,
    "lon": 135.460389,
    "route": "堺東駅前→鳳駅前→栂・美木多駅",
    "stop": "西区役所前",
    "passTime": "08:44",
    "vehicleType": "南海バス(車椅子・ベビーカー・ノンステップ)",
    "updateTime": "2026/07/21 08:45"
  },
  {
    "vehicleNum": "092919",
    "vehicleCd": "230",
    "vehicleCorpCd": "1",
    "running": true,
    "lat": 34.422194,
    "lon": 135.5585,
    "route": "南ヶ丘→南花台４丁目→三日市町駅前（前乗り）",
    "stop": "大矢船北町（南花台系統）",
    "passTime": "08:44",
    "vehicleType": "南海バス(車椅子・ベビーカー・ノンステップ)",
    "updateTime": "2026/07/21 08:45"
  },
  {
    "vehicleNum": "092952",
    "vehicleCd": "113",
    "vehicleCorpCd": "1",
    "running": true,
    "lat": 34.505583,
    "lon": 135.466278,
    "route": "光明池駅→山田→堺東駅前",
    "stop": "南山田",
    "passTime": "08:45",
    "vehicleType": "南海バス(車椅子・ベビーカー・ノンステップ)",
    "updateTime": "2026/07/21 08:45"
  },
  {
    "vehicleNum": "092953",
    "vehicleCd": "122",
    "vehicleCorpCd": "1",
    "running": true,
    "lat": 34.427889,
    "lon": 135.229694,
    "route": "空港駅→貨物合同庁舎前",
    "stop": "大阪国際郵便局前",
    "passTime": "08:45",
    "vehicleType": "南海バス(車椅子・ベビーカー・ノンステップ)",
    "updateTime": "2026/07/21 08:45"
  },
  {
    "vehicleNum": "092974",
    "vehicleCd": "260",
    "vehicleCorpCd": "1",
    "running": true,
    "lat": 34.502889,
    "lon": 135.406778,
    "route": "泉大津駅前→和泉府中駅前→和泉中央駅",
    "stop": "泉大津駅前",
    "passTime": "08:45",
    "vehicleType": "南海バス(車椅子・ベビーカー・ノンステップ)",
    "updateTime": "2026/07/21 08:45"
  },
  {
    "vehicleNum": "092975",
    "vehicleCd": "115",
    "vehicleCorpCd": "1",
    "running": true,
    "lat": 34.482972,
    "lon": 135.428083,
    "route": "光明池駅→光明池車庫→泉大津駅前",
    "stop": "府中町南",
    "passTime": "08:44",
    "vehicleType": "南海バス(車椅子・ベビーカー・ノンステップ)",
    "updateTime": "2026/07/21 08:45"
  },
  {
    "vehicleNum": "092977",
    "vehicleCd": "608",
    "vehicleCorpCd": "1",
    "running": true,
    "lat": 34.486083,
    "lon": 135.425083,
    "route": "泉大津駅前→和泉府中駅前→和泉中央駅",
    "stop": "和泉府中駅前",
    "passTime": "08:42",
    "vehicleType": "南海バス(車椅子・ベビーカー・ノンステップ)",
    "updateTime": "2026/07/21 08:45"
  },
  {
    "vehicleNum": "092978",
    "vehicleCd": "325",
    "vehicleCorpCd": "1",
    "running": true,
    "lat": 34.4915,
    "lon": 135.415694,
    "route": "和泉中央駅→寺田→泉大津駅前",
    "stop": "我孫子",
    "passTime": "08:45",
    "vehicleType": "南海バス(車椅子・ベビーカー・ノンステップ)",
    "updateTime": "2026/07/21 08:45"
  },
  {
    "vehicleNum": "093003",
    "vehicleCd": "111",
    "vehicleCorpCd": "1",
    "running": true,
    "lat": 34.457389,
    "lon": 135.450194,
    "route": "和泉中央駅→グリーンポリス→府立産技研前",
    "stop": "和泉中央駅",
    "passTime": "08:40",
    "vehicleType": "南海バス(車椅子・ベビーカー・ノンステップ)",
    "updateTime": "2026/07/21 08:45"
  },
  {
    "vehicleNum": "093012",
    "vehicleCd": "26",
    "vehicleCorpCd": "1",
    "running": true,
    "lat": 34.435083,
    "lon": 135.2435,
    "route": "ポートターミナル→第２ターミナル",
    "stop": "旅客ターミナル",
    "passTime": "08:44",
    "vehicleType": "南海バス(車椅子・ベビーカー・ノンステップ)",
    "updateTime": "2026/07/21 08:45"
  },
  {
    "vehicleNum": "093046",
    "vehicleCd": "246",
    "vehicleCorpCd": "1",
    "running": true,
    "lat": 34.533194,
    "lon": 135.462889,
    "route": "国分峠東→栂・美木多駅→堺東駅前",
    "stop": "鳳駅前",
    "passTime": "08:41",
    "vehicleType": "南海バス(車椅子・ベビーカー・ノンステップ)",
    "updateTime": "2026/07/21 08:45"
  },
  {
    "vehicleNum": "093032",
    "vehicleCd": "231",
    "vehicleCorpCd": "1",
    "running": true,
    "lat": 34.435472,
    "lon": 135.234694,
    "route": "エアロプラザ→第２ターミナル(国内線・国際線)→エアロプラザ",
    "stop": "第2ターミナル国際線",
    "passTime": "08:43",
    "vehicleType": "南海バス",
    "updateTime": "2026/07/21 08:45"
  },
  {
    "vehicleNum": "093071",
    "vehicleCd": "274",
    "vehicleCorpCd": "1",
    "running": true,
    "lat": 34.473889,
    "lon": 135.476389,
    "route": "みずき台２丁目西→光明池駅",
    "stop": "東室堂",
    "passTime": "08:41",
    "vehicleType": "南海バス(車椅子・ベビーカー・ノンステップ)",
    "updateTime": "2026/07/21 08:45"
  },
  {
    "vehicleNum": "093074",
    "vehicleCd": "247",
    "vehicleCorpCd": "1",
    "running": true,
    "lat": 34.473583,
    "lon": 135.4505,
    "route": "泉大津駅前→和泉府中駅前→和泉中央駅→光明池駅",
    "stop": "上阪本",
    "passTime": "08:45",
    "vehicleType": "南海バス(車椅子・ベビーカー・ノンステップ)",
    "updateTime": "2026/07/21 08:45"
  },
  {
    "vehicleNum": "093114",
    "vehicleCd": "262",
    "vehicleCorpCd": "1",
    "running": true,
    "lat": 34.57,
    "lon": 135.481,
    "route": "光明池駅→山田→堺東駅前",
    "stop": "一条通",
    "passTime": "08:44",
    "vehicleType": "南海バス(車椅子・ベビーカー・ノンステップ)",
    "updateTime": "2026/07/21 08:45"
  }
]