[
  {
    "vehicleNum": "070104",
    "vehicleCd": "402",
    "vehicleCorpCd": "1",
    "running": true,
    "lat": 34.484778,
    "lon": 135.526694,
    "route": "泉ヶ丘駅→狭山ニュータウンセンター→金剛駅前",
    "stop": "槙塚台１丁",
    "passTime": "17:59",
    "vehicleType": "泉北コミュニティバス(車椅子・ベビーカー・ノンステップ)",
    "updateTime": "2026/07/22 18:00"
  },
  {
    "vehicleNum": "070103",
    "vehicleCd": "425",
    "vehicleCorpCd": "1",
    "running": true,
    "lat": 34.498583,
    "lon": 135.554083,
    "route": "金剛駅前→狭山ニュータウンセンター→泉ヶ丘駅",
    "stop": "北村",
    "passTime": "18:00",
    "vehicleType": "泉北コミュニティバス(車椅子・ベビーカー・ノンステップ)",
    "updateTime": "2026/07/22 18:00"
  },
  {
    "vehicleNum": "070107",
    "vehicleCd": "405",
    "vehicleCorpCd": "1",
    "running": true,
    "lat": 34.495278,
    "lon": 135.558194,
    "route": "泉ヶ丘駅→狭山ニュータウンセンター→金剛駅前",
    "stop": "半田",
    "passTime": "17:59",
    "vehicleType": "泉北コミュニティバス(車椅子・ベビーカー・ノンステップ)",
    "updateTime": "2026/07/22 18:00"
  },
  {
    "vehicleNum": "070108",
    "vehicleCd": "406",
    "vehicleCorpCd": "1",
    "running": true,
    "lat": 34.484889,
    "lon": 135.525694,
    "route": "金剛駅前→狭山ニュータウンセンター→泉ヶ丘駅",
    "stop": "槙塚台センター",
    "passTime": "17:59",
    "vehicleType": "泉北コミュニティバス(車椅子・ベビーカー・ノンステップ)",
    "updateTime": "2026/07/22 18:00"
  },
  {
    "vehicleNum": "071602",
    "vehicleCd": "109",
    "vehicleCorpCd": "1",
    "running": true,
    "lat": 34.574389,
    "lon": 135.482472,
    "route": "堺東駅前→大小路→堺駅前",
    "stop": "堺市役所前",
    "passTime": "17:59",
    "vehicleType": "堺シャトル(車椅子・ベビーカー・ノンステップ)",
    "updateTime": "2026/07/22 18:00"
  },
  {
    "vehicleNum": "071605",
    "vehicleCd": "412",
    "vehicleCorpCd": "1",
    "running": true,
    "lat": 34.575889,
    "lon": 135.478889,
    "route": "堺駅前→大小路→堺東駅前",
    "stop": "熊野小学校前",
    "passTime": "18:00",
    "vehicleType": "堺シャトル(車椅子・ベビーカー・ノンステップ)",
    "updateTime": "2026/07/22 18:00"
  },
  {
    "vehicleNum": "071607",
    "vehicleCd": "414",
    "vehicleCorpCd": "1",
    "running": true,
    "lat": 34.579778,
    "lon": 135.472694,
    "route": "堺東駅前→大小路→堺駅前",
    "stop": "市小学校前",
    "passTime": "17:59",
    "vehicleType": "堺シャトル(車椅子・ベビーカー・ノンステップ)",
    "updateTime": "2026/07/22 18:00"
  },
  {
    "vehicleNum": "080020",
    "vehicleCd": "374",
    "vehicleCorpCd": "1",
    "running": true,
    "lat": 34.506278,
    "lon": 135.581778,
    "route": "金剛駅前→向陽・藤沢回り→金剛駅前",
    "stop": "向陽台２丁目",
    "passTime": "18:00",
    "vehicleType": "南海バス(車椅子・ベビーカー・ワンステップ)",
    "updateTime": "2026/07/22 18:00"
  },
  {
    "vehicleNum": "072502",
    "vehicleCd": "331",
    "vehicleCorpCd": "1",
    "running": true,
    "lat": 34.575194,
    "lon": 135.473083,
    "route": "堺駅南口→地下鉄新金岡駅前",
    "stop": "大寺南門山之口前",
    "passTime": "17:59",
    "vehicleType": "南海バス(車椅子・ベビーカー・ノンステップ)",
    "updateTime": "2026/07/22 18:00"
  },
  {
    "vehicleNum": "080105",
    "vehicleCd": "127",
    "vehicleCorpCd": "2",
    "running": true,
    "lat": 34.448583,
    "lon": 135.385583,
    "route": "岸和田駅前→天神山・一の宮循環　左回り→岸和田駅前",
    "stop": "東岸和田駅前",
    "passTime": "17:59",
    "vehicleType": "南海ウイングバス(車椅子・ベビーカー・ワンステップ)",
    "updateTime": "2026/07/22 18:00"
  },
  {
    "vehicleNum": "080171",
    "vehicleCd": "40",
    "vehicleCorpCd": "2",
    "running": true,
    "lat": 34.4605,
    "lon": 135.415278,
    "route": "白原車庫→内畑→岸和田駅前",
    "stop": "池尻",
    "passTime": "18:00",
    "vehicleType": "南海ウイングバス(車椅子・ベビーカー・ワンステップ)",
    "updateTime": "2026/07/22 18:00"
  },
  {
    "vehicleNum": "080146",
    "vehicleCd": "6",
    "vehicleCorpCd": "2",
    "running": true,
    "lat": 34.370194,
    "lon": 135.355278,
    "route": "犬鳴山→日根野駅前→野々地蔵北→泉佐野駅前",
    "stop": "土丸",
    "passTime": "17:59",
    "vehicleType": "南海ウイングバス(車椅子・ワンステップ)",
    "updateTime": "2026/07/22 18:00"
  },
  {
    "vehicleNum": "080180",
    "vehicleCd": "68",
    "vehicleCorpCd": "2",
    "running": true,
    "lat": 34.460889,
    "lon": 135.456278,
    "route": "和泉中央駅→東ヶ丘町",
    "stop": "和泉中央駅",
    "passTime": "17:59",
    "vehicleType": "南海ウイングバス(車椅子・ベビーカー・ワンステップ)",
    "updateTime": "2026/07/22 18:00"
  },
  {
    "vehicleNum": "080184",
    "vehicleCd": "34",
    "vehicleCorpCd": "2",
    "running": true,
    "lat": 34.384389,
    "lon": 135.369694,
    "route": "泉佐野駅前→ダンバラ公園前→熊取駅前→つばさが丘北口",
    "stop": "つばさが丘西",
    "passTime": "17:59",
    "vehicleType": "南海ウイングバス(車椅子・ベビーカー・ノンステップ)",
    "updateTime": "2026/07/22 18:00"
  },
  {
    "vehicleNum": "080318",
    "vehicleCd": "83",
    "vehicleCorpCd": "1",
    "running": true,
    "lat": 34.596694,
    "lon": 135.447889,
    "route": "匠町→住之江公園駅前",
    "stop": "堺浜南",
    "passTime": "17:59",
    "vehicleType": "南海バス(車椅子・ベビーカー・ワンステップ)",
    "updateTime": "2026/07/22 18:00"
  },
  {
    "vehicleNum": "080316",
    "vehicleCd": "81",
    "vehicleCorpCd": "1",
    "running": true,
    "lat": 34.577194,
    "lon": 135.461778,
    "route": "堺駅南口→堺駅前",
    "stop": "大浜中町",
    "passTime": "17:59",
    "vehicleType": "南海バス(車椅子・ベビーカー・ワンステップ)",
    "updateTime": "2026/07/22 18:00"
  },
  {
    "vehicleNum": "080315",
    "vehicleCd": "80",
    "vehicleCorpCd": "1",
    "running": true,
    "lat": 34.582778,
    "lon": 135.515972,
    "route": "堺東駅前→錦綾町→河内天美駅前",
    "stop": "地下鉄北花田駅前",
    "passTime": "17:57",
    "vehicleType": "南海バス(車椅子・ベビーカー・ワンステップ)",
    "updateTime": "2026/07/22 18:00"
  },
  {
    "vehicleNum": "080321",
    "vehicleCd": "14",
    "vehicleCorpCd": "2",
    "running": true,
    "lat": 34.399,
    "lon": 135.351389,
    "route": "泉佐野駅前→泉陽ヶ丘→熊取駅前→山の手台→小谷→熊取駅前",
    "stop": "五門",
    "passTime": "17:58",
    "vehicleType": "南海ウイングバス(車椅子・ワンステップ)",
    "updateTime": "2026/07/22 18:00"
  },
  {
    "vehicleNum": "080322",
    "vehicleCd": "116",
    "vehicleCorpCd": "2",
    "running": true,
    "lat": 34.4105,
    "lon": 135.297194,
    "route": "イオンモール→ポート→イオンモールりんくう泉南",
    "stop": "りんくうプレミアム・アウトレット",
    "passTime": "17:58",
    "vehicleType": "南海ウイングバス(車椅子・ワンステップ)",
    "updateTime": "2026/07/22 18:00"
  },
  {
    "vehicleNum": "080345",
    "vehicleCd": "121",
    "vehicleCorpCd": "2",
    "running": true,
    "lat": 34.404194,
    "lon": 135.345083,
    "route": "大阪体育大学前→熊取駅前",
    "stop": "青年会場前",
    "passTime": "17:59",
    "vehicleType": "南海ウイングバス",
    "updateTime": "2026/07/22 18:00"
  },
  {
    "vehicleNum": "080323",
    "vehicleCd": "59",
    "vehicleCorpCd": "2",
    "running": true,
    "lat": 34.449778,
    "lon": 135.4095,
    "route": "道の駅愛彩ランド→岸和田警察署前→岸和田駅前",
    "stop": "尾生",
    "passTime": "18:00",
    "vehicleType": "南海ウイングバス(車椅子・ワンステップ)",
    "updateTime": "2026/07/22 18:00"
  },
  {
    "vehicleNum": "080381",
    "vehicleCd": "88",
    "vehicleCorpCd": "1",
    "running": true,
    "lat": 34.637278,
    "lon": 135.4275,
    "route": "ＡＴＣ→堺東駅前",
    "stop": "インテックス大阪東",
    "passTime": "17:58",
    "vehicleType": "南海バス(車椅子・ワンステップ)",
    "updateTime": "2026/07/22 18:00"
  },
  {
    "vehicleNum": "080482",
    "vehicleCd": "156",
    "vehicleCorpCd": "1",
    "running": true,
    "lat": 34.544778,
    "lon": 135.489,
    "route": "中もず駅前→北条→堺市立総合医療センター前",
    "stop": "もず陵南町西",
    "passTime": "17:58",
    "vehicleType": "南海バス(車椅子・ベビーカー・ノンステップ)",
    "updateTime": "2026/07/22 18:00"
  },
  {
    "vehicleNum": "080483",
    "vehicleCd": "157",
    "vehicleCorpCd": "1",
    "running": true,
    "lat": 34.543278,
    "lon": 135.4845,
    "route": "堺市立総合医療センター前→北条→中もず駅前",
    "stop": "津久野中学校前",
    "passTime": "17:56",
    "vehicleType": "南海バス(車椅子・ベビーカー・ノンステップ)",
    "updateTime": "2026/07/22 18:00"
  },
  {
    "vehicleNum": "080627",
    "vehicleCd": "446",
    "vehicleCorpCd": "1",
    "running": true,
    "lat": 34.558583,
    "lon": 135.532778,
    "route": "地下鉄新金岡駅前→野遠→美原区役所",
    "stop": "八下中学校前",
    "passTime": "18:00",
    "vehicleType": "南海バス(車椅子・ベビーカー・ノンステップ)",
    "updateTime": "2026/07/22 18:00"
  },
  {
    "vehicleNum": "080643",
    "vehicleCd": "94",
    "vehicleCorpCd": "1",
    "running": true,
    "lat": 34.508889,
    "lon": 135.477389,
    "route": "国分峠東→栂・美木多駅→堺東駅前",
    "stop": "菱木",
    "passTime": "18:00",
    "vehicleType": "南海バス(車椅子・ベビーカー・ノンステップ)",
    "updateTime": "2026/07/22 18:00"
  },
  {
    "vehicleNum": "080640",
    "vehicleCd": "133",
    "vehicleCorpCd": "2",
    "running": true,
    "lat": 34.405694,
    "lon": 135.342083,
    "route": "泉佐野駅前→上瓦屋町→熊取駅前→熊取ニュータウン（フリー乗降）",
    "stop": "熊取駅前",
    "passTime": "17:59",
    "vehicleType": "南海ウイングバス(車椅子・ベビーカー・ノンステップ)",
    "updateTime": "2026/07/22 18:00"
  },
  {
    "vehicleNum": "080652",
    "vehicleCd": "456",
    "vehicleCorpCd": "1",
    "running": true,
    "lat": 34.552389,
    "lon": 135.541889,
    "route": "美原区役所→初芝駅前→美原区役所",
    "stop": "石原",
    "passTime": "18:00",
    "vehicleType": "南海バス",
    "updateTime": "2026/07/22 18:00"
  },
  {
    "vehicleNum": "080670",
    "vehicleCd": "507",
    "vehicleCorpCd": "1",
    "running": true,
    "lat": 34.596194,
    "lon": 135.440278,
    "route": "匠町→住之江公園駅前→匠町",
    "stop": "匠町",
    "passTime": "18:00",
    "vehicleType": "南海バス(車椅子・ベビーカー・ノンステップ)",
    "updateTime": "2026/07/22 18:00"
  },
  {
    "vehicleNum": "080705",
    "vehicleCd": "542",
    "vehicleCorpCd": "1",
    "running": true,
    "lat": 34.585083,
    "lon": 135.469389,
    "route": "匠町→堺駅西口→堺東駅前→阪和堺市駅前",
    "stop": "戎島",
    "passTime": "17:59",
    "vehicleType": "南海バス(車椅子・ベビーカー・ノンステップ)",
    "updateTime": "2026/07/22 18:00"
  },
  {
    "vehicleNum": "080710",
    "vehicleCd": "18",
    "vehicleCorpCd": "2",
    "running": true,
    "lat": 34.403,
    "lon": 135.351,
    "route": "熊取ニュータウン→熊取駅前→上瓦屋町→泉佐野駅前（フリー乗降）",
    "stop": "熊取役場前",
    "passTime": "17:58",
    "vehicleType": "南海ウイングバス(車椅子・ベビーカー・ノンステップ)",
    "updateTime": "2026/07/22 18:00"
  },
  {
    "vehicleNum": "080707",
    "vehicleCd": "544",
    "vehicleCorpCd": "1",
    "running": true,
    "lat": 34.565583,
    "lon": 135.492889,
    "route": "地下鉄新金岡駅前→堺駅南口",
    "stop": "向陵中町",
    "passTime": "17:57",
    "vehicleType": "南海バス(車椅子・ベビーカー・ノンステップ)",
    "updateTime": "2026/07/22 18:00"
  },
  {
    "vehicleNum": "080708",
    "vehicleCd": "537",
    "vehicleCorpCd": "1",
    "running": true,
    "lat": 34.484389,
    "lon": 135.544889,
    "route": "泉ヶ丘駅→狭山ニュータウンセンター→金剛駅前",
    "stop": "南中学校前",
    "passTime": "17:58",
    "vehicleType": "南海バス(車椅子・ベビーカー・ノンステップ)",
    "updateTime": "2026/07/22 18:00"
  },
  {
    "vehicleNum": "080734",
    "vehicleCd": "415",
    "vehicleCorpCd": "1",
    "running": true,
    "lat": 34.544194,
    "lon": 135.533694,
    "route": "美原区役所→初芝駅前→美原区役所",
    "stop": "初芝東",
    "passTime": "18:00",
    "vehicleType": "南海バス",
    "updateTime": "2026/07/22 18:00"
  },
  {
    "vehicleNum": "080744",
    "vehicleCd": "550",
    "vehicleCorpCd": "1",
    "running": true,
    "lat": 34.501583,
    "lon": 135.5225,
    "route": "泉ヶ丘駅→三原台左回り→泉ヶ丘駅",
    "stop": "三原台センター",
    "passTime": "18:00",
    "vehicleType": "南海バス(車椅子・ベビーカー・ノンステップ)",
    "updateTime": "2026/07/22 18:00"
  },
  {
    "vehicleNum": "080747",
    "vehicleCd": "161",
    "vehicleCorpCd": "1",
    "running": true,
    "lat": 34.536083,
    "lon": 135.555083,
    "route": "中もず駅前→初芝駅前→船戸下→美原区役所前",
    "stop": "黒山",
    "passTime": "18:00",
    "vehicleType": "南海バス(車椅子・ベビーカー・ノンステップ)",
    "updateTime": "2026/07/22 18:00"
  },
  {
    "vehicleNum": "080745",
    "vehicleCd": "57",
    "vehicleCorpCd": "1",
    "running": true,
    "lat": 34.498083,
    "lon": 135.544,
    "route": "金剛駅前→狭山ニュータウンセンター→泉ヶ丘駅",
    "stop": "狭山西小学校前",
    "passTime": "18:00",
    "vehicleType": "南海バス(車椅子・ベビーカー・ノンステップ)",
    "updateTime": "2026/07/22 18:00"
  },
  {
    "vehicleNum": "080750",
    "vehicleCd": "103",
    "vehicleCorpCd": "1",
    "running": true,
    "lat": 34.536194,
    "lon": 135.557278,
    "route": "美原区役所前→船戸下→初芝駅前→中もず駅前",
    "stop": "船戸下",
    "passTime": "17:59",
    "vehicleType": "南海バス(車椅子・ベビーカー・ノンステップ)",
    "updateTime": "2026/07/22 18:00"
  },
  {
    "vehicleNum": "080751",
    "vehicleCd": "551",
    "vehicleCorpCd": "1",
    "running": true,
    "lat": 34.557472,
    "lon": 135.506,
    "route": "美原区役所前→船戸下→初芝駅前→中もず駅前",
    "stop": "蟻ヶ池",
    "passTime": "17:55",
    "vehicleType": "南海バス(車椅子・ベビーカー・ノンステップ)",
    "updateTime": "2026/07/22 18:00"
  },
  {
    "vehicleNum": "080755",
    "vehicleCd": "170",
    "vehicleCorpCd": "1",
    "running": true,
    "lat": 34.499778,
    "lon": 135.564278,
    "route": "金剛駅前→高辺台小学校前→金剛駅前",
    "stop": "久野喜台小学校前",
    "passTime": "17:59",
    "vehicleType": "南海バス(車椅子・ベビーカー・ノンステップ)",
    "updateTime": "2026/07/22 18:00"
  },
  {
    "vehicleNum": "080760",
    "vehicleCd": "559",
    "vehicleCorpCd": "1",
    "running": true,
    "lat": 34.563583,
    "lon": 135.44,
    "route": "石津川駅前→臨港７区→臨港６区→石津川駅前",
    "stop": "築港新町３丁",
    "passTime": "18:00",
    "vehicleType": "南海バス(車椅子・ベビーカー・ノンステップ)",
    "updateTime": "2026/07/22 18:00"
  },
  {
    "vehicleNum": "080758",
    "vehicleCd": "511",
    "vehicleCorpCd": "1",
    "running": true,
    "lat": 34.532083,
    "lon": 135.470194,
    "route": "津久野駅前→堺市立総合医療センター前→泉北２号線→泉ヶ丘駅",
    "stop": "毛穴大橋",
    "passTime": "17:59",
    "vehicleType": "南海バス(車椅子・ベビーカー・ノンステップ)",
    "updateTime": "2026/07/22 18:00"
  },
  {
    "vehicleNum": "080762",
    "vehicleCd": "561",
    "vehicleCorpCd": "1",
    "running": true,
    "lat": 34.54,
    "lon": 135.463389,
    "route": "鳳駅前→堺東駅前",
    "stop": "鳳北口",
    "passTime": "17:59",
    "vehicleType": "南海バス(車椅子・ベビーカー・ノンステップ)",
    "updateTime": "2026/07/22 18:00"
  },
  {
    "vehicleNum": "080763",
    "vehicleCd": "562",
    "vehicleCorpCd": "1",
    "running": true,
    "lat": 34.515083,
    "lon": 135.4935,
    "route": "伏尾→北条→中もず駅前",
    "stop": "伏尾",
    "passTime": "17:58",
    "vehicleType": "南海バス(車椅子・ベビーカー・ノンステップ)",
    "updateTime": "2026/07/22 18:00"
  },
  {
    "vehicleNum": "080765",
    "vehicleCd": "564",
    "vehicleCorpCd": "1",
    "running": true,
    "lat": 34.528778,
    "lon": 135.5025,
    "route": "泉ヶ丘駅→田園→深井駅",
    "stop": "畑山",
    "passTime": "17:59",
    "vehicleType": "南海バス(車椅子・ベビーカー・ノンステップ)",
    "updateTime": "2026/07/22 18:00"
  },
  {
    "vehicleNum": "080764",
    "vehicleCd": "563",
    "vehicleCorpCd": "1",
    "running": true,
    "lat": 34.554083,
    "lon": 135.501694,
    "route": "堺駅南口→福町→北野田駅前",
    "stop": "中もず駅前（南側）",
    "passTime": "17:53",
    "vehicleType": "南海バス(車椅子・ベビーカー・ノンステップ)",
    "updateTime": "2026/07/22 18:00"
  },
  {
    "vehicleNum": "080787",
    "vehicleCd": "301",
    "vehicleCorpCd": "1",
    "running": true,
    "lat": 34.593389,
    "lon": 135.468389,
    "route": "匠町→堺駅西口→堺東駅前→阪和堺市駅前",
    "stop": "塩浜町",
    "passTime": "17:56",
    "vehicleType": "南海バス(車椅子・ベビーカー・ノンステップ)",
    "updateTime": "2026/07/22 18:00"
  },
  {
    "vehicleNum": "080789",
    "vehicleCd": "300",
    "vehicleCorpCd": "1",
    "running": true,
    "lat": 34.560083,
    "lon": 135.470778,
    "route": "堺駅前→堺駅南口",
    "stop": "協和町",
    "passTime": "17:59",
    "vehicleType": "南海バス(車椅子・ベビーカー・ノンステップ)",
    "updateTime": "2026/07/22 18:00"
  },
  {
    "vehicleNum": "080788",
    "vehicleCd": "299",
    "vehicleCorpCd": "1",
    "running": true,
    "lat": 34.555,
    "lon": 135.519,
    "route": "堺東駅前→白鷺駅前→堺東駅前（循環）",
    "stop": "金岡町",
    "passTime": "18:00",
    "vehicleType": "南海バス(車椅子・ベビーカー・ノンステップ)",
    "updateTime": "2026/07/22 18:00"
  },
  {
    "vehicleNum": "080790",
    "vehicleCd": "106",
    "vehicleCorpCd": "1",
    "running": true,
    "lat": 34.593278,
    "lon": 135.452,
    "route": "堺東駅前→材木町→堺駅西口",
    "stop": "堺浜シーサイドステージ",
    "passTime": "17:56",
    "vehicleType": "南海バス(車椅子・ベビーカー・ノンステップ)",
    "updateTime": "2026/07/22 18:00"
  },
  {
    "vehicleNum": "080793",
    "vehicleCd": "112",
    "vehicleCorpCd": "1",
    "running": true,
    "lat": 34.593194,
    "lon": 135.4515,
    "route": "匠町→堺駅西口→堺東駅前→阪和堺市駅前",
    "stop": "匠町",
    "passTime": "17:55",
    "vehicleType": "南海バス(車椅子・ベビーカー・ノンステップ)",
    "updateTime": "2026/07/22 18:00"
  },
  {
    "vehicleNum": "080796",
    "vehicleCd": "108",
    "vehicleCorpCd": "1",
    "running": true,
    "lat": 34.566583,
    "lon": 135.510389,
    "route": "堺駅南口→近畿中央呼吸器センター前→地下鉄新金岡駅前",
    "stop": "長曽根住宅前",
    "passTime": "17:59",
    "vehicleType": "南海バス(車椅子・ベビーカー・ノンステップ)",
    "updateTime": "2026/07/22 18:00"
  },
  {
    "vehicleNum": "080798",
    "vehicleCd": "107",
    "vehicleCorpCd": "1",
    "running": true,
    "lat": 34.599389,
    "lon": 135.4285,
    "route": "【急行】海浜匠町→阪和堺市駅前",
    "stop": "海浜匠町",
    "passTime": "18:00",
    "vehicleType": "南海バス(車椅子・ベビーカー・ノンステップ)",
    "updateTime": "2026/07/22 18:00"
  },
  {
    "vehicleNum": "080799",
    "vehicleCd": "339",
    "vehicleCorpCd": "1",
    "running": true,
    "lat": 34.5745,
    "lon": 135.482194,
    "route": "堺駅南口→堺駅前",
    "stop": "栄泰橋",
    "passTime": "17:54",
    "vehicleType": "南海バス(車椅子・ベビーカー・ノンステップ)",
    "updateTime": "2026/07/22 18:00"
  },
  {
    "vehicleNum": "080806",
    "vehicleCd": "307",
    "vehicleCorpCd": "1",
    "running": true,
    "lat": 34.575,
    "lon": 135.556889,
    "route": "堺東駅前→河内松原駅前",
    "stop": "高見の里駅前",
    "passTime": "17:53",
    "vehicleType": "南海バス(車椅子・ベビーカー・ノンステップ)",
    "updateTime": "2026/07/22 18:00"
  },
  {
    "vehicleNum": "080808",
    "vehicleCd": "216",
    "vehicleCorpCd": "1",
    "running": true,
    "lat": 34.574694,
    "lon": 135.502583,
    "route": "河内松原駅前→阪和堺市駅前→堺駅前",
    "stop": "長尾町",
    "passTime": "18:00",
    "vehicleType": "南海バス(車椅子・ベビーカー・ノンステップ)",
    "updateTime": "2026/07/22 18:00"
  },
  {
    "vehicleNum": "080813",
    "vehicleCd": "269",
    "vehicleCorpCd": "1",
    "running": true,
    "lat": 34.565694,
    "lon": 135.494,
    "route": "近畿中央呼吸器センター前→三国ヶ丘駅前",
    "stop": "向陵中町",
    "passTime": "17:59",
    "vehicleType": "南海バス(車椅子・ベビーカー・ノンステップ)",
    "updateTime": "2026/07/22 18:00"
  },
  {
    "vehicleNum": "080809",
    "vehicleCd": "215",
    "vehicleCorpCd": "1",
    "running": true,
    "lat": 34.595,
    "lon": 135.447083,
    "route": "堺駅西口→錦綾町→堺東駅前",
    "stop": "八幡町",
    "passTime": "17:55",
    "vehicleType": "南海バス(車椅子・ベビーカー・ノンステップ)",
    "updateTime": "2026/07/22 18:00"
  },
  {
    "vehicleNum": "080822",
    "vehicleCd": "576",
    "vehicleCorpCd": "1",
    "running": true,
    "lat": 34.521278,
    "lon": 135.5205,
    "route": "深井駅→東山車庫前→北野田駅前",
    "stop": "金山",
    "passTime": "18:00",
    "vehicleType": "南海バス(車椅子・ベビーカー・ノンステップ)",
    "updateTime": "2026/07/22 18:00"
  },
  {
    "vehicleNum": "080815",
    "vehicleCd": "575",
    "vehicleCorpCd": "1",
    "running": true,
    "lat": 34.470583,
    "lon": 135.494,
    "route": "栂・美木多駅→御池台回り→栂・美木多駅",
    "stop": "庭代台１丁南",
    "passTime": "17:59",
    "vehicleType": "南海バス(車椅子・ベビーカー・ノンステップ)",
    "updateTime": "2026/07/22 18:00"
  },
  {
    "vehicleNum": "080825",
    "vehicleCd": "261",
    "vehicleCorpCd": "1",
    "running": true,
    "lat": 34.577083,
    "lon": 135.469694,
    "route": "北野田駅前→西口園→堺駅南口",
    "stop": "川尻",
    "passTime": "18:00",
    "vehicleType": "南海バス(車椅子・ベビーカー・ノンステップ)",
    "updateTime": "2026/07/22 18:00"
  },
  {
    "vehicleNum": "080836",
    "vehicleCd": "268",
    "vehicleCorpCd": "1",
    "running": true,
    "lat": 34.575083,
    "lon": 135.518472,
    "route": "堺駅前→堺東駅前→河内松原駅前",
    "stop": "蔵前西",
    "passTime": "17:56",
    "vehicleType": "南海バス(車椅子・ベビーカー・ノンステップ)",
    "updateTime": "2026/07/22 18:00"
  },
  {
    "vehicleNum": "080838",
    "vehicleCd": "129",
    "vehicleCorpCd": "1",
    "running": true,
    "lat": 34.576583,
    "lon": 135.495194,
    "route": "地下鉄北花田駅前→蔵前西→ＪＲ堺市駅前→地下鉄北花田駅前",
    "stop": "阪和堺市駅筋",
    "passTime": "17:58",
    "vehicleType": "南海バス(車椅子・ベビーカー・ノンステップ)",
    "updateTime": "2026/07/22 18:00"
  },
  {
    "vehicleNum": "080835",
    "vehicleCd": "310",
    "vehicleCorpCd": "1",
    "running": true,
    "lat": 34.499694,
    "lon": 135.563889,
    "route": "金剛駅前→高辺台小学校前→金剛駅前",
    "stop": "久野喜台小学校前",
    "passTime": "18:00",
    "vehicleType": "南海バス(車椅子・ベビーカー・ノンステップ)",
    "updateTime": "2026/07/22 18:00"
  },
  {
    "vehicleNum": "080837",
    "vehicleCd": "351",
    "vehicleCorpCd": "1",
    "running": true,
    "lat": 34.5435,
    "lon": 135.485583,
    "route": "泉ヶ丘駅→宮山台中学校前→堺東駅前",
    "stop": "北深井",
    "passTime": "17:59",
    "vehicleType": "南海バス(車椅子・ベビーカー・ノンステップ)",
    "updateTime": "2026/07/22 18:00"
  },
  {
    "vehicleNum": "080844",
    "vehicleCd": "581",
    "vehicleCorpCd": "1",
    "running": true,
    "lat": 34.497194,
    "lon": 135.569583,
    "route": "金剛駅前→向陽・藤沢回り→金剛駅前",
    "stop": "高辺台三丁目",
    "passTime": "18:00",
    "vehicleType": "南海バス(車椅子・ベビーカー・ノンステップ)",
    "updateTime": "2026/07/22 18:00"
  },
  {
    "vehicleNum": "080847",
    "vehicleCd": "583",
    "vehicleCorpCd": "1",
    "running": true,
    "lat": 34.519778,
    "lon": 135.4775,
    "route": "泉ヶ丘駅→泉北２号線→津久野駅前",
    "stop": "八田西団地",
    "passTime": "18:00",
    "vehicleType": "南海バス(車椅子・ベビーカー・ノンステップ)",
    "updateTime": "2026/07/22 18:00"
  },
  {
    "vehicleNum": "080851",
    "vehicleCd": "439",
    "vehicleCorpCd": "1",
    "running": true,
    "lat": 34.497194,
    "lon": 135.5695,
    "route": "金剛駅前→向陽・藤沢回り→金剛駅前",
    "stop": "高辺台三丁目",
    "passTime": "17:59",
    "vehicleType": "南海バス(車椅子・ベビーカー・ノンステップ)",
    "updateTime": "2026/07/22 18:00"
  },
  {
    "vehicleNum": "080854",
    "vehicleCd": "17",
    "vehicleCorpCd": "1",
    "running": true,
    "lat": 34.604194,
    "lon": 135.472778,
    "route": "匠町→住之江公園駅前→匠町",
    "stop": "松屋大和川通３丁",
    "passTime": "17:55",
    "vehicleType": "南海バス(車椅子・ベビーカー・ノンステップ)",
    "updateTime": "2026/07/22 18:00"
  },
  {
    "vehicleNum": "080857",
    "vehicleCd": "226",
    "vehicleCorpCd": "1",
    "running": true,
    "lat": 34.591,
    "lon": 135.475583,
    "route": "堺東駅前→錦綾町→堺駅西口",
    "stop": "内川橋",
    "passTime": "17:58",
    "vehicleType": "南海バス(車椅子・ベビーカー・ノンステップ)",
    "updateTime": "2026/07/22 18:00"
  },
  {
    "vehicleNum": "080856",
    "vehicleCd": "358",
    "vehicleCorpCd": "1",
    "running": true,
    "lat": 34.491278,
    "lon": 135.524778,
    "route": "泉ヶ丘駅→スマ・エコタウン晴美台→高倉台左回り→泉ヶ丘駅",
    "stop": "高倉台３丁",
    "passTime": "18:00",
    "vehicleType": "南海バス(車椅子・ベビーカー・ワンステップ)",
    "updateTime": "2026/07/22 18:00"
  },
  {
    "vehicleNum": "080858",
    "vehicleCd": "225",
    "vehicleCorpCd": "1",
    "running": true,
    "lat": 34.581889,
    "lon": 135.475889,
    "route": "匠町→堺駅西口→堺東駅前→阪和堺市駅前",
    "stop": "花田口",
    "passTime": "18:00",
    "vehicleType": "南海バス(車椅子・ベビーカー・ノンステップ)",
    "updateTime": "2026/07/22 18:00"
  },
  {
    "vehicleNum": "080859",
    "vehicleCd": "227",
    "vehicleCorpCd": "1",
    "running": true,
    "lat": 34.589,
    "lon": 135.528778,
    "route": "河内天美駅前→天美我堂→堺東駅前",
    "stop": "天美西",
    "passTime": "18:00",
    "vehicleType": "南海バス(車椅子・ベビーカー・ノンステップ)",
    "updateTime": "2026/07/22 18:00"
  },
  {
    "vehicleNum": "080863",
    "vehicleCd": "249",
    "vehicleCorpCd": "1",
    "running": true,
    "lat": 34.566194,
    "lon": 135.516583,
    "route": "阪和堺市駅前→堺駅南口",
    "stop": "地下鉄新金岡駅前",
    "passTime": "17:58",
    "vehicleType": "南海バス(車椅子・ベビーカー・ノンステップ)",
    "updateTime": "2026/07/22 18:00"
  },
  {
    "vehicleNum": "080864",
    "vehicleCd": "146",
    "vehicleCorpCd": "1",
    "running": true,
    "lat": 34.592694,
    "lon": 135.454694,
    "route": "【急行】海浜匠町→堺東駅前→阪和堺市駅前",
    "stop": "海浜匠町",
    "passTime": "17:50",
    "vehicleType": "南海バス(車椅子・ベビーカー・ノンステップ)",
    "updateTime": "2026/07/22 18:00"
  },
  {
    "vehicleNum": "080865",
    "vehicleCd": "504",
    "vehicleCorpCd": "1",
    "running": true,
    "lat": 34.599278,
    "lon": 135.4285,
    "route": "【急行】海浜匠町→堺駅西口",
    "stop": "海浜匠町",
    "passTime": "18:00",
    "vehicleType": "南海バス(車椅子・ベビーカー・ノンステップ)",
    "updateTime": "2026/07/22 18:00"
  },
  {
    "vehicleNum": "080866",
    "vehicleCd": "497",
    "vehicleCorpCd": "1",
    "running": true,
    "lat": 34.490083,
    "lon": 135.562694,
    "route": "金剛駅前→寺池台小学校前→金剛駅前",
    "stop": "寺ヶ池",
    "passTime": "17:58",
    "vehicleType": "南海バス(車椅子・ベビーカー・ノンステップ)",
    "updateTime": "2026/07/22 18:00"
  },
  {
    "vehicleNum": "080870",
    "vehicleCd": "153",
    "vehicleCorpCd": "1",
    "running": true,
    "lat": 34.5655,
    "lon": 135.492889,
    "route": "堺東駅前→白鷺駅前→堺東駅前（循環）",
    "stop": "細池橋",
    "passTime": "17:54",
    "vehicleType": "南海バス(車椅子・ベビーカー・ノンステップ)",
    "updateTime": "2026/07/22 18:00"
  },
  {
    "vehicleNum": "080878",
    "vehicleCd": "368",
    "vehicleCorpCd": "1",
    "running": true,
    "lat": 34.569889,
    "lon": 135.481,
    "route": "泉ヶ丘駅→宮山台中学校前→堺東駅前",
    "stop": "一条通",
    "passTime": "18:00",
    "vehicleType": "南海バス(車椅子・ベビーカー・ノンステップ)",
    "updateTime": "2026/07/22 18:00"
  },
  {
    "vehicleNum": "080877",
    "vehicleCd": "588",
    "vehicleCorpCd": "1",
    "running": true,
    "lat": 34.564583,
    "lon": 135.492389,
    "route": "堺駅南口→三国ヶ丘駅前→北野田駅前",
    "stop": "三国ヶ丘駅前",
    "passTime": "18:00",
    "vehicleType": "南海バス(車椅子・ベビーカー・ノンステップ)",
    "updateTime": "2026/07/22 18:00"
  },
  {
    "vehicleNum": "080876",
    "vehicleCd": "390",
    "vehicleCorpCd": "1",
    "running": true,
    "lat": 34.516694,
    "lon": 135.477,
    "route": "北野田駅前→福町→深井駅→鳳駅前",
    "stop": "万崎東",
    "passTime": "18:00",
    "vehicleType": "南海バス(車椅子・ベビーカー・ノンステップ)",
    "updateTime": "2026/07/22 18:00"
  },
  {
    "vehicleNum": "080873",
    "vehicleCd": "144",
    "vehicleCorpCd": "1",
    "running": true,
    "lat": 34.483194,
    "lon": 135.517694,
    "route": "泉ヶ丘駅→槙塚台左回り→泉ヶ丘駅",
    "stop": "槙塚台２丁北",
    "passTime": "18:00",
    "vehicleType": "南海バス(車椅子・ベビーカー・ノンステップ)",
    "updateTime": "2026/07/22 18:00"
  },
  {
    "vehicleNum": "080879",
    "vehicleCd": "359",
    "vehicleCorpCd": "1",
    "running": true,
    "lat": 34.569583,
    "lon": 135.480778,
    "route": "堺東駅前→上野芝駅前→東山車庫前",
    "stop": "一条通",
    "passTime": "18:00",
    "vehicleType": "南海バス(車椅子・ベビーカー・ノンステップ)",
    "updateTime": "2026/07/22 18:01"
  },
  {
    "vehicleNum": "080882",
    "vehicleCd": "343",
    "vehicleCorpCd": "1",
    "running": true,
    "lat": 34.535889,
    "lon": 135.476278,
    "route": "津久野駅前→堺市立総合医療センター前→八田荘団地→泉ヶ丘駅",
    "stop": "平岡町",
    "passTime": "18:00",
    "vehicleType": "南海バス(車椅子・ベビーカー・ノンステップ)",
    "updateTime": "2026/07/22 18:01"
  },
  {
    "vehicleNum": "080894",
    "vehicleCd": "350",
    "vehicleCorpCd": "1",
    "running": true,
    "lat": 34.564194,
    "lon": 135.5175,
    "route": "美原区役所→野遠→地下鉄新金岡駅前",
    "stop": "金岡口",
    "passTime": "17:58",
    "vehicleType": "南海バス(車椅子・ベビーカー・ノンステップ)",
    "updateTime": "2026/07/22 18:01"
  },
  {
    "vehicleNum": "080884",
    "vehicleCd": "116",
    "vehicleCorpCd": "1",
    "running": true,
    "lat": 34.4865,
    "lon": 135.519694,
    "route": "泉ヶ丘駅→槙塚台左回り→泉ヶ丘駅",
    "stop": "茶山台南口",
    "passTime": "17:59",
    "vehicleType": "南海バス(車椅子・ベビーカー・ノンステップ)",
    "updateTime": "2026/07/22 18:01"
  },
  {
    "vehicleNum": "080895",
    "vehicleCd": "167",
    "vehicleCorpCd": "1",
    "running": true,
    "lat": 34.539778,
    "lon": 135.547,
    "route": "北野田駅前→多治井北（循環）→北野田駅前",
    "stop": "北余部北",
    "passTime": "18:00",
    "vehicleType": "南海バス(車椅子・ベビーカー・ノンステップ)",
    "updateTime": "2026/07/22 18:01"
  },
  {
    "vehicleNum": "080900",
    "vehicleCd": "386",
    "vehicleCorpCd": "1",
    "running": true,
    "lat": 34.593583,
    "lon": 135.467694,
    "route": "【急行】海浜匠町→堺駅西口",
    "stop": "海浜匠町",
    "passTime": "17:41",
    "vehicleType": "南海バス(車椅子・ベビーカー・ワンステップ)",
    "updateTime": "2026/07/22 18:01"
  },
  {
    "vehicleNum": "080899",
    "vehicleCd": "498",
    "vehicleCorpCd": "1",
    "running": true,
    "lat": 34.5775,
    "lon": 135.4815,
    "route": "【急行】海浜匠町→堺東駅前→阪和堺市駅前",
    "stop": "瓦町公園前",
    "passTime": "17:57",
    "vehicleType": "南海バス(車椅子・ベビーカー・ワンステップ)",
    "updateTime": "2026/07/22 18:01"
  },
  {
    "vehicleNum": "080902",
    "vehicleCd": "76",
    "vehicleCorpCd": "1",
    "running": true,
    "lat": 34.592778,
    "lon": 135.457389,
    "route": "【急行】海浜匠町→堺駅西口",
    "stop": "海浜匠町",
    "passTime": "17:48",
    "vehicleType": "南海バス(車椅子・ベビーカー・ワンステップ)",
    "updateTime": "2026/07/22 18:01"
  },
  {
    "vehicleNum": "080903",
    "vehicleCd": "354",
    "vehicleCorpCd": "1",
    "running": true,
    "lat": 34.591389,
    "lon": 135.474389,
    "route": "【急行】海浜匠町→堺東駅前→阪和堺市駅前",
    "stop": "海浜匠町",
    "passTime": "17:40",
    "vehicleType": "南海バス(車椅子・ベビーカー・ワンステップ)",
    "updateTime": "2026/07/22 18:01"
  },
  {
    "vehicleNum": "080912",
    "vehicleCd": "372",
    "vehicleCorpCd": "1",
    "running": true,
    "lat": 34.594889,
    "lon": 135.443583,
    "route": "【急行】海浜匠町→堺駅西口",
    "stop": "海浜匠町",
    "passTime": "17:55",
    "vehicleType": "南海バス(車椅子・ベビーカー・ノンステップ)",
    "updateTime": "2026/07/22 18:01"
  },
  {
    "vehicleNum": "080911",
    "vehicleCd": "240",
    "vehicleCorpCd": "1",
    "running": true,
    "lat": 34.599278,
    "lon": 135.4285,
    "route": "【急行】海浜匠町→堺東駅前→阪和堺市駅前",
    "stop": "海浜匠町",
    "passTime": "18:00",
    "vehicleType": "南海バス(車椅子・ベビーカー・ノンステップ)",
    "updateTime": "2026/07/22 18:01"
  },
  {
    "vehicleNum": "080905",
    "vehicleCd": "353",
    "vehicleCorpCd": "1",
    "running": true,
    "lat": 34.498694,
    "lon": 135.554583,
    "route": "泉ヶ丘駅→帝塚山学院泉ヶ丘校前→金剛駅前",
    "stop": "北村",
    "passTime": "18:00",
    "vehicleType": "南海バス(車椅子・ベビーカー・ノンステップ)",
    "updateTime": "2026/07/22 18:01"
  },
  {
    "vehicleNum": "080913",
    "vehicleCd": "128",
    "vehicleCorpCd": "1",
    "running": true,
    "lat": 34.575278,
    "lon": 135.484,
    "route": "【急行】海浜匠町→堺東駅前→阪和堺市駅前",
    "stop": "堺東駅前",
    "passTime": "18:00",
    "vehicleType": "南海バス(車椅子・ベビーカー・ノンステップ)",
    "updateTime": "2026/07/22 18:01"
  },
  {
    "vehicleNum": "080917",
    "vehicleCd": "70",
    "vehicleCorpCd": "1",
    "running": true,
    "lat": 34.487778,
    "lon": 135.513194,
    "route": "泉ヶ丘駅→若松台左回り→泉ヶ丘駅",
    "stop": "若松台中学校前",
    "passTime": "18:00",
    "vehicleType": "南海バス(車椅子・ベビーカー・ノンステップ)",
    "updateTime": "2026/07/22 18:01"
  },
  {
    "vehicleNum": "080918",
    "vehicleCd": "419",
    "vehicleCorpCd": "1",
    "running": true,
    "lat": 34.576889,
    "lon": 135.481083,
    "route": "堺駅前→堺東駅前→河内松原駅前",
    "stop": "瓦町公園前",
    "passTime": "17:58",
    "vehicleType": "南海バス(車椅子・ベビーカー・ノンステップ)",
    "updateTime": "2026/07/22 18:01"
  },
  {
    "vehicleNum": "080927",
    "vehicleCd": "79",
    "vehicleCorpCd": "1",
    "running": true,
    "lat": 34.501194,
    "lon": 135.540583,
    "route": "泉ヶ丘駅→近大キャンパス前→金剛駅前",
    "stop": "近大おおさかメディカルキャンパス前",
    "passTime": "17:46",
    "vehicleType": "南海バス(車椅子・ベビーカー・ノンステップ)",
    "updateTime": "2026/07/22 18:01"
  },
  {
    "vehicleNum": "080920",
    "vehicleCd": "327",
    "vehicleCorpCd": "1",
    "running": true,
    "lat": 34.499278,
    "lon": 135.543889,
    "route": "金剛駅前→帝塚山学院泉ヶ丘校前→泉ヶ丘駅前",
    "stop": "狭山西小学校前",
    "passTime": "18:00",
    "vehicleType": "南海バス(車椅子・ベビーカー・ノンステップ)",
    "updateTime": "2026/07/22 18:01"
  },
  {
    "vehicleNum": "080935",
    "vehicleCd": "593",
    "vehicleCorpCd": "1",
    "running": true,
    "lat": 34.609,
    "lon": 135.473583,
    "route": "匠町→住之江公園駅前",
    "stop": "松屋大和川通３丁",
    "passTime": "17:47",
    "vehicleType": "南海バス(車椅子・ベビーカー・ノンステップ)",
    "updateTime": "2026/07/22 18:01"
  },
  {
    "vehicleNum": "080950",
    "vehicleCd": "513",
    "vehicleCorpCd": "1",
    "running": true,
    "lat": 34.568194,
    "lon": 135.471389,
    "route": "堺駅前→堺駅南口",
    "stop": "栄泰橋",
    "passTime": "17:59",
    "vehicleType": "南海バス(車椅子・ベビーカー・ノンステップ)",
    "updateTime": "2026/07/22 18:01"
  },
  {
    "vehicleNum": "080951",
    "vehicleCd": "597",
    "vehicleCorpCd": "1",
    "running": true,
    "lat": 34.471778,
    "lon": 135.496889,
    "route": "栂・美木多駅→庭代台左回り→栂・美木多駅",
    "stop": "庭代台西口",
    "passTime": "17:59",
    "vehicleType": "南海バス(車椅子・ベビーカー・ノンステップ)",
    "updateTime": "2026/07/22 18:01"
  },
  {
    "vehicleNum": "080958",
    "vehicleCd": "603",
    "vehicleCorpCd": "1",
    "running": true,
    "lat": 34.581583,
    "lon": 135.47,
    "route": "堺東駅前→ＡＴＣ",
    "stop": "堺駅前",
    "passTime": "18:00",
    "vehicleType": "南海バス",
    "updateTime": "2026/07/22 18:01"
  },
  {
    "vehicleNum": "080956",
    "vehicleCd": "71",
    "vehicleCorpCd": "1",
    "running": true,
    "lat": 34.604,
    "lon": 135.459889,
    "route": "ＡＴＣ→堺東駅前",
    "stop": "ポートタウン東",
    "passTime": "17:44",
    "vehicleType": "南海バス",
    "updateTime": "2026/07/22 18:01"
  },
  {
    "vehicleNum": "080967",
    "vehicleCd": "605",
    "vehicleCorpCd": "1",
    "running": true,
    "lat": 34.536694,
    "lon": 135.547083,
    "route": "初芝駅前→平尾→初芝駅前",
    "stop": "北余部",
    "passTime": "18:00",
    "vehicleType": "南海バス(車椅子・ベビーカー・ノンステップ)",
    "updateTime": "2026/07/22 18:01"
  },
  {
    "vehicleNum": "080968",
    "vehicleCd": "424",
    "vehicleCorpCd": "1",
    "running": true,
    "lat": 34.569472,
    "lon": 135.482889,
    "route": "北野田駅前→福町→堺駅南口",
    "stop": "一条通",
    "passTime": "18:00",
    "vehicleType": "南海バス(車椅子・ベビーカー・ノンステップ)",
    "updateTime": "2026/07/22 18:01"
  },
  {
    "vehicleNum": "080978",
    "vehicleCd": "431",
    "vehicleCorpCd": "1",
    "running": true,
    "lat": 34.526583,
    "lon": 135.5055,
    "route": "堺東駅前→もず駅前→深井駅→あみだ池",
    "stop": "畑山",
    "passTime": "17:59",
    "vehicleType": "南海バス(車椅子・ベビーカー・ノンステップ)",
    "updateTime": "2026/07/22 18:01"
  },
  {
    "vehicleNum": "080977",
    "vehicleCd": "388",
    "vehicleCorpCd": "1",
    "running": true,
    "lat": 34.544083,
    "lon": 135.4855,
    "route": "堺東駅前→上野芝→泉ヶ丘駅",
    "stop": "向ヶ丘",
    "passTime": "17:59",
    "vehicleType": "南海バス(車椅子・ベビーカー・ノンステップ)",
    "updateTime": "2026/07/22 18:01"
  },
  {
    "vehicleNum": "080994",
    "vehicleCd": "130",
    "vehicleCorpCd": "1",
    "running": true,
    "lat": 34.494389,
    "lon": 135.529694,
    "route": "泉ヶ丘駅→晴美台右回り→泉ヶ丘駅",
    "stop": "高倉台４丁",
    "passTime": "17:58",
    "vehicleType": "南海バス(車椅子・ベビーカー・ノンステップ)",
    "updateTime": "2026/07/22 18:01"
  },
  {
    "vehicleNum": "080996",
    "vehicleCd": "191",
    "vehicleCorpCd": "1",
    "running": true,
    "lat": 34.527889,
    "lon": 135.471,
    "route": "深井駅→八田荘団地→津久野駅前",
    "stop": "毛穴なかよし橋",
    "passTime": "17:58",
    "vehicleType": "南海バス(車椅子・ベビーカー・ノンステップ)",
    "updateTime": "2026/07/22 18:01"
  },
  {
    "vehicleNum": "081003",
    "vehicleCd": "610",
    "vehicleCorpCd": "1",
    "running": true,
    "lat": 34.540083,
    "lon": 135.454389,
    "route": "堺東駅前→鳳西町南",
    "stop": "浜寺元町北",
    "passTime": "17:59",
    "vehicleType": "南海バス(車椅子・ベビーカー・ノンステップ)",
    "updateTime": "2026/07/22 18:01"
  },
  {
    "vehicleNum": "081004",
    "vehicleCd": "271",
    "vehicleCorpCd": "1",
    "running": true,
    "lat": 34.537389,
    "lon": 135.515778,
    "route": "北野田駅前→福町→堺駅南口",
    "stop": "大野芝",
    "passTime": "18:00",
    "vehicleType": "南海バス(車椅子・ベビーカー・ノンステップ)",
    "updateTime": "2026/07/22 18:01"
  },
  {
    "vehicleNum": "081007",
    "vehicleCd": "127",
    "vehicleCorpCd": "1",
    "running": true,
    "lat": 34.554,
    "lon": 135.470083,
    "route": "東山車庫前→小阪→堺東駅前",
    "stop": "南陵通４丁",
    "passTime": "17:59",
    "vehicleType": "南海バス(車椅子・ベビーカー・ノンステップ)",
    "updateTime": "2026/07/22 18:01"
  },
  {
    "vehicleNum": "081014",
    "vehicleCd": "229",
    "vehicleCorpCd": "1",
    "running": true,
    "lat": 34.533278,
    "lon": 135.478083,
    "route": "堺東駅前→堀上緑町１丁→堺東駅前",
    "stop": "堀上緑町一丁（６０号棟前）",
    "passTime": "18:00",
    "vehicleType": "南海バス(車椅子・ベビーカー・ノンステップ)",
    "updateTime": "2026/07/22 18:01"
  },
  {
    "vehicleNum": "081021",
    "vehicleCd": "243",
    "vehicleCorpCd": "1",
    "running": true,
    "lat": 34.552972,
    "lon": 135.502889,
    "route": "北野田駅前→西口園→堺駅南口",
    "stop": "中もず駅前通",
    "passTime": "17:59",
    "vehicleType": "南海バス(車椅子・ベビーカー・ノンステップ)",
    "updateTime": "2026/07/22 18:01"
  },
  {
    "vehicleNum": "081038",
    "vehicleCd": "126",
    "vehicleCorpCd": "1",
    "running": true,
    "lat": 34.521889,
    "lon": 135.527694,
    "route": "北野田駅前→福町→深井駅",
    "stop": "福町",
    "passTime": "17:59",
    "vehicleType": "南海バス(車椅子・ベビーカー・ノンステップ)",
    "updateTime": "2026/07/22 18:01"
  },
  {
    "vehicleNum": "081035",
    "vehicleCd": "491",
    "vehicleCorpCd": "1",
    "running": true,
    "lat": 34.467194,
    "lon": 135.496583,
    "route": "栂・美木多駅→御池台回り→栂・美木多駅",
    "stop": "庭代台１丁南",
    "passTime": "18:00",
    "vehicleType": "南海バス(車椅子・ベビーカー・ノンステップ)",
    "updateTime": "2026/07/22 18:01"
  },
  {
    "vehicleNum": "081036",
    "vehicleCd": "293",
    "vehicleCorpCd": "1",
    "running": true,
    "lat": 34.4885,
    "lon": 135.500083,
    "route": "畑→片蔵→泉ヶ丘駅",
    "stop": "片蔵",
    "passTime": "17:59",
    "vehicleType": "南海バス(車椅子・ベビーカー・ノンステップ)",
    "updateTime": "2026/07/22 18:01"
  },
  {
    "vehicleNum": "081043",
    "vehicleCd": "612",
    "vehicleCorpCd": "1",
    "running": true,
    "lat": 34.480889,
    "lon": 135.491083,
    "route": "泉ヶ丘駅→庭代台右回り→栂・美木多駅",
    "stop": "原山公園前",
    "passTime": "18:00",
    "vehicleType": "南海バス(車椅子・ベビーカー・ノンステップ)",
    "updateTime": "2026/07/22 18:01"
  },
  {
    "vehicleNum": "081044",
    "vehicleCd": "132",
    "vehicleCorpCd": "1",
    "running": true,
    "lat": 34.534389,
    "lon": 135.486194,
    "route": "泉ヶ丘駅→深阪→津久野駅前",
    "stop": "中深井西",
    "passTime": "18:00",
    "vehicleType": "南海バス(車椅子・ベビーカー・ノンステップ)",
    "updateTime": "2026/07/22 18:01"
  },
  {
    "vehicleNum": "090103",
    "vehicleCd": "49",
    "vehicleCorpCd": "2",
    "running": true,
    "lat": 34.461194,
    "lon": 135.426778,
    "route": "和泉中央駅→荒木町→岸和田駅前",
    "stop": "三田",
    "passTime": "18:00",
    "vehicleType": "南海ウイングバス(車椅子・ベビーカー・ワンステップ)",
    "updateTime": "2026/07/22 18:01"
  },
  {
    "vehicleNum": "090331",
    "vehicleCd": "197",
    "vehicleCorpCd": "1",
    "running": true,
    "lat": 34.426583,
    "lon": 135.227583,
    "route": "給油地区→ＦｅｄＥｘ→空港駅",
    "stop": "貨物合同庁舎前",
    "passTime": "18:00",
    "vehicleType": "南海バス(車椅子・ベビーカー・ワンステップ)",
    "updateTime": "2026/07/22 18:01"
  },
  {
    "vehicleNum": "090289",
    "vehicleCd": "9",
    "vehicleCorpCd": "2",
    "running": true,
    "lat": 34.367889,
    "lon": 135.276194,
    "route": "泉南市コミュニティバス 一丘Ａ回り",
    "stop": "保健センター下",
    "passTime": "18:01",
    "vehicleType": "南海ウイングバス(車椅子・ベビーカー・ノンステップ)",
    "updateTime": "2026/07/22 18:01"
  },
  {
    "vehicleNum": "091069",
    "vehicleCd": "245",
    "vehicleCorpCd": "1",
    "running": true,
    "lat": 34.501694,
    "lon": 135.453,
    "route": "北信太駅筋→鶴山台団地→北信太駅筋",
    "stop": "鶴山台二丁目",
    "passTime": "18:01",
    "vehicleType": "南海バス(車椅子・ベビーカー・ワンステップ)",
    "updateTime": "2026/07/22 18:01"
  },
  {
    "vehicleNum": "091186",
    "vehicleCd": "106",
    "vehicleCorpCd": "2",
    "running": true,
    "lat": 34.446694,
    "lon": 135.385694,
    "route": "岸和田駅前→天神山・一の宮循環　右回り→岸和田駅前",
    "stop": "旭小学校前",
    "passTime": "17:57",
    "vehicleType": "南海ウイングバス(車椅子・ベビーカー・ワンステップ)",
    "updateTime": "2026/07/22 18:01"
  },
  {
    "vehicleNum": "091381",
    "vehicleCd": "330",
    "vehicleCorpCd": "1",
    "running": true,
    "lat": 34.533472,
    "lon": 135.463278,
    "route": "堺東駅前→鳳駅前→光明池駅",
    "stop": "西区役所前",
    "passTime": "17:59",
    "vehicleType": "南海バス(車椅子・ベビーカー・ワンステップ)",
    "updateTime": "2026/07/22 18:01"
  },
  {
    "vehicleNum": "091445",
    "vehicleCd": "426",
    "vehicleCorpCd": "1",
    "running": true,
    "lat": 34.458583,
    "lon": 135.555389,
    "route": "千代田駅前→赤峯→荘園町",
    "stop": "小山田口",
    "passTime": "18:00",
    "vehicleType": "南海バス(車椅子・ベビーカー・ノンステップ)",
    "updateTime": "2026/07/22 18:01"
  },
  {
    "vehicleNum": "091581",
    "vehicleCd": "198",
    "vehicleCorpCd": "1",
    "running": true,
    "lat": 34.425583,
    "lon": 135.231194,
    "route": "貨物合同庁舎前→空港駅",
    "stop": "JAL輸出ビル前",
    "passTime": "18:00",
    "vehicleType": "南海バス(車椅子・ノンステップ)",
    "updateTime": "2026/07/22 18:01"
  },
  {
    "vehicleNum": "091580",
    "vehicleCd": "85",
    "vehicleCorpCd": "2",
    "running": true,
    "lat": 34.365889,
    "lon": 135.272889,
    "route": "泉南市コミュニティバス 新家回り",
    "stop": "泉南市役所前1",
    "passTime": "18:00",
    "vehicleType": "南海ウイングバス(車椅子・ベビーカー・ノンステップ)",
    "updateTime": "2026/07/22 18:01"
  },
  {
    "vehicleNum": "091601",
    "vehicleCd": "202",
    "vehicleCorpCd": "1",
    "running": true,
    "lat": 34.422889,
    "lon": 135.225389,
    "route": "給油地区→直行→空港駅",
    "stop": "給油地区",
    "passTime": "18:00",
    "vehicleType": "南海バス(車椅子・ノンステップ)",
    "updateTime": "2026/07/22 18:01"
  },
  {
    "vehicleNum": "091737",
    "vehicleCd": "48",
    "vehicleCorpCd": "2",
    "running": true,
    "lat": 34.471583,
    "lon": 135.393694,
    "route": "岸和田駅前→荒木町→和泉中央駅",
    "stop": "中央公園前",
    "passTime": "18:00",
    "vehicleType": "南海ウイングバス(車椅子・ベビーカー・ワンステップ)",
    "updateTime": "2026/07/22 18:01"
  },
  {
    "vehicleNum": "091747",
    "vehicleCd": "333",
    "vehicleCorpCd": "1",
    "running": true,
    "lat": 34.447389,
    "lon": 135.558694,
    "route": "滝畑ダム→奥河内くろまろの郷→河内長野駅前",
    "stop": "下高向",
    "passTime": "17:12",
    "vehicleType": "南海バス(車椅子・ベビーカー・ワンステップ)",
    "updateTime": "2026/07/22 18:01"
  },
  {
    "vehicleNum": "091739",
    "vehicleCd": "147",
    "vehicleCorpCd": "2",
    "running": true,
    "lat": 34.451,
    "lon": 135.434694,
    "route": "道の駅愛彩ランド→包近→和泉中央駅",
    "stop": "包近",
    "passTime": "17:55",
    "vehicleType": "南海ウイングバス(車椅子・ベビーカー・ワンステップ)",
    "updateTime": "2026/07/22 18:01"
  },
  {
    "vehicleNum": "091785",
    "vehicleCd": "120",
    "vehicleCorpCd": "2",
    "running": true,
    "lat": 34.398694,
    "lon": 135.352194,
    "route": "熊取町　つばさが丘循環コース",
    "stop": "高塚台",
    "passTime": "17:57",
    "vehicleType": "熊取町コミュニティバス(メジーナちゃん号)",
    "updateTime": "2026/07/22 18:01"
  },
  {
    "vehicleNum": "091910",
    "vehicleCd": "441",
    "vehicleCorpCd": "1",
    "running": true,
    "lat": 34.438,
    "lon": 135.231083,
    "route": "エアロプラザ→第２ターミナル(国内線・国際線)→エアロプラザ",
    "stop": "エアロプラザ",
    "passTime": "17:56",
    "vehicleType": "南海バス(車椅子・ノンステップ)",
    "updateTime": "2026/07/22 18:01"
  },
  {
    "vehicleNum": "091895",
    "vehicleCd": "4",
    "vehicleCorpCd": "2",
    "running": true,
    "lat": 34.345,
    "lon": 135.287389,
    "route": "泉南市コミュニティバス 山回り",
    "stop": "六尾",
    "passTime": "18:01",
    "vehicleType": "泉南市コミュニティバス(ピンク)",
    "updateTime": "2026/07/22 18:01"
  },
  {
    "vehicleNum": "092044",
    "vehicleCd": "462",
    "vehicleCorpCd": "1",
    "running": true,
    "lat": 34.468083,
    "lon": 135.566278,
    "route": "ﾓｯｸﾙ 美加～木戸東町～美加",
    "stop": "千代田駅前",
    "passTime": "17:59",
    "vehicleType": "南海バス(車椅子・ベビーカー・ノンステップ)",
    "updateTime": "2026/07/22 18:01"
  },
  {
    "vehicleNum": "092046",
    "vehicleCd": "464",
    "vehicleCorpCd": "1",
    "running": true,
    "lat": 34.442,
    "lon": 135.569194,
    "route": "ﾓｯｸﾙ 美加～木戸東町～美加",
    "stop": "上田",
    "passTime": "18:00",
    "vehicleType": "南海バス(車椅子・ベビーカー・ノンステップ)",
    "updateTime": "2026/07/22 18:01"
  },
  {
    "vehicleNum": "092153",
    "vehicleCd": "529",
    "vehicleCorpCd": "1",
    "running": true,
    "lat": 34.437083,
    "lon": 135.234389,
    "route": "エアロプラザ→第２ターミナル(国内線・国際線)→エアロプラザ",
    "stop": "第2ターミナル国際線",
    "passTime": "18:01",
    "vehicleType": "南海バス",
    "updateTime": "2026/07/22 18:01"
  },
  {
    "vehicleNum": "092204",
    "vehicleCd": "416",
    "vehicleCorpCd": "1",
    "running": true,
    "lat": 34.433889,
    "lon": 135.561889,
    "route": "大矢船西町→三日市町駅前",
    "stop": "南花台１丁目北",
    "passTime": "18:00",
    "vehicleType": "南海バス",
    "updateTime": "2026/07/22 18:01"
  },
  {
    "vehicleNum": "092205",
    "vehicleCd": "25",
    "vehicleCorpCd": "1",
    "running": true,
    "lat": 34.4505,
    "lon": 135.572278,
    "route": "河内長野駅前→河内長野市役所前",
    "stop": "河内長野駅前",
    "passTime": "18:00",
    "vehicleType": "南海バス(車椅子・ベビーカー・ノンステップ)",
    "updateTime": "2026/07/22 18:01"
  },
  {
    "vehicleNum": "092235",
    "vehicleCd": "535",
    "vehicleCorpCd": "1",
    "running": true,
    "lat": 34.458583,
    "lon": 135.479889,
    "route": "松尾寺→のぞみ野南→和泉中央駅",
    "stop": "緑ヶ丘団地",
    "passTime": "15:19",
    "vehicleType": "南海バス(車椅子・ベビーカー・ノンステップ)",
    "updateTime": "2026/07/22 18:01"
  },
  {
    "vehicleNum": "092383",
    "vehicleCd": "44",
    "vehicleCorpCd": "1",
    "running": true,
    "lat": 34.468083,
    "lon": 135.481083,
    "route": "光明池駅→光明池車庫→和泉中央駅→泉大津駅前",
    "stop": "東室堂",
    "passTime": "18:00",
    "vehicleType": "南海バス(車椅子・ベビーカー・ワンステップ)",
    "updateTime": "2026/07/22 18:01"
  },
  {
    "vehicleNum": "092394",
    "vehicleCd": "42",
    "vehicleCorpCd": "1",
    "running": true,
    "lat": 34.437778,
    "lon": 135.243,
    "route": "エアロプラザ→第２ターミナル(国内線・国際線)→エアロプラザ",
    "stop": "第2ターミナル国際線",
    "passTime": "17:56",
    "vehicleType": "南海バス(車椅子・ノンステップ)",
    "updateTime": "2026/07/22 18:01"
  },
  {
    "vehicleNum": "092454",
    "vehicleCd": "125",
    "vehicleCorpCd": "2",
    "running": true,
    "lat": 34.360889,
    "lon": 135.282194,
    "route": "泉南市コミュニティバス 南Ａ回り",
    "stop": "砂川駅前通り",
    "passTime": "17:59",
    "vehicleType": "泉南市コミュニティバス(橙)",
    "updateTime": "2026/07/22 18:01"
  },
  {
    "vehicleNum": "092469",
    "vehicleCd": "220",
    "vehicleCorpCd": "1",
    "running": true,
    "lat": 34.436889,
    "lon": 135.568694,
    "route": "三日市町駅前→南花台１丁目北→大矢船西町",
    "stop": "三日市町駅前",
    "passTime": "17:58",
    "vehicleType": "南海バス(車椅子・ベビーカー・ノンステップ)",
    "updateTime": "2026/07/22 18:01"
  },
  {
    "vehicleNum": "092498",
    "vehicleCd": "8",
    "vehicleCorpCd": "1",
    "running": true,
    "lat": 34.467389,
    "lon": 135.446694,
    "route": "和泉府中駅前→いぶき野→和泉中央駅",
    "stop": "弥生自治会館前",
    "passTime": "17:59",
    "vehicleType": "南海バス(車椅子・ベビーカー・ノンステップ)",
    "updateTime": "2026/07/22 18:01"
  },
  {
    "vehicleNum": "092534",
    "vehicleCd": "265",
    "vehicleCorpCd": "1",
    "running": true,
    "lat": 34.4215,
    "lon": 135.453583,
    "route": "和泉中央駅→テクノステージセンター前→直行→和泉中央駅",
    "stop": "和泉商工会議所前",
    "passTime": "17:59",
    "vehicleType": "南海バス(車椅子・ベビーカー・ノンステップ)",
    "updateTime": "2026/07/22 18:01"
  },
  {
    "vehicleNum": "092561",
    "vehicleCd": "74",
    "vehicleCorpCd": "1",
    "running": true,
    "lat": 34.450778,
    "lon": 135.572389,
    "route": "滝畑ダム→河内長野駅前",
    "stop": "錦町",
    "passTime": "17:56",
    "vehicleType": "南海バス(車椅子・ベビーカー・ノンステップ)",
    "updateTime": "2026/07/22 18:01"
  },
  {
    "vehicleNum": "092570",
    "vehicleCd": "577",
    "vehicleCorpCd": "1",
    "running": true,
    "lat": 34.4735,
    "lon": 135.473889,
    "route": "光明池駅→山田→堺東駅前",
    "stop": "光明池駅",
    "passTime": "17:57",
    "vehicleType": "南海バス(車椅子・ベビーカー・ノンステップ)",
    "updateTime": "2026/07/22 18:01"
  },
  {
    "vehicleNum": "092569",
    "vehicleCd": "266",
    "vehicleCorpCd": "1",
    "running": true,
    "lat": 34.473889,
    "lon": 135.476778,
    "route": "光明池駅→城山台２丁→光明池駅",
    "stop": "鴨谷台三丁",
    "passTime": "17:57",
    "vehicleType": "南海バス(車椅子・ベビーカー・ノンステップ)",
    "updateTime": "2026/07/22 18:01"
  },
  {
    "vehicleNum": "092572",
    "vehicleCd": "313",
    "vehicleCorpCd": "1",
    "running": true,
    "lat": 34.557472,
    "lon": 135.470583,
    "route": "堺東駅前→鳳駅前→栂・美木多駅",
    "stop": "緑ヶ丘",
    "passTime": "18:00",
    "vehicleType": "南海バス(車椅子・ベビーカー・ノンステップ)",
    "updateTime": "2026/07/22 18:01"
  },
  {
    "vehicleNum": "092577",
    "vehicleCd": "578",
    "vehicleCorpCd": "1",
    "running": true,
    "lat": 34.451,
    "lon": 135.572194,
    "route": "河内長野駅前→河合寺→小吹台",
    "stop": "河内長野駅前",
    "passTime": "18:00",
    "vehicleType": "南海バス(車椅子・ベビーカー・ノンステップ)",
    "updateTime": "2026/07/22 18:01"
  },
  {
    "vehicleNum": "092580",
    "vehicleCd": "377",
    "vehicleCorpCd": "1",
    "running": true,
    "lat": 34.483889,
    "lon": 135.425778,
    "route": "和泉中央駅→いぶき野→和泉府中駅前",
    "stop": "府中町南",
    "passTime": "17:58",
    "vehicleType": "南海バス(車椅子・ベビーカー・ノンステップ)",
    "updateTime": "2026/07/22 18:01"
  },
  {
    "vehicleNum": "092696",
    "vehicleCd": "589",
    "vehicleCorpCd": "1",
    "running": true,
    "lat": 34.495583,
    "lon": 135.411778,
    "route": "和泉中央駅→寺田→泉大津駅前",
    "stop": "池浦",
    "passTime": "17:59",
    "vehicleType": "南海バス(車椅子・ベビーカー・ノンステップ)",
    "updateTime": "2026/07/22 18:01"
  },
  {
    "vehicleNum": "092711",
    "vehicleCd": "355",
    "vehicleCorpCd": "1",
    "running": true,
    "lat": 34.465083,
    "lon": 135.461889,
    "route": "和泉中央駅→和泉青葉台",
    "stop": "和泉中央駅",
    "passTime": "17:46",
    "vehicleType": "南海バス(車椅子・ベビーカー・ノンステップ)",
    "updateTime": "2026/07/22 18:01"
  },
  {
    "vehicleNum": "092795",
    "vehicleCd": "592",
    "vehicleCorpCd": "1",
    "running": true,
    "lat": 34.482583,
    "lon": 135.470694,
    "route": "光明池駅→新檜尾台センター→光明池駅",
    "stop": "赤坂台四丁",
    "passTime": "17:59",
    "vehicleType": "南海バス(車椅子・ベビーカー・ノンステップ)",
    "updateTime": "2026/07/22 18:01"
  },
  {
    "vehicleNum": "092829",
    "vehicleCd": "488",
    "vehicleCorpCd": "1",
    "running": true,
    "lat": 34.460583,
    "lon": 135.455083,
    "route": "和泉中央駅→テクノステージセンター前→直行→和泉中央駅",
    "stop": "唐国南",
    "passTime": "17:55",
    "vehicleType": "南海バス(車椅子・ベビーカー・ノンステップ)",
    "updateTime": "2026/07/22 18:01"
  },
  {
    "vehicleNum": "092831",
    "vehicleCd": "417",
    "vehicleCorpCd": "1",
    "running": true,
    "lat": 34.459,
    "lon": 135.473972,
    "route": "和泉中央駅→はつが野→和泉青葉台→和泉中央駅（左回り）",
    "stop": "和田南",
    "passTime": "18:00",
    "vehicleType": "南海バス(車椅子・ベビーカー・ノンステップ)",
    "updateTime": "2026/07/22 18:01"
  },
  {
    "vehicleNum": "092856",
    "vehicleCd": "601",
    "vehicleCorpCd": "1",
    "running": true,
    "lat": 34.470083,
    "lon": 135.435389,
    "route": "和泉中央駅→寺田→泉大津駅前",
    "stop": "寺田",
    "passTime": "18:00",
    "vehicleType": "南海バス(車椅子・ベビーカー・ノンステップ)",
    "updateTime": "2026/07/22 18:01"
  },
  {
    "vehicleNum": "092859",
    "vehicleCd": "32",
    "vehicleCorpCd": "1",
    "running": true,
    "lat": 34.431389,
    "lon": 135.570583,
    "route": "三日市町駅東→南青葉台中央",
    "stop": "三日市町駅東",
    "passTime": "17:59",
    "vehicleType": "南海バス(車椅子・ベビーカー・ノンステップ)",
    "updateTime": "2026/07/22 18:01"
  },
  {
    "vehicleNum": "092863",
    "vehicleCd": "371",
    "vehicleCorpCd": "1",
    "running": true,
    "lat": 34.459,
    "lon": 135.479694,
    "route": "国分峠東→栂・美木多駅→堺東駅前",
    "stop": "山戸",
    "passTime": "16:17",
    "vehicleType": "南海バス(車椅子・ベビーカー・ノンステップ)",
    "updateTime": "2026/07/22 18:01"
  },
  {
    "vehicleNum": "092871",
    "vehicleCd": "33",
    "vehicleCorpCd": "1",
    "running": true,
    "lat": 34.459889,
    "lon": 135.455,
    "route": "和泉中央駅→テクノステージセンター前→グリーンポリス前→和泉中央駅",
    "stop": "和泉中央駅",
    "passTime": "17:59",
    "vehicleType": "南海バス(車椅子・ベビーカー・ノンステップ)",
    "updateTime": "2026/07/22 18:01"
  },
  {
    "vehicleNum": "092872",
    "vehicleCd": "500",
    "vehicleCorpCd": "1",
    "running": true,
    "lat": 34.421889,
    "lon": 135.454,
    "route": "テクノステージセンター前→府立産技研前→和泉中央駅",
    "stop": "和泉商工会議所前",
    "passTime": "18:00",
    "vehicleType": "南海バス(車椅子・ベビーカー・ノンステップ)",
    "updateTime": "2026/07/22 18:01"
  },
  {
    "vehicleNum": "092913",
    "vehicleCd": "154",
    "vehicleCorpCd": "1",
    "running": true,
    "lat": 34.46,
    "lon": 135.455,
    "route": "和泉中央駅→いぶき野→和泉府中駅前",
    "stop": "和泉中央駅",
    "passTime": "17:59",
    "vehicleType": "南海バス(車椅子・ベビーカー・ノンステップ)",
    "updateTime": "2026/07/22 18:01"
  },
  {
    "vehicleNum": "092900",
    "vehicleCd": "604",
    "vehicleCorpCd": "1",
    "running": true,
    "lat": 34.467194,
    "lon": 135.494472,
    "route": "堺東駅前→鳳駅前→国分峠東",
    "stop": "八田",
    "passTime": "18:01",
    "vehicleType": "南海バス(車椅子・ベビーカー・ノンステップ)",
    "updateTime": "2026/07/22 18:01"
  },
  {
    "vehicleNum": "092873",
    "vehicleCd": "234",
    "vehicleCorpCd": "1",
    "running": true,
    "lat": 34.453889,
    "lon": 135.445583,
    "route": "テクノステージセンター前→直行→和泉中央駅",
    "stop": "ららぽーと和泉前",
    "passTime": "17:44",
    "vehicleType": "南海バス(車椅子・ベビーカー・ノンステップ)",
    "updateTime": "2026/07/22 18:01"
  },
  {
    "vehicleNum": "092915",
    "vehicleCd": "346",
    "vehicleCorpCd": "1",
    "running": true,
    "lat": 34.4495,
    "lon": 135.5945,
    "route": "長野→こんごう福祉",
    "stop": "府立こんごう福祉センターかんなびのさと前",
    "passTime": "18:01",
    "vehicleType": "南海バス(車椅子・ベビーカー・ノンステップ)",
    "updateTime": "2026/07/22 18:01"
  },
  {
    "vehicleNum": "092936",
    "vehicleCd": "322",
    "vehicleCorpCd": "1",
    "running": true,
    "lat": 34.428778,
    "lon": 135.229583,
    "route": "空港駅→国際循環→空港駅",
    "stop": "機内食前",
    "passTime": "18:00",
    "vehicleType": "南海バス(車椅子・ベビーカー・ノンステップ)",
    "updateTime": "2026/07/22 18:01"
  },
  {
    "vehicleNum": "092918",
    "vehicleCd": "114",
    "vehicleCorpCd": "1",
    "running": true,
    "lat": 34.47,
    "lon": 135.457389,
    "route": "泉大津駅前→和泉府中駅前→和泉中央駅",
    "stop": "北池田",
    "passTime": "17:59",
    "vehicleType": "南海バス(車椅子・ベビーカー・ノンステップ)",
    "updateTime": "2026/07/22 18:01"
  },
  {
    "vehicleNum": "092937",
    "vehicleCd": "73",
    "vehicleCorpCd": "1",
    "running": true,
    "lat": 34.480778,
    "lon": 135.467389,
    "route": "堺東駅前→鳳駅前→光明池駅",
    "stop": "下伏屋",
    "passTime": "18:00",
    "vehicleType": "南海バス(車椅子・ベビーカー・ノンステップ)",
    "updateTime": "2026/07/22 18:01"
  },
  {
    "vehicleNum": "092950",
    "vehicleCd": "257",
    "vehicleCorpCd": "1",
    "running": true,
    "lat": 34.485694,
    "lon": 135.425083,
    "route": "泉大津駅前→和泉中央駅→和泉青葉台",
    "stop": "和泉府中駅前",
    "passTime": "17:58",
    "vehicleType": "南海バス(車椅子・ベビーカー・ノンステップ)",
    "updateTime": "2026/07/22 18:01"
  },
  {
    "vehicleNum": "092951",
    "vehicleCd": "340",
    "vehicleCorpCd": "1",
    "running": true,
    "lat": 34.532278,
    "lon": 135.463083,
    "route": "光明池駅→山田→堺東駅前",
    "stop": "西堺警察署前",
    "passTime": "18:00",
    "vehicleType": "南海バス(車椅子・ベビーカー・ノンステップ)",
    "updateTime": "2026/07/22 18:01"
  },
  {
    "vehicleNum": "092975",
    "vehicleCd": "115",
    "vehicleCorpCd": "1",
    "running": true,
    "lat": 34.488778,
    "lon": 135.419278,
    "route": "泉大津駅前→和泉府中駅前→和泉中央駅",
    "stop": "泉大津急性期メディカルセンター前",
    "passTime": "17:59",
    "vehicleType": "南海バス(車椅子・ベビーカー・ノンステップ)",
    "updateTime": "2026/07/22 18:01"
  },
  {
    "vehicleNum": "093003",
    "vehicleCd": "111",
    "vehicleCorpCd": "1",
    "running": true,
    "lat": 34.487694,
    "lon": 135.424,
    "route": "光明池駅→光明池車庫→和泉中央駅→泉大津駅前",
    "stop": "府中町南",
    "passTime": "17:52",
    "vehicleType": "南海バス(車椅子・ベビーカー・ノンステップ)",
    "updateTime": "2026/07/22 18:01"
  },
  {
    "vehicleNum": "093011",
    "vehicleCd": "27",
    "vehicleCorpCd": "1",
    "running": true,
    "lat": 34.432278,
    "lon": 135.235,
    "route": "空港駅→直行→給油地区",
    "stop": "空港駅",
    "passTime": "17:59",
    "vehicleType": "南海バス(車椅子・ベビーカー・ノンステップ)",
    "updateTime": "2026/07/22 18:01"
  },
  {
    "vehicleNum": "093046",
    "vehicleCd": "246",
    "vehicleCorpCd": "1",
    "running": true,
    "lat": 34.557694,
    "lon": 135.470694,
    "route": "栂・美木多駅→鳳駅前→堺東駅前",
    "stop": "緑ヶ丘",
    "passTime": "18:00",
    "vehicleType": "南海バス(車椅子・ベビーカー・ノンステップ)",
    "updateTime": "2026/07/22 18:01"
  },
  {
    "vehicleNum": "093071",
    "vehicleCd": "274",
    "vehicleCorpCd": "1",
    "running": true,
    "lat": 34.457889,
    "lon": 135.449778,
    "route": "府立産技研前→グリーンポリス→和泉中央駅",
    "stop": "唐国南",
    "passTime": "18:00",
    "vehicleType": "南海バス(車椅子・ベビーカー・ノンステップ)",
    "updateTime": "2026/07/22 18:01"
  },
  {
    "vehicleNum": "093054",
    "vehicleCd": "396",
    "vehicleCorpCd": "1",
    "running": true,
    "lat": 34.447278,
    "lon": 135.493083,
    "route": "光明池駅→城山台５丁→みずき台２丁目西",
    "stop": "みずき台一丁目",
    "passTime": "18:00",
    "vehicleType": "南海バス(車椅子・ベビーカー・ノンステップ)",
    "updateTime": "2026/07/22 18:01"
  },
  {
    "vehicleNum": "093074",
    "vehicleCd": "247",
    "vehicleCorpCd": "1",
    "running": true,
    "lat": 34.4805,
    "lon": 135.423194,
    "route": "泉大津駅前→和泉府中駅前→和泉中央駅",
    "stop": "和泉市役所前",
    "passTime": "18:00",
    "vehicleType": "南海バス(車椅子・ベビーカー・ノンステップ)",
    "updateTime": "2026/07/22 18:01"
  }
]