[
  {
    "vehicleNum": "070103",
    "vehicleCd": "425",
    "vehicleCorpCd": "1",
    "running": true,
    "lat": 34.479,
    "lon": 135.548194,
    "route": "泉ヶ丘駅→狭山ニュータウンセンター→金剛駅前",
    "stop": "南中学校前",
    "passTime": "21:59",
    "vehicleType": "泉北コミュニティバス(車椅子・ベビーカー・ノンステップ)",
    "updateTime": "2026/07/23 21:59"
  },
  {
    "vehicleNum": "070107",
    "vehicleCd": "405",
    "vehicleCorpCd": "1",
    "running": true,
    "lat": 34.494,
    "lon": 135.518278,
    "route": "金剛駅前→狭山ニュータウンセンター→泉ヶ丘駅",
    "stop": "茶山台２丁",
    "passTime": "21:59",
    "vehicleType": "泉北コミュニティバス(車椅子・ベビーカー・ノンステップ)",
    "updateTime": "2026/07/23 21:59"
  },
  {
    "vehicleNum": "070109",
    "vehicleCd": "407",
    "vehicleCorpCd": "1",
    "running": true,
    "lat": 34.495889,
    "lon": 135.544,
    "route": "金剛駅前→狭山ニュータウンセンター→泉ヶ丘駅",
    "stop": "狭山西小学校前",
    "passTime": "21:58",
    "vehicleType": "泉北コミュニティバス(車椅子・ベビーカー・ノンステップ)",
    "updateTime": "2026/07/23 21:59"
  },
  {
    "vehicleNum": "071605",
    "vehicleCd": "412",
    "vehicleCorpCd": "1",
    "running": true,
    "lat": 34.577583,
    "lon": 135.476194,
    "route": "堺東駅前→大小路→堺駅前",
    "stop": "大寺北門山之口前",
    "passTime": "21:59",
    "vehicleType": "堺シャトル(車椅子・ベビーカー・ノンステップ)",
    "updateTime": "2026/07/23 21:59"
  },
  {
    "vehicleNum": "080020",
    "vehicleCd": "374",
    "vehicleCorpCd": "1",
    "running": true,
    "lat": 34.500278,
    "lon": 135.574778,
    "route": "金剛駅前→高辺台小学校前→金剛駅前",
    "stop": "津々山台１丁目",
    "passTime": "21:59",
    "vehicleType": "南海バス(車椅子・ベビーカー・ワンステップ)",
    "updateTime": "2026/07/23 21:59"
  },
  {
    "vehicleNum": "080105",
    "vehicleCd": "127",
    "vehicleCorpCd": "2",
    "running": true,
    "lat": 34.403694,
    "lon": 135.345472,
    "route": "熊取駅前→つばさが丘北口",
    "stop": "青年会場前",
    "passTime": "21:59",
    "vehicleType": "南海ウイングバス(車椅子・ベビーカー・ワンステップ)",
    "updateTime": "2026/07/23 21:59"
  },
  {
    "vehicleNum": "080322",
    "vehicleCd": "116",
    "vehicleCorpCd": "2",
    "running": true,
    "lat": 34.451278,
    "lon": 135.430694,
    "route": "岸和田駅前→内畑→白原車庫",
    "stop": "山直市民センター前",
    "passTime": "21:59",
    "vehicleType": "南海ウイングバス(車椅子・ワンステップ)",
    "updateTime": "2026/07/23 21:59"
  },
  {
    "vehicleNum": "080628",
    "vehicleCd": "445",
    "vehicleCorpCd": "1",
    "running": true,
    "lat": 34.559694,
    "lon": 135.5265,
    "route": "地下鉄新金岡駅前→野遠→美原区役所",
    "stop": "大泉緑地前",
    "passTime": "21:59",
    "vehicleType": "南海バス(車椅子・ベビーカー・ノンステップ)",
    "updateTime": "2026/07/23 22:00"
  },
  {
    "vehicleNum": "080651",
    "vehicleCd": "455",
    "vehicleCorpCd": "1",
    "running": true,
    "lat": 34.544194,
    "lon": 135.533778,
    "route": "美原区役所→初芝駅前→美原区役所",
    "stop": "初芝東",
    "passTime": "21:59",
    "vehicleType": "南海バス",
    "updateTime": "2026/07/23 22:00"
  },
  {
    "vehicleNum": "080671",
    "vehicleCd": "465",
    "vehicleCorpCd": "1",
    "running": true,
    "lat": 34.581889,
    "lon": 135.476,
    "route": "匠町→堺駅西口→堺東駅前→阪和堺市駅前",
    "stop": "花田口",
    "passTime": "22:00",
    "vehicleType": "南海バス(車椅子・ベビーカー・ノンステップ)",
    "updateTime": "2026/07/23 22:00"
  },
  {
    "vehicleNum": "080734",
    "vehicleCd": "415",
    "vehicleCorpCd": "1",
    "running": true,
    "lat": 34.545583,
    "lon": 135.555083,
    "route": "美原区役所→野遠→地下鉄新金岡駅前",
    "stop": "下黒山西",
    "passTime": "21:59",
    "vehicleType": "南海バス",
    "updateTime": "2026/07/23 22:00"
  },
  {
    "vehicleNum": "080750",
    "vehicleCd": "103",
    "vehicleCorpCd": "1",
    "running": true,
    "lat": 34.5895,
    "lon": 135.480083,
    "route": "【急行】海浜匠町→堺東駅前→阪和堺市駅前",
    "stop": "海浜匠町",
    "passTime": "21:45",
    "vehicleType": "南海バス(車椅子・ベビーカー・ノンステップ)",
    "updateTime": "2026/07/23 22:00"
  },
  {
    "vehicleNum": "080753",
    "vehicleCd": "552",
    "vehicleCorpCd": "1",
    "running": true,
    "lat": 34.506194,
    "lon": 135.574583,
    "route": "金剛駅前→向陽・藤沢回り→金剛駅前",
    "stop": "藤沢台６丁目",
    "passTime": "21:59",
    "vehicleType": "南海バス(車椅子・ベビーカー・ノンステップ)",
    "updateTime": "2026/07/23 22:00"
  },
  {
    "vehicleNum": "080762",
    "vehicleCd": "561",
    "vehicleCorpCd": "1",
    "running": true,
    "lat": 34.595083,
    "lon": 135.463278,
    "route": "【急行】海浜匠町→堺駅西口",
    "stop": "海浜匠町",
    "passTime": "21:50",
    "vehicleType": "南海バス(車椅子・ベビーカー・ノンステップ)",
    "updateTime": "2026/07/23 22:00"
  },
  {
    "vehicleNum": "080764",
    "vehicleCd": "563",
    "vehicleCorpCd": "1",
    "running": true,
    "lat": 34.556278,
    "lon": 135.503972,
    "route": "堺駅南口→三国ヶ丘駅前→北野田駅前",
    "stop": "中もず町",
    "passTime": "21:58",
    "vehicleType": "南海バス(車椅子・ベビーカー・ノンステップ)",
    "updateTime": "2026/07/23 22:00"
  },
  {
    "vehicleNum": "080800",
    "vehicleCd": "304",
    "vehicleCorpCd": "1",
    "running": true,
    "lat": 34.578194,
    "lon": 135.481694,
    "route": "【急行】海浜匠町→堺東駅前→阪和堺市駅前",
    "stop": "瓦町公園前",
    "passTime": "21:58",
    "vehicleType": "南海バス(車椅子・ベビーカー・ノンステップ)",
    "updateTime": "2026/07/23 22:00"
  },
  {
    "vehicleNum": "080798",
    "vehicleCd": "107",
    "vehicleCorpCd": "1",
    "running": true,
    "lat": 34.570778,
    "lon": 135.480278,
    "route": "地下鉄新金岡駅前→堺駅南口",
    "stop": "一条通",
    "passTime": "21:59",
    "vehicleType": "南海バス(車椅子・ベビーカー・ノンステップ)",
    "updateTime": "2026/07/23 22:00"
  },
  {
    "vehicleNum": "080806",
    "vehicleCd": "307",
    "vehicleCorpCd": "1",
    "running": true,
    "lat": 34.577278,
    "lon": 135.489389,
    "route": "河内松原駅前→阪和堺市駅前→堺東駅前",
    "stop": "方違神社前",
    "passTime": "21:59",
    "vehicleType": "南海バス(車椅子・ベビーカー・ノンステップ)",
    "updateTime": "2026/07/23 22:00"
  },
  {
    "vehicleNum": "080794",
    "vehicleCd": "344",
    "vehicleCorpCd": "1",
    "running": true,
    "lat": 34.565083,
    "lon": 135.514278,
    "route": "堺東駅前→白鷺駅前→三国ヶ丘駅前",
    "stop": "しもつ池",
    "passTime": "21:58",
    "vehicleType": "南海バス(車椅子・ベビーカー・ノンステップ)",
    "updateTime": "2026/07/23 22:00"
  },
  {
    "vehicleNum": "080846",
    "vehicleCd": "224",
    "vehicleCorpCd": "1",
    "running": true,
    "lat": 34.500694,
    "lon": 135.574,
    "route": "金剛駅前→向陽・藤沢回り→金剛駅前",
    "stop": "公園前",
    "passTime": "21:57",
    "vehicleType": "南海バス(車椅子・ベビーカー・ノンステップ)",
    "updateTime": "2026/07/23 22:00"
  },
  {
    "vehicleNum": "080868",
    "vehicleCd": "237",
    "vehicleCorpCd": "1",
    "running": true,
    "lat": 34.490583,
    "lon": 135.512389,
    "route": "泉ヶ丘駅→槙塚台左回り→泉ヶ丘駅",
    "stop": "茶山台",
    "passTime": "21:59",
    "vehicleType": "南海バス(車椅子・ベビーカー・ノンステップ)",
    "updateTime": "2026/07/23 22:00"
  },
  {
    "vehicleNum": "080874",
    "vehicleCd": "352",
    "vehicleCorpCd": "1",
    "running": true,
    "lat": 34.490472,
    "lon": 135.512389,
    "route": "泉ヶ丘駅→若松台左回り→泉ヶ丘駅",
    "stop": "茶山台",
    "passTime": "21:59",
    "vehicleType": "南海バス(車椅子・ベビーカー・ノンステップ)",
    "updateTime": "2026/07/23 22:00"
  },
  {
    "vehicleNum": "080876",
    "vehicleCd": "390",
    "vehicleCorpCd": "1",
    "running": true,
    "lat": 34.570778,
    "lon": 135.480278,
    "route": "北野田駅前→福町→堺駅南口",
    "stop": "一条通",
    "passTime": "21:59",
    "vehicleType": "南海バス(車椅子・ベビーカー・ノンステップ)",
    "updateTime": "2026/07/23 22:00"
  },
  {
    "vehicleNum": "080883",
    "vehicleCd": "361",
    "vehicleCorpCd": "1",
    "running": true,
    "lat": 34.535389,
    "lon": 135.478194,
    "route": "津久野駅前→堺市立総合医療センター前→八田荘団地→泉ヶ丘駅",
    "stop": "平岡町",
    "passTime": "21:59",
    "vehicleType": "南海バス(車椅子・ベビーカー・ノンステップ)",
    "updateTime": "2026/07/23 22:00"
  },
  {
    "vehicleNum": "080911",
    "vehicleCd": "240",
    "vehicleCorpCd": "1",
    "running": true,
    "lat": 34.596278,
    "lon": 135.440389,
    "route": "海浜匠町→匠町→堺駅西口",
    "stop": "海浜匠町",
    "passTime": "21:53",
    "vehicleType": "南海バス(車椅子・ベビーカー・ノンステップ)",
    "updateTime": "2026/07/23 22:00"
  },
  {
    "vehicleNum": "080928",
    "vehicleCd": "348",
    "vehicleCorpCd": "1",
    "running": true,
    "lat": 34.473889,
    "lon": 135.494472,
    "route": "栂・美木多駅→庭代台右回り→栂・美木多駅",
    "stop": "庭代台西口",
    "passTime": "21:59",
    "vehicleType": "南海バス(車椅子・ベビーカー・ノンステップ)",
    "updateTime": "2026/07/23 22:00"
  },
  {
    "vehicleNum": "080921",
    "vehicleCd": "143",
    "vehicleCorpCd": "1",
    "running": true,
    "lat": 34.502778,
    "lon": 135.519,
    "route": "泉ヶ丘駅→三原台左回り→泉ヶ丘駅",
    "stop": "三原台小学校前",
    "passTime": "21:59",
    "vehicleType": "南海バス(車椅子・ベビーカー・ノンステップ)",
    "updateTime": "2026/07/23 22:00"
  },
  {
    "vehicleNum": "080935",
    "vehicleCd": "593",
    "vehicleCorpCd": "1",
    "running": true,
    "lat": 34.582583,
    "lon": 135.518472,
    "route": "河内天美駅前→天美我堂→堺東駅前",
    "stop": "北花田２丁",
    "passTime": "21:59",
    "vehicleType": "南海バス(車椅子・ベビーカー・ノンステップ)",
    "updateTime": "2026/07/23 22:00"
  },
  {
    "vehicleNum": "080936",
    "vehicleCd": "22",
    "vehicleCorpCd": "1",
    "running": true,
    "lat": 34.470778,
    "lon": 135.494,
    "route": "栂・美木多駅→御池台３丁",
    "stop": "庭代台１丁",
    "passTime": "21:59",
    "vehicleType": "南海バス(車椅子・ベビーカー・ノンステップ)",
    "updateTime": "2026/07/23 22:00"
  },
  {
    "vehicleNum": "080956",
    "vehicleCd": "71",
    "vehicleCorpCd": "1",
    "running": true,
    "lat": 34.638083,
    "lon": 135.418,
    "route": "ＡＴＣ→堺東駅前",
    "stop": "コスモタワー",
    "passTime": "21:58",
    "vehicleType": "南海バス",
    "updateTime": "2026/07/23 22:00"
  },
  {
    "vehicleNum": "080995",
    "vehicleCd": "118",
    "vehicleCorpCd": "1",
    "running": true,
    "lat": 34.4895,
    "lon": 135.525778,
    "route": "泉ヶ丘駅→スマ・エコタウン晴美台→高倉台左回り→泉ヶ丘駅",
    "stop": "晴美台２丁",
    "passTime": "21:59",
    "vehicleType": "南海バス(車椅子・ベビーカー・ノンステップ)",
    "updateTime": "2026/07/23 22:00"
  },
  {
    "vehicleNum": "080996",
    "vehicleCd": "191",
    "vehicleCorpCd": "1",
    "running": true,
    "lat": 34.538278,
    "lon": 135.477,
    "route": "堺東駅前→津久野駅前→堀上緑町一丁→津久野駅前",
    "stop": "家原寺町",
    "passTime": "21:59",
    "vehicleType": "南海バス(車椅子・ベビーカー・ノンステップ)",
    "updateTime": "2026/07/23 22:00"
  },
  {
    "vehicleNum": "080999",
    "vehicleCd": "493",
    "vehicleCorpCd": "1",
    "running": true,
    "lat": 34.537889,
    "lon": 135.544083,
    "route": "中もず駅前→平尾・美原区役所前→初芝駅前",
    "stop": "余部西口",
    "passTime": "21:58",
    "vehicleType": "南海バス(車椅子・ベビーカー・ノンステップ)",
    "updateTime": "2026/07/23 22:00"
  },
  {
    "vehicleNum": "081004",
    "vehicleCd": "271",
    "vehicleCorpCd": "1",
    "running": true,
    "lat": 34.542389,
    "lon": 135.512472,
    "route": "北野田駅前→西口園→中もず駅前",
    "stop": "下茶屋",
    "passTime": "22:00",
    "vehicleType": "南海バス(車椅子・ベビーカー・ノンステップ)",
    "updateTime": "2026/07/23 22:00"
  },
  {
    "vehicleNum": "081003",
    "vehicleCd": "610",
    "vehicleCorpCd": "1",
    "running": true,
    "lat": 34.5215,
    "lon": 135.508778,
    "route": "堺東駅前→上野芝駅前→東山車庫前",
    "stop": "東山",
    "passTime": "21:59",
    "vehicleType": "南海バス(車椅子・ベビーカー・ノンステップ)",
    "updateTime": "2026/07/23 22:00"
  },
  {
    "vehicleNum": "081005",
    "vehicleCd": "272",
    "vehicleCorpCd": "1",
    "running": true,
    "lat": 34.530194,
    "lon": 135.499194,
    "route": "深井駅→田園→泉ヶ丘駅",
    "stop": "深井駅",
    "passTime": "21:59",
    "vehicleType": "南海バス(車椅子・ベビーカー・ノンステップ)",
    "updateTime": "2026/07/23 22:00"
  },
  {
    "vehicleNum": "081014",
    "vehicleCd": "229",
    "vehicleCorpCd": "1",
    "running": true,
    "lat": 34.523389,
    "lon": 135.542083,
    "route": "堺駅南口→福町→北野田駅前",
    "stop": "大美野噴水前",
    "passTime": "21:58",
    "vehicleType": "南海バス(車椅子・ベビーカー・ノンステップ)",
    "updateTime": "2026/07/23 22:00"
  },
  {
    "vehicleNum": "081034",
    "vehicleCd": "120",
    "vehicleCorpCd": "1",
    "running": true,
    "lat": 34.532083,
    "lon": 135.470083,
    "route": "泉ヶ丘駅→泉北２号線→津久野駅前",
    "stop": "毛穴大橋",
    "passTime": "22:00",
    "vehicleType": "南海バス(車椅子・ベビーカー・ノンステップ)",
    "updateTime": "2026/07/23 22:00"
  },
  {
    "vehicleNum": "081035",
    "vehicleCd": "491",
    "vehicleCorpCd": "1",
    "running": true,
    "lat": 34.471889,
    "lon": 135.496694,
    "route": "栂・美木多駅→庭代台左回り→栂・美木多駅",
    "stop": "庭代台センター",
    "passTime": "21:59",
    "vehicleType": "南海バス(車椅子・ベビーカー・ノンステップ)",
    "updateTime": "2026/07/23 22:00"
  },
  {
    "vehicleNum": "081037",
    "vehicleCd": "236",
    "vehicleCorpCd": "1",
    "running": true,
    "lat": 34.461583,
    "lon": 135.518,
    "route": "泉ヶ丘駅→鉢ヶ峯→泉田中南",
    "stop": "鉢塚",
    "passTime": "22:00",
    "vehicleType": "南海バス(車椅子・ベビーカー・ノンステップ)",
    "updateTime": "2026/07/23 22:00"
  },
  {
    "vehicleNum": "091107",
    "vehicleCd": "23",
    "vehicleCorpCd": "2",
    "running": true,
    "lat": 34.427889,
    "lon": 135.406278,
    "route": "岸和田駅前→天神山・一の宮循環　左回り→岸和田駅前",
    "stop": "下垣内",
    "passTime": "21:59",
    "vehicleType": "南海ウイングバス(車椅子・ワンステップ)",
    "updateTime": "2026/07/23 22:00"
  },
  {
    "vehicleNum": "091581",
    "vehicleCd": "198",
    "vehicleCorpCd": "1",
    "running": true,
    "lat": 34.434889,
    "lon": 135.239194,
    "route": "空港駅→ＦｅｄＥｘ→給油地区",
    "stop": "空港駅",
    "passTime": "21:59",
    "vehicleType": "南海バス(車椅子・ノンステップ)",
    "updateTime": "2026/07/23 22:00"
  },
  {
    "vehicleNum": "091737",
    "vehicleCd": "48",
    "vehicleCorpCd": "2",
    "running": true,
    "lat": 34.411194,
    "lon": 135.300389,
    "route": "イオンモールりんくう泉南→りんくうポート北→りんくうタウン駅前→ワシントンホテル",
    "stop": "ゲートタワービル",
    "passTime": "22:00",
    "vehicleType": "南海ウイングバス(車椅子・ベビーカー・ワンステップ)",
    "updateTime": "2026/07/23 22:00"
  },
  {
    "vehicleNum": "092153",
    "vehicleCd": "529",
    "vehicleCorpCd": "1",
    "running": true,
    "lat": 34.438194,
    "lon": 135.231389,
    "route": "エアロプラザ→第２ターミナル(国内線・国際線)→エアロプラザ",
    "stop": "第2ターミナル国内線",
    "passTime": "22:00",
    "vehicleType": "南海バス",
    "updateTime": "2026/07/23 22:00"
  },
  {
    "vehicleNum": "092345",
    "vehicleCd": "160",
    "vehicleCorpCd": "1",
    "running": true,
    "lat": 34.425389,
    "lon": 135.228778,
    "route": "給油地区→空港駅",
    "stop": "第2代理店ビル前",
    "passTime": "21:59",
    "vehicleType": "南海バス",
    "updateTime": "2026/07/23 22:00"
  },
  {
    "vehicleNum": "092373",
    "vehicleCd": "553",
    "vehicleCorpCd": "1",
    "running": true,
    "lat": 34.487083,
    "lon": 135.423778,
    "route": "泉大津駅前→和泉府中駅前→和泉中央駅",
    "stop": "泉大津急性期メディカルセンター前",
    "passTime": "21:57",
    "vehicleType": "南海バス(車椅子・ベビーカー・ノンステップ)",
    "updateTime": "2026/07/23 22:00"
  },
  {
    "vehicleNum": "092382",
    "vehicleCd": "556",
    "vehicleCorpCd": "1",
    "running": true,
    "lat": 34.4605,
    "lon": 135.454278,
    "route": "和泉中央駅→いぶき野→和泉府中駅前",
    "stop": "和泉中央駅",
    "passTime": "21:58",
    "vehicleType": "南海バス(車椅子・ベビーカー・ノンステップ)",
    "updateTime": "2026/07/23 22:00"
  },
  {
    "vehicleNum": "092467",
    "vehicleCd": "50",
    "vehicleCorpCd": "1",
    "running": true,
    "lat": 34.433889,
    "lon": 135.562083,
    "route": "三日市町駅前→南花台１丁目北→大矢船西町",
    "stop": "南花台１丁目北",
    "passTime": "22:00",
    "vehicleType": "南海バス(車椅子・ベビーカー・ノンステップ)",
    "updateTime": "2026/07/23 22:00"
  },
  {
    "vehicleNum": "092482",
    "vehicleCd": "528",
    "vehicleCorpCd": "1",
    "running": true,
    "lat": 34.435278,
    "lon": 135.576278,
    "route": "三日市町駅前→清見台回り→三日市町駅前",
    "stop": "近隣センター前",
    "passTime": "21:59",
    "vehicleType": "南海バス(車椅子・ベビーカー・ノンステップ)",
    "updateTime": "2026/07/23 22:00"
  },
  {
    "vehicleNum": "092483",
    "vehicleCd": "110",
    "vehicleCorpCd": "1",
    "running": true,
    "lat": 34.420694,
    "lon": 135.559583,
    "route": "三日市町駅前→南花台１丁目北→南ヶ丘",
    "stop": "大矢船北町（南花台系統）",
    "passTime": "21:59",
    "vehicleType": "南海バス(車椅子・ベビーカー・ノンステップ)",
    "updateTime": "2026/07/23 22:00"
  },
  {
    "vehicleNum": "092578",
    "vehicleCd": "147",
    "vehicleCorpCd": "1",
    "running": true,
    "lat": 34.458778,
    "lon": 135.552278,
    "route": "千代田駅前→赤峯→荘園町",
    "stop": "荘園橋",
    "passTime": "22:00",
    "vehicleType": "南海バス(車椅子・ベビーカー・ノンステップ)",
    "updateTime": "2026/07/23 22:00"
  },
  {
    "vehicleNum": "092620",
    "vehicleCd": "311",
    "vehicleCorpCd": "1",
    "running": true,
    "lat": 34.452694,
    "lon": 135.567389,
    "route": "長野→天野山→旭",
    "stop": "河内長野駅前",
    "passTime": "21:58",
    "vehicleType": "南海バス(車椅子・ベビーカー・ノンステップ)",
    "updateTime": "2026/07/23 22:00"
  },
  {
    "vehicleNum": "092595",
    "vehicleCd": "326",
    "vehicleCorpCd": "1",
    "running": true,
    "lat": 34.423389,
    "lon": 135.581583,
    "route": "美加の台駅前→美加の台西→美加の台駅前",
    "stop": "美加の台口",
    "passTime": "22:00",
    "vehicleType": "南海バス(車椅子・ベビーカー・ノンステップ)",
    "updateTime": "2026/07/23 22:00"
  },
  {
    "vehicleNum": "092763",
    "vehicleCd": "520",
    "vehicleCorpCd": "1",
    "running": true,
    "lat": 34.454389,
    "lon": 135.484889,
    "route": "光明池駅→城山台５丁→光明池車庫",
    "stop": "光明台一丁目西",
    "passTime": "22:00",
    "vehicleType": "南海バス(車椅子・ベビーカー・ノンステップ)",
    "updateTime": "2026/07/23 22:00"
  },
  {
    "vehicleNum": "092758",
    "vehicleCd": "363",
    "vehicleCorpCd": "1",
    "running": true,
    "lat": 34.4345,
    "lon": 135.5685,
    "route": "大矢船西町→三日市町駅前",
    "stop": "南花台１丁目北",
    "passTime": "21:58",
    "vehicleType": "南海バス(車椅子・ベビーカー・ノンステップ)",
    "updateTime": "2026/07/23 22:00"
  },
  {
    "vehicleNum": "092873",
    "vehicleCd": "234",
    "vehicleCorpCd": "1",
    "running": true,
    "lat": 34.481472,
    "lon": 135.480583,
    "route": "光明池駅→赤坂台４丁→光明池駅",
    "stop": "新檜尾台一丁",
    "passTime": "22:00",
    "vehicleType": "南海バス(車椅子・ベビーカー・ノンステップ)",
    "updateTime": "2026/07/23 22:00"
  },
  {
    "vehicleNum": "092872",
    "vehicleCd": "500",
    "vehicleCorpCd": "1",
    "running": true,
    "lat": 34.532278,
    "lon": 135.459472,
    "route": "堺東駅前→鳳駅前→栂・美木多駅",
    "stop": "鳳駅前",
    "passTime": "22:03",
    "vehicleType": "南海バス(車椅子・ベビーカー・ノンステップ)",
    "updateTime": "2026/07/23 22:00"
  },
  {
    "vehicleNum": "092936",
    "vehicleCd": "322",
    "vehicleCorpCd": "1",
    "running": true,
    "lat": 34.436889,
    "lon": 135.241583,
    "route": "◎T2→ポートターミナル",
    "stop": "第2ターミナル国際線",
    "passTime": "21:54",
    "vehicleType": "南海バス(車椅子・ベビーカー・ノンステップ)",
    "updateTime": "2026/07/23 22:00"
  },
  {
    "vehicleNum": "092917",
    "vehicleCd": "40",
    "vehicleCorpCd": "1",
    "running": true,
    "lat": 34.423889,
    "lon": 135.539389,
    "route": "河内長野駅前→滝畑ダム",
    "stop": "日野コミュニティーセンター",
    "passTime": "21:59",
    "vehicleType": "南海バス(車椅子・ベビーカー・ノンステップ)",
    "updateTime": "2026/07/23 22:00"
  },
  {
    "vehicleNum": "092918",
    "vehicleCd": "114",
    "vehicleCorpCd": "1",
    "running": true,
    "lat": 34.476694,
    "lon": 135.446083,
    "route": "泉大津駅前→和泉中央駅→和泉青葉台",
    "stop": "阪本",
    "passTime": "21:59",
    "vehicleType": "南海バス(車椅子・ベビーカー・ノンステップ)",
    "updateTime": "2026/07/23 22:00"
  },
  {
    "vehicleNum": "092937",
    "vehicleCd": "73",
    "vehicleCorpCd": "1",
    "running": true,
    "lat": 34.507889,
    "lon": 135.466194,
    "route": "堺東駅前→鳳駅前→光明池駅",
    "stop": "山田",
    "passTime": "22:00",
    "vehicleType": "南海バス(車椅子・ベビーカー・ノンステップ)",
    "updateTime": "2026/07/23 22:00"
  },
  {
    "vehicleNum": "092948",
    "vehicleCd": "606",
    "vehicleCorpCd": "1",
    "running": true,
    "lat": 34.436583,
    "lon": 135.463194,
    "route": "和泉中央駅→はつが野→和泉青葉台→和泉中央駅（左回り）",
    "stop": "はつが野三丁目",
    "passTime": "21:58",
    "vehicleType": "南海バス(車椅子・ベビーカー・ノンステップ)",
    "updateTime": "2026/07/23 22:00"
  },
  {
    "vehicleNum": "092950",
    "vehicleCd": "257",
    "vehicleCorpCd": "1",
    "running": true,
    "lat": 34.459694,
    "lon": 135.455,
    "route": "和泉中央駅→はつが野六丁目→和泉中央駅",
    "stop": "万町弘法寺前",
    "passTime": "21:57",
    "vehicleType": "南海バス(車椅子・ベビーカー・ノンステップ)",
    "updateTime": "2026/07/23 22:00"
  },
  {
    "vehicleNum": "092951",
    "vehicleCd": "340",
    "vehicleCorpCd": "1",
    "running": true,
    "lat": 34.540889,
    "lon": 135.463389,
    "route": "光明池駅→山田→堺東駅前",
    "stop": "下田南",
    "passTime": "21:59",
    "vehicleType": "南海バス(車椅子・ベビーカー・ノンステップ)",
    "updateTime": "2026/07/23 22:00"
  },
  {
    "vehicleNum": "092974",
    "vehicleCd": "260",
    "vehicleCorpCd": "1",
    "running": true,
    "lat": 34.489278,
    "lon": 135.418583,
    "route": "和泉中央駅→寺田→泉大津駅前",
    "stop": "泉大津急性期メディカルセンター前",
    "passTime": "21:59",
    "vehicleType": "南海バス(車椅子・ベビーカー・ノンステップ)",
    "updateTime": "2026/07/23 22:00"
  },
  {
    "vehicleNum": "092975",
    "vehicleCd": "115",
    "vehicleCorpCd": "1",
    "running": true,
    "lat": 34.563583,
    "lon": 135.475778,
    "route": "堺東駅前→鳳駅前→光明池駅",
    "stop": "大仙中町",
    "passTime": "22:00",
    "vehicleType": "南海バス(車椅子・ベビーカー・ノンステップ)",
    "updateTime": "2026/07/23 22:00"
  },
  {
    "vehicleNum": "092976",
    "vehicleCd": "138",
    "vehicleCorpCd": "1",
    "running": true,
    "lat": 34.470083,
    "lon": 135.475194,
    "route": "堺東駅前→鳳駅前→光明池駅",
    "stop": "変電所前",
    "passTime": "21:58",
    "vehicleType": "南海バス(車椅子・ベビーカー・ノンステップ)",
    "updateTime": "2026/07/23 22:00"
  },
  {
    "vehicleNum": "093003",
    "vehicleCd": "111",
    "vehicleCorpCd": "1",
    "running": true,
    "lat": 34.464583,
    "lon": 135.453583,
    "route": "和泉府中駅前→いぶき野→和泉中央駅",
    "stop": "いぶき野三丁目",
    "passTime": "22:00",
    "vehicleType": "南海バス(車椅子・ベビーカー・ノンステップ)",
    "updateTime": "2026/07/23 22:00"
  },
  {
    "vehicleNum": "092978",
    "vehicleCd": "325",
    "vehicleCorpCd": "1",
    "running": true,
    "lat": 34.501583,
    "lon": 135.453,
    "route": "北信太駅筋→鶴山台団地→北信太駅筋",
    "stop": "鶴山台二丁目",
    "passTime": "22:00",
    "vehicleType": "南海バス(車椅子・ベビーカー・ノンステップ)",
    "updateTime": "2026/07/23 22:00"
  },
  {
    "vehicleNum": "093014",
    "vehicleCd": "104",
    "vehicleCorpCd": "1",
    "running": true,
    "lat": 34.438,
    "lon": 135.232694,
    "route": "第２ターミナル(国内線・国際線)→エアロプラザ",
    "stop": "第2ターミナル国際線",
    "passTime": "21:54",
    "vehicleType": "南海バス(車椅子・ベビーカー・ノンステップ)",
    "updateTime": "2026/07/23 22:00"
  },
  {
    "vehicleNum": "093032",
    "vehicleCd": "231",
    "vehicleCorpCd": "1",
    "running": true,
    "lat": 34.435889,
    "lon": 135.241972,
    "route": "エアロプラザ→第２ターミナル(国内線・国際線)→エアロプラザ",
    "stop": "エアロプラザ",
    "passTime": "22:00",
    "vehicleType": "南海バス",
    "updateTime": "2026/07/23 22:00"
  },
  {
    "vehicleNum": "093035",
    "vehicleCd": "609",
    "vehicleCorpCd": "1",
    "running": true,
    "lat": 34.436194,
    "lon": 135.2415,
    "route": "エアロプラザ→第２ターミナル(国内線・国際線)→エアロプラザ",
    "stop": "第2ターミナル国際線",
    "passTime": "21:54",
    "vehicleType": "南海バス",
    "updateTime": "2026/07/23 22:00"
  },
  {
    "vehicleNum": "093071",
    "vehicleCd": "274",
    "vehicleCorpCd": "1",
    "running": true,
    "lat": 34.457694,
    "lon": 135.449583,
    "route": "ららぽーと和泉前→直行→和泉中央駅",
    "stop": "唐国南",
    "passTime": "22:00",
    "vehicleType": "南海バス(車椅子・ベビーカー・ノンステップ)",
    "updateTime": "2026/07/23 22:00"
  },
  {
    "vehicleNum": "093114",
    "vehicleCd": "262",
    "vehicleCorpCd": "1",
    "running": true,
    "lat": 34.47,
    "lon": 135.477083,
    "route": "光明池駅→城山台５丁→みずき台２丁目西",
    "stop": "東室堂",
    "passTime": "21:59",
    "vehicleType": "南海バス(車椅子・ベビーカー・ノンステップ)",
    "updateTime": "2026/07/23 22:00"
  }
]