[
  {
    "vehicleNum": "070101",
    "vehicleCd": "400",
    "vehicleCorpCd": "1",
    "running": true,
    "lat": 34.4855,
    "lon": 135.532278,
    "route": "泉ヶ丘駅→狭山ニュータウンセンター→金剛駅前",
    "stop": "槙塚台東",
    "passTime": "13:58",
    "vehicleType": "泉北コミュニティバス(車椅子・ベビーカー・ノンステップ)",
    "updateTime": "2026/07/21 13:58"
  },
  {
    "vehicleNum": "070104",
    "vehicleCd": "402",
    "vehicleCorpCd": "1",
    "running": true,
    "lat": 34.498389,
    "lon": 135.546583,
    "route": "泉ヶ丘駅→狭山ニュータウンセンター→金剛駅前",
    "stop": "狭山西小学校前",
    "passTime": "13:55",
    "vehicleType": "泉北コミュニティバス(車椅子・ベビーカー・ノンステップ)",
    "updateTime": "2026/07/21 13:58"
  },
  {
    "vehicleNum": "071117",
    "vehicleCd": "251",
    "vehicleCorpCd": "1",
    "running": true,
    "lat": 34.590194,
    "lon": 135.468389,
    "route": "堺駅西口→匠町→海浜匠町",
    "stop": "三宝",
    "passTime": "13:57",
    "vehicleType": "南海バス(車椅子・ベビーカー・ワンステップ)",
    "updateTime": "2026/07/21 13:58"
  },
  {
    "vehicleNum": "071602",
    "vehicleCd": "109",
    "vehicleCorpCd": "1",
    "running": true,
    "lat": 34.575,
    "lon": 135.484278,
    "route": "堺東駅前→大小路→堺駅前",
    "stop": "堺東駅前",
    "passTime": "13:57",
    "vehicleType": "堺シャトル(車椅子・ベビーカー・ノンステップ)",
    "updateTime": "2026/07/21 13:58"
  },
  {
    "vehicleNum": "071607",
    "vehicleCd": "414",
    "vehicleCorpCd": "1",
    "running": true,
    "lat": 34.5745,
    "lon": 135.482,
    "route": "堺駅前→大小路→堺東駅前",
    "stop": "熊野小学校前",
    "passTime": "13:56",
    "vehicleType": "堺シャトル(車椅子・ベビーカー・ノンステップ)",
    "updateTime": "2026/07/21 13:58"
  },
  {
    "vehicleNum": "080088",
    "vehicleCd": "442",
    "vehicleCorpCd": "1",
    "running": true,
    "lat": 34.496194,
    "lon": 135.509889,
    "route": "金剛駅前→泉ヶ丘駅→近大キャンパス前→金剛駅前",
    "stop": "金剛駅前（西側）",
    "passTime": "13:45",
    "vehicleType": "南海バス(車椅子・ベビーカー・ワンステップ)",
    "updateTime": "2026/07/21 13:58"
  },
  {
    "vehicleNum": "080105",
    "vehicleCd": "127",
    "vehicleCorpCd": "2",
    "running": true,
    "lat": 34.442,
    "lon": 135.394,
    "route": "岸和田駅前→天神山・一の宮循環　右回り→岸和田駅前",
    "stop": "東土生",
    "passTime": "13:58",
    "vehicleType": "南海ウイングバス(車椅子・ベビーカー・ワンステップ)",
    "updateTime": "2026/07/21 13:58"
  },
  {
    "vehicleNum": "080179",
    "vehicleCd": "66",
    "vehicleCorpCd": "2",
    "running": true,
    "lat": 34.396,
    "lon": 135.359778,
    "route": "泉佐野駅前→泉陽ヶ丘→熊取駅前→山の手台→小谷→熊取駅前→泉陽ヶ丘→泉佐野駅前",
    "stop": "山の手台口",
    "passTime": "13:58",
    "vehicleType": "南海ウイングバス(車椅子・ワンステップ)",
    "updateTime": "2026/07/21 13:58"
  },
  {
    "vehicleNum": "080178",
    "vehicleCd": "56",
    "vehicleCorpCd": "2",
    "running": true,
    "lat": 34.467389,
    "lon": 135.419278,
    "route": "和泉中央駅→徳洲会病院→岸和田駅前",
    "stop": "田治米北",
    "passTime": "13:57",
    "vehicleType": "南海ウイングバス(車椅子・ベビーカー・ワンステップ)",
    "updateTime": "2026/07/21 13:58"
  },
  {
    "vehicleNum": "080187",
    "vehicleCd": "66",
    "vehicleCorpCd": "1",
    "running": true,
    "lat": 34.574694,
    "lon": 135.480194,
    "route": "堺駅南口→堺駅前",
    "stop": "栄泰橋",
    "passTime": "13:52",
    "vehicleType": "南海バス(車椅子・ベビーカー・ノンステップ)",
    "updateTime": "2026/07/21 13:58"
  },
  {
    "vehicleNum": "080318",
    "vehicleCd": "83",
    "vehicleCorpCd": "1",
    "running": true,
    "lat": 34.595389,
    "lon": 135.447278,
    "route": "匠町→住之江公園駅前→匠町",
    "stop": "堺浜南",
    "passTime": "13:58",
    "vehicleType": "南海バス(車椅子・ベビーカー・ワンステップ)",
    "updateTime": "2026/07/21 13:58"
  },
  {
    "vehicleNum": "080463",
    "vehicleCd": "36",
    "vehicleCorpCd": "2",
    "running": true,
    "lat": 34.405583,
    "lon": 135.341278,
    "route": "泉佐野駅前→上瓦屋町→熊取駅前→熊取ニュータウン（フリー乗降）",
    "stop": "熊取駅前",
    "passTime": "13:58",
    "vehicleType": "南海ウイングバス(車椅子・ベビーカー・ノンステップ)",
    "updateTime": "2026/07/21 13:58"
  },
  {
    "vehicleNum": "080482",
    "vehicleCd": "156",
    "vehicleCorpCd": "1",
    "running": true,
    "lat": 34.541583,
    "lon": 135.4775,
    "route": "中もず駅前→北条→堺市立総合医療センター前",
    "stop": "北条",
    "passTime": "13:57",
    "vehicleType": "南海バス(車椅子・ベビーカー・ノンステップ)",
    "updateTime": "2026/07/21 13:58"
  },
  {
    "vehicleNum": "080671",
    "vehicleCd": "465",
    "vehicleCorpCd": "1",
    "running": true,
    "lat": 34.609,
    "lon": 135.4735,
    "route": "匠町→住之江公園駅前→匠町",
    "stop": "住之江公園駅前",
    "passTime": "13:56",
    "vehicleType": "南海バス(車椅子・ベビーカー・ノンステップ)",
    "updateTime": "2026/07/21 13:58"
  },
  {
    "vehicleNum": "080706",
    "vehicleCd": "543",
    "vehicleCorpCd": "1",
    "running": true,
    "lat": 34.587083,
    "lon": 135.482,
    "route": "堺東→住之江公園→堺東",
    "stop": "綾の町電停前",
    "passTime": "13:57",
    "vehicleType": "南海バス(車椅子・ベビーカー・ノンステップ)",
    "updateTime": "2026/07/21 13:58"
  },
  {
    "vehicleNum": "080709",
    "vehicleCd": "5",
    "vehicleCorpCd": "2",
    "running": true,
    "lat": 34.3705,
    "lon": 135.354972,
    "route": "犬鳴山→泉佐野駅前",
    "stop": "土丸",
    "passTime": "13:58",
    "vehicleType": "南海ウイングバス(車椅子・ベビーカー・ノンステップ)",
    "updateTime": "2026/07/21 13:58"
  },
  {
    "vehicleNum": "080710",
    "vehicleCd": "18",
    "vehicleCorpCd": "2",
    "running": true,
    "lat": 34.407389,
    "lon": 135.322472,
    "route": "熊取ニュータウン→熊取駅前→上瓦屋町→泉佐野駅前（フリー乗降）",
    "stop": "泉佐野市役所前",
    "passTime": "13:57",
    "vehicleType": "南海ウイングバス(車椅子・ベビーカー・ノンステップ)",
    "updateTime": "2026/07/21 13:58"
  },
  {
    "vehicleNum": "080734",
    "vehicleCd": "415",
    "vehicleCorpCd": "1",
    "running": true,
    "lat": 34.543694,
    "lon": 135.541,
    "route": "美原区役所→初芝駅前→美原区役所",
    "stop": "西大饗",
    "passTime": "13:58",
    "vehicleType": "南海バス",
    "updateTime": "2026/07/21 13:58"
  },
  {
    "vehicleNum": "080747",
    "vehicleCd": "161",
    "vehicleCorpCd": "1",
    "running": true,
    "lat": 34.582583,
    "lon": 135.518472,
    "route": "河内天美駅前→天美我堂→堺東駅前",
    "stop": "北花田２丁",
    "passTime": "13:58",
    "vehicleType": "南海バス(車椅子・ベビーカー・ノンステップ)",
    "updateTime": "2026/07/21 13:59"
  },
  {
    "vehicleNum": "080755",
    "vehicleCd": "170",
    "vehicleCorpCd": "1",
    "running": true,
    "lat": 34.494889,
    "lon": 135.579,
    "route": "金剛駅前→高辺台小学校前→金剛駅前",
    "stop": "津々山台２丁目東",
    "passTime": "13:58",
    "vehicleType": "南海バス(車椅子・ベビーカー・ノンステップ)",
    "updateTime": "2026/07/21 13:59"
  },
  {
    "vehicleNum": "080744",
    "vehicleCd": "550",
    "vehicleCorpCd": "1",
    "running": true,
    "lat": 34.536694,
    "lon": 135.474194,
    "route": "泉ヶ丘駅→八田荘団地→堺市立総合医療センター前→津久野駅前",
    "stop": "文珠前",
    "passTime": "13:58",
    "vehicleType": "南海バス(車椅子・ベビーカー・ノンステップ)",
    "updateTime": "2026/07/21 13:59"
  },
  {
    "vehicleNum": "080756",
    "vehicleCd": "315",
    "vehicleCorpCd": "1",
    "running": true,
    "lat": 34.492694,
    "lon": 135.543694,
    "route": "金剛駅前→狭山ニュータウンセンター→泉ヶ丘駅",
    "stop": "狭山西小学校前",
    "passTime": "13:56",
    "vehicleType": "南海バス(車椅子・ベビーカー・ノンステップ)",
    "updateTime": "2026/07/21 13:59"
  },
  {
    "vehicleNum": "080762",
    "vehicleCd": "561",
    "vehicleCorpCd": "1",
    "running": true,
    "lat": 34.576889,
    "lon": 135.496889,
    "route": "地下鉄北花田駅前→蔵前西→ＪＲ堺市駅前→地下鉄北花田駅前",
    "stop": "阪和堺市駅筋",
    "passTime": "13:53",
    "vehicleType": "南海バス(車椅子・ベビーカー・ノンステップ)",
    "updateTime": "2026/07/21 13:59"
  },
  {
    "vehicleNum": "080763",
    "vehicleCd": "562",
    "vehicleCorpCd": "1",
    "running": true,
    "lat": 34.521278,
    "lon": 135.508583,
    "route": "深井駅→東山車庫前→北野田駅前",
    "stop": "東山車庫前",
    "passTime": "13:58",
    "vehicleType": "南海バス(車椅子・ベビーカー・ノンステップ)",
    "updateTime": "2026/07/21 13:59"
  },
  {
    "vehicleNum": "080760",
    "vehicleCd": "559",
    "vehicleCorpCd": "1",
    "running": true,
    "lat": 34.536083,
    "lon": 135.555083,
    "route": "中もず駅前→初芝駅前→船戸下→美原区役所前",
    "stop": "黒山",
    "passTime": "13:58",
    "vehicleType": "南海バス(車椅子・ベビーカー・ノンステップ)",
    "updateTime": "2026/07/21 13:59"
  },
  {
    "vehicleNum": "080750",
    "vehicleCd": "103",
    "vehicleCorpCd": "1",
    "running": true,
    "lat": 34.537694,
    "lon": 135.561083,
    "route": "美原区役所前→船戸下→初芝駅前→中もず駅前",
    "stop": "美原区役所前",
    "passTime": "13:55",
    "vehicleType": "南海バス(車椅子・ベビーカー・ノンステップ)",
    "updateTime": "2026/07/21 13:59"
  },
  {
    "vehicleNum": "080765",
    "vehicleCd": "564",
    "vehicleCorpCd": "1",
    "running": true,
    "lat": 34.529778,
    "lon": 135.499694,
    "route": "泉ヶ丘駅→田園→深井駅",
    "stop": "畑山",
    "passTime": "13:56",
    "vehicleType": "南海バス(車椅子・ベビーカー・ノンステップ)",
    "updateTime": "2026/07/21 13:59"
  },
  {
    "vehicleNum": "080766",
    "vehicleCd": "565",
    "vehicleCorpCd": "1",
    "running": true,
    "lat": 34.5565,
    "lon": 135.478694,
    "route": "堺東駅前→上野芝→泉ヶ丘駅",
    "stop": "旭ヶ丘（堺市）",
    "passTime": "13:57",
    "vehicleType": "南海バス(車椅子・ベビーカー・ノンステップ)",
    "updateTime": "2026/07/21 13:59"
  },
  {
    "vehicleNum": "080787",
    "vehicleCd": "301",
    "vehicleCorpCd": "1",
    "running": true,
    "lat": 34.565278,
    "lon": 135.514778,
    "route": "堺駅南口→近畿中央呼吸器センター前→労災病院前→地下鉄新金岡駅前",
    "stop": "北堺警察署前",
    "passTime": "13:57",
    "vehicleType": "南海バス(車椅子・ベビーカー・ノンステップ)",
    "updateTime": "2026/07/21 13:59"
  },
  {
    "vehicleNum": "080767",
    "vehicleCd": "566",
    "vehicleCorpCd": "1",
    "running": true,
    "lat": 34.521083,
    "lon": 135.5115,
    "route": "北野田駅前→福町→深井駅",
    "stop": "高山",
    "passTime": "13:58",
    "vehicleType": "南海バス(車椅子・ベビーカー・ノンステップ)",
    "updateTime": "2026/07/21 13:59"
  },
  {
    "vehicleNum": "080789",
    "vehicleCd": "300",
    "vehicleCorpCd": "1",
    "running": true,
    "lat": 34.5655,
    "lon": 135.493694,
    "route": "堺東駅前→労災病院前→白鷺駅前（循環）",
    "stop": "三国ヶ丘駅前",
    "passTime": "13:58",
    "vehicleType": "南海バス(車椅子・ベビーカー・ノンステップ)",
    "updateTime": "2026/07/21 13:59"
  },
  {
    "vehicleNum": "080796",
    "vehicleCd": "108",
    "vehicleCorpCd": "1",
    "running": true,
    "lat": 34.561889,
    "lon": 135.519194,
    "route": "堺東駅前→労災病院前→白鷺駅前（循環）",
    "stop": "金岡神社前",
    "passTime": "13:57",
    "vehicleType": "南海バス(車椅子・ベビーカー・ノンステップ)",
    "updateTime": "2026/07/21 13:59"
  },
  {
    "vehicleNum": "080813",
    "vehicleCd": "269",
    "vehicleCorpCd": "1",
    "running": true,
    "lat": 34.578278,
    "lon": 135.481694,
    "route": "堺駅前→堺東駅前→河内松原駅前",
    "stop": "瓦町公園前",
    "passTime": "13:57",
    "vehicleType": "南海バス(車椅子・ベビーカー・ノンステップ)",
    "updateTime": "2026/07/21 13:59"
  },
  {
    "vehicleNum": "080827",
    "vehicleCd": "317",
    "vehicleCorpCd": "1",
    "running": true,
    "lat": 34.548583,
    "lon": 135.520778,
    "route": "中もず駅前→初芝駅前→船戸下→美原区役所前",
    "stop": "金田新田",
    "passTime": "13:58",
    "vehicleType": "南海バス(車椅子・ベビーカー・ノンステップ)",
    "updateTime": "2026/07/21 13:59"
  },
  {
    "vehicleNum": "080836",
    "vehicleCd": "268",
    "vehicleCorpCd": "1",
    "running": true,
    "lat": 34.575278,
    "lon": 135.522389,
    "route": "堺駅前→堺東駅前→河内松原駅前",
    "stop": "南花田町",
    "passTime": "13:59",
    "vehicleType": "南海バス(車椅子・ベビーカー・ノンステップ)",
    "updateTime": "2026/07/21 13:59"
  },
  {
    "vehicleNum": "080844",
    "vehicleCd": "581",
    "vehicleCorpCd": "1",
    "running": true,
    "lat": 34.484694,
    "lon": 135.528083,
    "route": "金剛駅前→狭山ニュータウンセンター→泉ヶ丘駅",
    "stop": "槙塚台３丁",
    "passTime": "13:57",
    "vehicleType": "南海バス(車椅子・ベビーカー・ノンステップ)",
    "updateTime": "2026/07/21 13:59"
  },
  {
    "vehicleNum": "080837",
    "vehicleCd": "351",
    "vehicleCorpCd": "1",
    "running": true,
    "lat": 34.567778,
    "lon": 135.479083,
    "route": "東山車庫前→小阪→堺東駅前",
    "stop": "賑町",
    "passTime": "13:58",
    "vehicleType": "南海バス(車椅子・ベビーカー・ノンステップ)",
    "updateTime": "2026/07/21 13:59"
  },
  {
    "vehicleNum": "080852",
    "vehicleCd": "584",
    "vehicleCorpCd": "1",
    "running": true,
    "lat": 34.496278,
    "lon": 135.571889,
    "route": "金剛駅前→寺池台小学校前→金剛駅前",
    "stop": "高辺台二丁目",
    "passTime": "13:59",
    "vehicleType": "南海バス(車椅子・ベビーカー・ノンステップ)",
    "updateTime": "2026/07/21 13:59"
  },
  {
    "vehicleNum": "080856",
    "vehicleCd": "358",
    "vehicleCorpCd": "1",
    "running": true,
    "lat": 34.500889,
    "lon": 135.58,
    "route": "金剛駅前→向陽・藤沢回り→金剛駅前",
    "stop": "中央センター前",
    "passTime": "13:58",
    "vehicleType": "南海バス(車椅子・ベビーカー・ワンステップ)",
    "updateTime": "2026/07/21 13:59"
  },
  {
    "vehicleNum": "080857",
    "vehicleCd": "226",
    "vehicleCorpCd": "1",
    "running": true,
    "lat": 34.591389,
    "lon": 135.474389,
    "route": "堺東駅前→錦綾町→堺駅西口",
    "stop": "海山通",
    "passTime": "13:58",
    "vehicleType": "南海バス(車椅子・ベビーカー・ノンステップ)",
    "updateTime": "2026/07/21 13:59"
  },
  {
    "vehicleNum": "080859",
    "vehicleCd": "227",
    "vehicleCorpCd": "1",
    "running": true,
    "lat": 34.575194,
    "lon": 135.473083,
    "route": "堺駅南口→近畿中央呼吸器センター前→労災病院前→阪和堺市駅前",
    "stop": "大寺南門山之口前",
    "passTime": "13:59",
    "vehicleType": "南海バス(車椅子・ベビーカー・ノンステップ)",
    "updateTime": "2026/07/21 13:59"
  },
  {
    "vehicleNum": "080863",
    "vehicleCd": "249",
    "vehicleCorpCd": "1",
    "running": true,
    "lat": 34.595,
    "lon": 135.458694,
    "route": "海浜匠町→匠町→堺駅西口→堺東駅前→阪和堺市駅前",
    "stop": "匠町",
    "passTime": "13:52",
    "vehicleType": "南海バス(車椅子・ベビーカー・ノンステップ)",
    "updateTime": "2026/07/21 13:59"
  },
  {
    "vehicleNum": "080868",
    "vehicleCd": "237",
    "vehicleCorpCd": "1",
    "running": true,
    "lat": 34.464889,
    "lon": 135.499194,
    "route": "栂・美木多駅→御池台回り→栂・美木多駅",
    "stop": "御池台１丁",
    "passTime": "13:58",
    "vehicleType": "南海バス(車椅子・ベビーカー・ノンステップ)",
    "updateTime": "2026/07/21 13:59"
  },
  {
    "vehicleNum": "080873",
    "vehicleCd": "144",
    "vehicleCorpCd": "1",
    "running": true,
    "lat": 34.481,
    "lon": 135.491,
    "route": "泉ヶ丘駅→御池台回り→泉ヶ丘駅",
    "stop": "原山公園前",
    "passTime": "13:58",
    "vehicleType": "南海バス(車椅子・ベビーカー・ノンステップ)",
    "updateTime": "2026/07/21 13:59"
  },
  {
    "vehicleNum": "080874",
    "vehicleCd": "352",
    "vehicleCorpCd": "1",
    "running": true,
    "lat": 34.488278,
    "lon": 135.500583,
    "route": "泉ヶ丘駅→鉢ヶ峯→泉ヶ丘駅",
    "stop": "栂",
    "passTime": "13:59",
    "vehicleType": "南海バス(車椅子・ベビーカー・ノンステップ)",
    "updateTime": "2026/07/21 13:59"
  },
  {
    "vehicleNum": "080875",
    "vehicleCd": "485",
    "vehicleCorpCd": "1",
    "running": true,
    "lat": 34.504694,
    "lon": 135.497694,
    "route": "泉ヶ丘駅→泉北２号線→堺市立総合医療センター前→津久野駅前",
    "stop": "宮山台２丁",
    "passTime": "13:58",
    "vehicleType": "南海バス(車椅子・ベビーカー・ノンステップ)",
    "updateTime": "2026/07/21 13:59"
  },
  {
    "vehicleNum": "080879",
    "vehicleCd": "359",
    "vehicleCorpCd": "1",
    "running": true,
    "lat": 34.553389,
    "lon": 135.4615,
    "route": "鳳西町南→浜寺中学校前→堺東駅前",
    "stop": "船尾町東",
    "passTime": "13:58",
    "vehicleType": "南海バス(車椅子・ベビーカー・ノンステップ)",
    "updateTime": "2026/07/21 13:59"
  },
  {
    "vehicleNum": "080883",
    "vehicleCd": "361",
    "vehicleCorpCd": "1",
    "running": true,
    "lat": 34.487472,
    "lon": 135.522778,
    "route": "泉ヶ丘駅→帝塚山学院泉ヶ丘校前→金剛駅前",
    "stop": "茶山台南口",
    "passTime": "13:58",
    "vehicleType": "南海バス(車椅子・ベビーカー・ノンステップ)",
    "updateTime": "2026/07/21 13:59"
  },
  {
    "vehicleNum": "080895",
    "vehicleCd": "167",
    "vehicleCorpCd": "1",
    "running": true,
    "lat": 34.563389,
    "lon": 135.518889,
    "route": "美原区役所→野遠→地下鉄新金岡駅前",
    "stop": "金岡口",
    "passTime": "13:58",
    "vehicleType": "南海バス(車椅子・ベビーカー・ノンステップ)",
    "updateTime": "2026/07/21 13:59"
  },
  {
    "vehicleNum": "080904",
    "vehicleCd": "362",
    "vehicleCorpCd": "1",
    "running": true,
    "lat": 34.537778,
    "lon": 135.453194,
    "route": "堺市立総合医療センター前→鳳駅前→石津川駅前",
    "stop": "大鳥神社前",
    "passTime": "13:55",
    "vehicleType": "南海バス(車椅子・ベビーカー・ノンステップ)",
    "updateTime": "2026/07/21 13:59"
  },
  {
    "vehicleNum": "080912",
    "vehicleCd": "372",
    "vehicleCorpCd": "1",
    "running": true,
    "lat": 34.582694,
    "lon": 135.523278,
    "route": "堺東駅前→錦綾町→河内天美駅前",
    "stop": "西我堂",
    "passTime": "13:59",
    "vehicleType": "南海バス(車椅子・ベビーカー・ノンステップ)",
    "updateTime": "2026/07/21 13:59"
  },
  {
    "vehicleNum": "080911",
    "vehicleCd": "240",
    "vehicleCorpCd": "1",
    "running": true,
    "lat": 34.567,
    "lon": 135.509694,
    "route": "阪和堺市駅前→労災病院前→近畿中央呼吸器センター前→堺駅南口",
    "stop": "長曽根住宅前",
    "passTime": "13:58",
    "vehicleType": "南海バス(車椅子・ベビーカー・ノンステップ)",
    "updateTime": "2026/07/21 13:59"
  },
  {
    "vehicleNum": "080917",
    "vehicleCd": "70",
    "vehicleCorpCd": "1",
    "running": true,
    "lat": 34.5205,
    "lon": 135.489194,
    "route": "津久野駅前→堺市立総合医療センター前→八田荘団地→泉ヶ丘駅",
    "stop": "小阪",
    "passTime": "13:58",
    "vehicleType": "南海バス(車椅子・ベビーカー・ノンステップ)",
    "updateTime": "2026/07/21 13:59"
  },
  {
    "vehicleNum": "080913",
    "vehicleCd": "128",
    "vehicleCorpCd": "1",
    "running": true,
    "lat": 34.561083,
    "lon": 135.469,
    "route": "堺駅前→堺駅南口",
    "stop": "協和町",
    "passTime": "13:58",
    "vehicleType": "南海バス(車椅子・ベビーカー・ノンステップ)",
    "updateTime": "2026/07/21 13:59"
  },
  {
    "vehicleNum": "080918",
    "vehicleCd": "419",
    "vehicleCorpCd": "1",
    "running": true,
    "lat": 34.586889,
    "lon": 135.469694,
    "route": "堺駅西口→錦綾町→堺東駅前",
    "stop": "三宝公園前",
    "passTime": "13:58",
    "vehicleType": "南海バス(車椅子・ベビーカー・ノンステップ)",
    "updateTime": "2026/07/21 13:59"
  },
  {
    "vehicleNum": "080935",
    "vehicleCd": "593",
    "vehicleCorpCd": "1",
    "running": true,
    "lat": 34.574694,
    "lon": 135.502583,
    "route": "河内松原駅前→阪和堺市駅前→堺駅前",
    "stop": "長尾町",
    "passTime": "13:58",
    "vehicleType": "南海バス(車椅子・ベビーカー・ノンステップ)",
    "updateTime": "2026/07/21 13:59"
  },
  {
    "vehicleNum": "080937",
    "vehicleCd": "595",
    "vehicleCorpCd": "1",
    "running": true,
    "lat": 34.552778,
    "lon": 135.503194,
    "route": "堺駅南口→三国ヶ丘駅前→北野田駅前",
    "stop": "中もず駅前通",
    "passTime": "13:59",
    "vehicleType": "南海バス(車椅子・ベビーカー・ノンステップ)",
    "updateTime": "2026/07/21 13:59"
  },
  {
    "vehicleNum": "080951",
    "vehicleCd": "597",
    "vehicleCorpCd": "1",
    "running": true,
    "lat": 34.490389,
    "lon": 135.532083,
    "route": "泉ヶ丘駅→晴美台右回り→泉ヶ丘駅",
    "stop": "はるみ小学校前",
    "passTime": "13:58",
    "vehicleType": "南海バス(車椅子・ベビーカー・ノンステップ)",
    "updateTime": "2026/07/21 13:59"
  },
  {
    "vehicleNum": "081001",
    "vehicleCd": "238",
    "vehicleCorpCd": "1",
    "running": true,
    "lat": 34.555083,
    "lon": 135.498778,
    "route": "北野田駅前→西口園→堺駅南口",
    "stop": "中もず町",
    "passTime": "13:57",
    "vehicleType": "南海バス(車椅子・ベビーカー・ノンステップ)",
    "updateTime": "2026/07/21 13:59"
  },
  {
    "vehicleNum": "081004",
    "vehicleCd": "271",
    "vehicleCorpCd": "1",
    "running": true,
    "lat": 34.530389,
    "lon": 135.487889,
    "route": "泉ヶ丘駅→宮山台中学校前→堺東駅前",
    "stop": "堀上",
    "passTime": "13:58",
    "vehicleType": "南海バス(車椅子・ベビーカー・ノンステップ)",
    "updateTime": "2026/07/21 13:59"
  },
  {
    "vehicleNum": "081007",
    "vehicleCd": "127",
    "vehicleCorpCd": "1",
    "running": true,
    "lat": 34.521278,
    "lon": 135.494694,
    "route": "堺東駅前→上野芝駅前→東山車庫前",
    "stop": "小阪",
    "passTime": "13:55",
    "vehicleType": "南海バス(車椅子・ベビーカー・ノンステップ)",
    "updateTime": "2026/07/21 13:59"
  },
  {
    "vehicleNum": "081008",
    "vehicleCd": "47",
    "vehicleCorpCd": "1",
    "running": true,
    "lat": 34.526889,
    "lon": 135.476389,
    "route": "深井駅→鈴の宮団地→堺市立総合医療センター前→津久野駅前",
    "stop": "鈴の宮団地北口",
    "passTime": "13:58",
    "vehicleType": "南海バス(車椅子・ベビーカー・ノンステップ)",
    "updateTime": "2026/07/21 13:59"
  },
  {
    "vehicleNum": "081016",
    "vehicleCd": "239",
    "vehicleCorpCd": "1",
    "running": true,
    "lat": 34.487889,
    "lon": 135.531389,
    "route": "金剛駅前→帝塚山学院泉ヶ丘校前→泉ヶ丘駅前",
    "stop": "帝塚山学院泉ケ丘校前",
    "passTime": "13:58",
    "vehicleType": "南海バス(車椅子・ベビーカー・ノンステップ)",
    "updateTime": "2026/07/21 13:59"
  },
  {
    "vehicleNum": "081017",
    "vehicleCd": "135",
    "vehicleCorpCd": "1",
    "running": true,
    "lat": 34.502778,
    "lon": 135.518778,
    "route": "泉ヶ丘駅→三原台左回り→泉ヶ丘駅",
    "stop": "三原台小学校前",
    "passTime": "13:58",
    "vehicleType": "南海バス(車椅子・ベビーカー・ノンステップ)",
    "updateTime": "2026/07/21 13:59"
  },
  {
    "vehicleNum": "081021",
    "vehicleCd": "243",
    "vehicleCorpCd": "1",
    "running": true,
    "lat": 34.527778,
    "lon": 135.476083,
    "route": "津久野駅前→鈴の宮団地センター→深井駅",
    "stop": "八田荘西小学校前",
    "passTime": "13:58",
    "vehicleType": "南海バス(車椅子・ベビーカー・ノンステップ)",
    "updateTime": "2026/07/21 13:59"
  },
  {
    "vehicleNum": "081023",
    "vehicleCd": "264",
    "vehicleCorpCd": "1",
    "running": true,
    "lat": 34.538194,
    "lon": 135.477,
    "route": "堺東駅前→堀上緑町１丁→堺東駅前",
    "stop": "家原寺町",
    "passTime": "13:58",
    "vehicleType": "南海バス(車椅子・ベビーカー・ノンステップ)",
    "updateTime": "2026/07/21 13:59"
  },
  {
    "vehicleNum": "081035",
    "vehicleCd": "491",
    "vehicleCorpCd": "1",
    "running": true,
    "lat": 34.499389,
    "lon": 135.530694,
    "route": "泉ヶ丘駅→スマ・エコタウン晴美台→高倉台左回り→泉ヶ丘駅",
    "stop": "堺東高校前",
    "passTime": "13:58",
    "vehicleType": "南海バス(車椅子・ベビーカー・ノンステップ)",
    "updateTime": "2026/07/21 13:59"
  },
  {
    "vehicleNum": "081034",
    "vehicleCd": "120",
    "vehicleCorpCd": "1",
    "running": true,
    "lat": 34.473278,
    "lon": 135.501389,
    "route": "泉ヶ丘駅→庭代台右回り→泉ヶ丘駅",
    "stop": "庭代台３丁",
    "passTime": "13:58",
    "vehicleType": "南海バス(車椅子・ベビーカー・ノンステップ)",
    "updateTime": "2026/07/21 13:59"
  },
  {
    "vehicleNum": "081037",
    "vehicleCd": "236",
    "vehicleCorpCd": "1",
    "running": true,
    "lat": 34.480389,
    "lon": 135.525,
    "route": "泉ヶ丘駅→槙塚台左回り→泉ヶ丘駅",
    "stop": "槙塚台２丁南",
    "passTime": "13:58",
    "vehicleType": "南海バス(車椅子・ベビーカー・ノンステップ)",
    "updateTime": "2026/07/21 13:59"
  },
  {
    "vehicleNum": "090170",
    "vehicleCd": "117",
    "vehicleCorpCd": "2",
    "running": true,
    "lat": 34.458389,
    "lon": 135.421,
    "route": "白原車庫→内畑→岸和田駅前",
    "stop": "岡山",
    "passTime": "13:58",
    "vehicleType": "南海ウイングバス",
    "updateTime": "2026/07/21 13:59"
  },
  {
    "vehicleNum": "090144",
    "vehicleCd": "82",
    "vehicleCorpCd": "2",
    "running": true,
    "lat": 34.4715,
    "lon": 135.399694,
    "route": "岸和田駅前→徳洲会病院→和泉中央駅",
    "stop": "荒木町",
    "passTime": "13:58",
    "vehicleType": "南海ウイングバス(車椅子・ベビーカー・ワンステップ)",
    "updateTime": "2026/07/21 13:59"
  },
  {
    "vehicleNum": "090766",
    "vehicleCd": "137",
    "vehicleCorpCd": "2",
    "running": true,
    "lat": 34.404194,
    "lon": 135.345194,
    "route": "大阪体育大学前→熊取駅前",
    "stop": "青年会場前",
    "passTime": "13:57",
    "vehicleType": "南海ウイングバス(車椅子・ワンステップ)",
    "updateTime": "2026/07/21 13:59"
  },
  {
    "vehicleNum": "081044",
    "vehicleCd": "132",
    "vehicleCorpCd": "1",
    "running": true,
    "lat": 34.494389,
    "lon": 135.507,
    "route": "泉ヶ丘駅→御池台回り→泉ヶ丘駅",
    "stop": "泉ヶ丘駅（南側）",
    "passTime": "13:57",
    "vehicleType": "南海バス(車椅子・ベビーカー・ノンステップ)",
    "updateTime": "2026/07/21 13:59"
  },
  {
    "vehicleNum": "091580",
    "vehicleCd": "85",
    "vehicleCorpCd": "2",
    "running": true,
    "lat": 34.380278,
    "lon": 135.266694,
    "route": "泉南市コミュニティバス 新家回り",
    "stop": "イオンモールりんくう泉南",
    "passTime": "13:57",
    "vehicleType": "南海ウイングバス(車椅子・ベビーカー・ノンステップ)",
    "updateTime": "2026/07/21 13:59"
  },
  {
    "vehicleNum": "091581",
    "vehicleCd": "198",
    "vehicleCorpCd": "1",
    "running": true,
    "lat": 34.426472,
    "lon": 135.227583,
    "route": "空港駅→給油地区",
    "stop": "貨物合同庁舎前",
    "passTime": "13:59",
    "vehicleType": "南海バス(車椅子・ノンステップ)",
    "updateTime": "2026/07/21 13:59"
  },
  {
    "vehicleNum": "091785",
    "vehicleCd": "120",
    "vehicleCorpCd": "2",
    "running": true,
    "lat": 34.406278,
    "lon": 135.362278,
    "route": "熊取町　七山方面循環コース",
    "stop": "熊取ニュータウン",
    "passTime": "13:56",
    "vehicleType": "熊取町コミュニティバス(メジーナちゃん号)",
    "updateTime": "2026/07/21 13:59"
  },
  {
    "vehicleNum": "091784",
    "vehicleCd": "119",
    "vehicleCorpCd": "2",
    "running": true,
    "lat": 34.393778,
    "lon": 135.372889,
    "route": "熊取町　自然公園方面循環コース",
    "stop": "小谷",
    "passTime": "13:59",
    "vehicleType": "熊取町コミュニティバス(ジャンプ君号)",
    "updateTime": "2026/07/21 13:59"
  },
  {
    "vehicleNum": "091745",
    "vehicleCd": "103",
    "vehicleCorpCd": "2",
    "running": true,
    "lat": 34.423778,
    "lon": 135.439778,
    "route": "岸和田駅前→内畑→牛滝温泉",
    "stop": "積川神社前",
    "passTime": "13:57",
    "vehicleType": "南海ウイングバス",
    "updateTime": "2026/07/21 13:59"
  },
  {
    "vehicleNum": "091893",
    "vehicleCd": "84",
    "vehicleCorpCd": "2",
    "running": true,
    "lat": 34.363694,
    "lon": 135.270389,
    "route": "泉南市コミュニティバス 砂川回り",
    "stop": "図書館・文化ホール前",
    "passTime": "13:59",
    "vehicleType": "岸和田市コミュニティバス(ローズバス)",
    "updateTime": "2026/07/21 13:59"
  },
  {
    "vehicleNum": "091894",
    "vehicleCd": "3",
    "vehicleCorpCd": "2",
    "running": true,
    "lat": 34.367583,
    "lon": 135.277583,
    "route": "泉南市コミュニティバス 山回り",
    "stop": "図書館・文化ホール前",
    "passTime": "13:56",
    "vehicleType": "泉南市コミュニティバス(紫)",
    "updateTime": "2026/07/21 13:59"
  },
  {
    "vehicleNum": "092045",
    "vehicleCd": "463",
    "vehicleCorpCd": "1",
    "running": true,
    "lat": 34.445083,
    "lon": 135.568972,
    "route": "ﾓｯｸﾙ 美加～木戸東町～美加",
    "stop": "郵便局前（河内長野市）",
    "passTime": "13:58",
    "vehicleType": "南海バス(車椅子・ベビーカー・ノンステップ)",
    "updateTime": "2026/07/21 13:59"
  },
  {
    "vehicleNum": "092135",
    "vehicleCd": "525",
    "vehicleCorpCd": "1",
    "running": true,
    "lat": 34.434889,
    "lon": 135.233778,
    "route": "エアロプラザ→第２ターミナル(国内線・国際線)→エアロプラザ",
    "stop": "第2ターミナル国際線",
    "passTime": "13:57",
    "vehicleType": "南海バス",
    "updateTime": "2026/07/21 13:59"
  },
  {
    "vehicleNum": "092141",
    "vehicleCd": "527",
    "vehicleCorpCd": "1",
    "running": true,
    "lat": 34.609778,
    "lon": 135.450278,
    "route": "堺東駅前→ＡＴＣ→海遊館→堺東駅前",
    "stop": "海遊館",
    "passTime": "13:47",
    "vehicleType": "南海バス",
    "updateTime": "2026/07/21 13:59"
  },
  {
    "vehicleNum": "092153",
    "vehicleCd": "529",
    "vehicleCorpCd": "1",
    "running": true,
    "lat": 34.435278,
    "lon": 135.234278,
    "route": "エアロプラザ→第２ターミナル(国内線・国際線)→エアロプラザ",
    "stop": "エアロプラザ",
    "passTime": "13:57",
    "vehicleType": "南海バス",
    "updateTime": "2026/07/21 13:59"
  },
  {
    "vehicleNum": "092205",
    "vehicleCd": "25",
    "vehicleCorpCd": "1",
    "running": true,
    "lat": 34.413778,
    "lon": 135.626278,
    "route": "金剛山ﾛｰﾌﾟｳｪｲ前→日東町東口→河内長野駅前",
    "stop": "小深",
    "passTime": "13:58",
    "vehicleType": "南海バス(車椅子・ベビーカー・ノンステップ)",
    "updateTime": "2026/07/21 13:59"
  },
  {
    "vehicleNum": "092233",
    "vehicleCd": "533",
    "vehicleCorpCd": "1",
    "running": true,
    "lat": 34.523694,
    "lon": 135.4625,
    "route": "堺東駅前→鳳駅前→光明池駅",
    "stop": "上",
    "passTime": "13:58",
    "vehicleType": "南海バス(車椅子・ベビーカー・ノンステップ)",
    "updateTime": "2026/07/21 13:59"
  },
  {
    "vehicleNum": "092345",
    "vehicleCd": "160",
    "vehicleCorpCd": "1",
    "running": true,
    "lat": 34.421083,
    "lon": 135.222778,
    "route": "給油地区→ＦｅｄＥｘ→空港駅",
    "stop": "給油地区",
    "passTime": "13:59",
    "vehicleType": "南海バス",
    "updateTime": "2026/07/21 13:59"
  },
  {
    "vehicleNum": "092398",
    "vehicleCd": "41",
    "vehicleCorpCd": "1",
    "running": true,
    "lat": 34.438389,
    "lon": 135.232194,
    "route": "エアロプラザ→第２ターミナル(国内線・国際線)→エアロプラザ",
    "stop": "第2ターミナル国内線",
    "passTime": "13:58",
    "vehicleType": "南海バス(車椅子・ノンステップ)",
    "updateTime": "2026/07/21 13:59"
  },
  {
    "vehicleNum": "092384",
    "vehicleCd": "558",
    "vehicleCorpCd": "1",
    "running": true,
    "lat": 34.490694,
    "lon": 135.416889,
    "route": "泉大津駅前→和泉府中駅前→和泉中央駅",
    "stop": "我孫子",
    "passTime": "13:59",
    "vehicleType": "南海バス(車椅子・ベビーカー・ノンステップ)",
    "updateTime": "2026/07/21 13:59"
  },
  {
    "vehicleNum": "092454",
    "vehicleCd": "125",
    "vehicleCorpCd": "2",
    "running": true,
    "lat": 34.362889,
    "lon": 135.277389,
    "route": "泉南市コミュニティバス 岡田Ｂ回り",
    "stop": "砂川駅前通り",
    "passTime": "13:59",
    "vehicleType": "泉南市コミュニティバス(橙)",
    "updateTime": "2026/07/21 13:59"
  },
  {
    "vehicleNum": "092468",
    "vehicleCd": "51",
    "vehicleCorpCd": "1",
    "running": true,
    "lat": 34.428083,
    "lon": 135.571278,
    "route": "三日市町駅前→南青葉台→三日市町駅前",
    "stop": "新町橋",
    "passTime": "13:59",
    "vehicleType": "南海バス(車椅子・ベビーカー・ノンステップ)",
    "updateTime": "2026/07/21 13:59"
  },
  {
    "vehicleNum": "092533",
    "vehicleCd": "288",
    "vehicleCorpCd": "1",
    "running": true,
    "lat": 34.488083,
    "lon": 135.472778,
    "route": "光明池駅→新檜尾台センター→光明池駅",
    "stop": "赤坂台五丁",
    "passTime": "13:57",
    "vehicleType": "南海バス(車椅子・ベビーカー・ノンステップ)",
    "updateTime": "2026/07/21 13:59"
  },
  {
    "vehicleNum": "092534",
    "vehicleCd": "265",
    "vehicleCorpCd": "1",
    "running": true,
    "lat": 34.485389,
    "lon": 135.425,
    "route": "和泉府中駅前→医療センター玄関口→和泉中央駅",
    "stop": "和泉府中駅前",
    "passTime": "13:56",
    "vehicleType": "南海バス(車椅子・ベビーカー・ノンステップ)",
    "updateTime": "2026/07/21 13:59"
  },
  {
    "vehicleNum": "092569",
    "vehicleCd": "266",
    "vehicleCorpCd": "1",
    "running": true,
    "lat": 34.464694,
    "lon": 135.485694,
    "route": "泉大津駅前→和泉府中駅前→和泉中央駅→光明池駅",
    "stop": "城山台四丁",
    "passTime": "13:59",
    "vehicleType": "南海バス(車椅子・ベビーカー・ノンステップ)",
    "updateTime": "2026/07/21 13:59"
  },
  {
    "vehicleNum": "092579",
    "vehicleCd": "579",
    "vehicleCorpCd": "1",
    "running": true,
    "lat": 34.455278,
    "lon": 135.557389,
    "route": "千代→緑→小山田→千代",
    "stop": "配水池前",
    "passTime": "13:59",
    "vehicleType": "南海バス(車椅子・ベビーカー・ノンステップ)",
    "updateTime": "2026/07/21 13:59"
  },
  {
    "vehicleNum": "092580",
    "vehicleCd": "377",
    "vehicleCorpCd": "1",
    "running": true,
    "lat": 34.4835,
    "lon": 135.424278,
    "route": "和泉中央駅→寺田→泉大津駅前",
    "stop": "和泉市役所前",
    "passTime": "13:58",
    "vehicleType": "南海バス(車椅子・ベビーカー・ノンステップ)",
    "updateTime": "2026/07/21 13:59"
  },
  {
    "vehicleNum": "092587",
    "vehicleCd": "124",
    "vehicleCorpCd": "1",
    "running": true,
    "lat": 34.398,
    "lon": 135.525389,
    "route": "河内長野駅前→奥河内くろまろの郷→滝畑ダム",
    "stop": "滝畑ダムサイト",
    "passTime": "13:59",
    "vehicleType": "南海バス(車椅子・ベビーカー・ノンステップ)",
    "updateTime": "2026/07/21 13:59"
  },
  {
    "vehicleNum": "092581",
    "vehicleCd": "375",
    "vehicleCorpCd": "1",
    "running": true,
    "lat": 34.559889,
    "lon": 135.4725,
    "route": "栂・美木多駅→鳳駅前→堺東駅前",
    "stop": "塩穴通",
    "passTime": "13:58",
    "vehicleType": "南海バス(車椅子・ベビーカー・ノンステップ)",
    "updateTime": "2026/07/21 13:59"
  },
  {
    "vehicleNum": "092653",
    "vehicleCd": "357",
    "vehicleCorpCd": "1",
    "running": true,
    "lat": 34.468583,
    "lon": 135.565389,
    "route": "緑ヶ丘北町→千代田駅前",
    "stop": "南海西友前",
    "passTime": "13:57",
    "vehicleType": "南海バス(車椅子・ベビーカー・ノンステップ)",
    "updateTime": "2026/07/21 13:59"
  },
  {
    "vehicleNum": "092696",
    "vehicleCd": "589",
    "vehicleCorpCd": "1",
    "running": true,
    "lat": 34.532278,
    "lon": 135.460083,
    "route": "堺東駅前→鳳駅前→国分峠東",
    "stop": "鳳駅前",
    "passTime": "13:58",
    "vehicleType": "南海バス(車椅子・ベビーカー・ノンステップ)",
    "updateTime": "2026/07/21 13:59"
  },
  {
    "vehicleNum": "092758",
    "vehicleCd": "363",
    "vehicleCorpCd": "1",
    "running": true,
    "lat": 34.423472,
    "lon": 135.554889,
    "route": "大矢船西町→三日市町駅前",
    "stop": "大矢船北町（南花台系統）",
    "passTime": "13:58",
    "vehicleType": "南海バス(車椅子・ベビーカー・ノンステップ)",
    "updateTime": "2026/07/21 13:59"
  },
  {
    "vehicleNum": "092761",
    "vehicleCd": "23",
    "vehicleCorpCd": "1",
    "running": true,
    "lat": 34.446889,
    "lon": 135.578083,
    "route": "河内長野駅前→日東町東口→金剛山ﾛｰﾌﾟｳｪｲ前",
    "stop": "河合寺",
    "passTime": "13:59",
    "vehicleType": "南海バス(車椅子・ベビーカー・ノンステップ)",
    "updateTime": "2026/07/21 13:59"
  },
  {
    "vehicleNum": "092763",
    "vehicleCd": "520",
    "vehicleCorpCd": "1",
    "running": true,
    "lat": 34.451389,
    "lon": 135.492083,
    "route": "光明池駅→城山台５丁→みずき台２丁目西",
    "stop": "光明台三丁目",
    "passTime": "13:59",
    "vehicleType": "南海バス(車椅子・ベビーカー・ノンステップ)",
    "updateTime": "2026/07/21 13:59"
  },
  {
    "vehicleNum": "092795",
    "vehicleCd": "592",
    "vehicleCorpCd": "1",
    "running": true,
    "lat": 34.5535,
    "lon": 135.466278,
    "route": "堺東駅前→鳳駅前→光明池駅",
    "stop": "霞ヶ丘",
    "passTime": "13:58",
    "vehicleType": "南海バス(車椅子・ベビーカー・ノンステップ)",
    "updateTime": "2026/07/21 13:59"
  },
  {
    "vehicleNum": "092830",
    "vehicleCd": "367",
    "vehicleCorpCd": "1",
    "running": true,
    "lat": 34.467889,
    "lon": 135.486583,
    "route": "泉ヶ丘駅→光明池駅→城山台２丁→光明池駅→泉ヶ丘駅",
    "stop": "城山台センター",
    "passTime": "13:58",
    "vehicleType": "南海バス(車椅子・ベビーカー・ノンステップ)",
    "updateTime": "2026/07/21 13:59"
  },
  {
    "vehicleNum": "092856",
    "vehicleCd": "601",
    "vehicleCorpCd": "1",
    "running": true,
    "lat": 34.483083,
    "lon": 135.489778,
    "route": "堺東駅前→鳳駅前→栂・美木多駅",
    "stop": "桃山台三丁南",
    "passTime": "13:55",
    "vehicleType": "南海バス(車椅子・ベビーカー・ノンステップ)",
    "updateTime": "2026/07/21 13:59"
  },
  {
    "vehicleNum": "092857",
    "vehicleCd": "516",
    "vehicleCorpCd": "1",
    "running": true,
    "lat": 34.4645,
    "lon": 135.453694,
    "route": "和泉中央駅→医療センター玄関口→和泉府中駅前",
    "stop": "いぶき野三丁目",
    "passTime": "13:58",
    "vehicleType": "南海バス(車椅子・ベビーカー・ノンステップ)",
    "updateTime": "2026/07/21 13:59"
  },
  {
    "vehicleNum": "092859",
    "vehicleCd": "32",
    "vehicleCorpCd": "1",
    "running": true,
    "lat": 34.449389,
    "lon": 135.575083,
    "route": "小吹台→河内長野駅前",
    "stop": "河合寺",
    "passTime": "13:58",
    "vehicleType": "南海バス(車椅子・ベビーカー・ノンステップ)",
    "updateTime": "2026/07/21 13:59"
  },
  {
    "vehicleNum": "092858",
    "vehicleCd": "320",
    "vehicleCorpCd": "1",
    "running": true,
    "lat": 34.476389,
    "lon": 135.467194,
    "route": "光明池駅→山田→堺東駅前",
    "stop": "変電所前",
    "passTime": "13:57",
    "vehicleType": "南海バス(車椅子・ベビーカー・ノンステップ)",
    "updateTime": "2026/07/21 13:59"
  },
  {
    "vehicleNum": "092901",
    "vehicleCd": "356",
    "vehicleCorpCd": "1",
    "running": true,
    "lat": 34.532194,
    "lon": 135.459389,
    "route": "光明池駅→山田→堺東駅前",
    "stop": "鳳駅前",
    "passTime": "13:57",
    "vehicleType": "南海バス(車椅子・ベビーカー・ノンステップ)",
    "updateTime": "2026/07/21 13:59"
  },
  {
    "vehicleNum": "092917",
    "vehicleCd": "40",
    "vehicleCorpCd": "1",
    "running": true,
    "lat": 34.436694,
    "lon": 135.549083,
    "route": "滝畑ダム→奥河内くろまろの郷→河内長野駅前",
    "stop": "上高向",
    "passTime": "13:59",
    "vehicleType": "南海バス(車椅子・ベビーカー・ノンステップ)",
    "updateTime": "2026/07/21 13:59"
  },
  {
    "vehicleNum": "092916",
    "vehicleCd": "235",
    "vehicleCorpCd": "1",
    "running": true,
    "lat": 34.494694,
    "lon": 135.411694,
    "route": "光明池駅→光明池車庫→和泉中央駅→泉大津駅前",
    "stop": "我孫子",
    "passTime": "13:56",
    "vehicleType": "南海バス(車椅子・ベビーカー・ノンステップ)",
    "updateTime": "2026/07/21 13:59"
  },
  {
    "vehicleNum": "092914",
    "vehicleCd": "75",
    "vehicleCorpCd": "1",
    "running": true,
    "lat": 34.471583,
    "lon": 135.454,
    "route": "泉大津駅前→和泉府中駅前→和泉中央駅",
    "stop": "鳥池",
    "passTime": "13:59",
    "vehicleType": "南海バス(車椅子・ベビーカー・ノンステップ)",
    "updateTime": "2026/07/21 13:59"
  },
  {
    "vehicleNum": "092918",
    "vehicleCd": "114",
    "vehicleCorpCd": "1",
    "running": true,
    "lat": 34.437583,
    "lon": 135.4495,
    "route": "和泉中央駅→テクノステージセンター前→グリーンポリス前→和泉中央駅",
    "stop": "ららぽーと和泉前",
    "passTime": "13:59",
    "vehicleType": "南海バス(車椅子・ベビーカー・ノンステップ)",
    "updateTime": "2026/07/21 13:59"
  },
  {
    "vehicleNum": "092937",
    "vehicleCd": "73",
    "vehicleCorpCd": "1",
    "running": true,
    "lat": 34.459583,
    "lon": 135.458278,
    "route": "和泉中央駅→はつが野→和泉青葉台→和泉中央駅（左回り）",
    "stop": "和泉中央駅",
    "passTime": "13:55",
    "vehicleType": "南海バス(車椅子・ベビーカー・ノンステップ)",
    "updateTime": "2026/07/21 13:59"
  },
  {
    "vehicleNum": "092978",
    "vehicleCd": "325",
    "vehicleCorpCd": "1",
    "running": true,
    "lat": 34.515,
    "lon": 135.465,
    "route": "国分峠東→栂・美木多駅→堺東駅前",
    "stop": "福泉公民館前",
    "passTime": "13:57",
    "vehicleType": "南海バス(車椅子・ベビーカー・ノンステップ)",
    "updateTime": "2026/07/21 13:59"
  },
  {
    "vehicleNum": "092976",
    "vehicleCd": "138",
    "vehicleCorpCd": "1",
    "running": true,
    "lat": 34.460583,
    "lon": 135.455083,
    "route": "泉大津駅前→和泉府中駅前→和泉中央駅",
    "stop": "唐国南",
    "passTime": "13:56",
    "vehicleType": "南海バス(車椅子・ベビーカー・ノンステップ)",
    "updateTime": "2026/07/21 13:59"
  },
  {
    "vehicleNum": "093032",
    "vehicleCd": "231",
    "vehicleCorpCd": "1",
    "running": true,
    "lat": 34.436083,
    "lon": 135.2425,
    "route": "エアロプラザ→第２ターミナル(国内線・国際線)→エアロプラザ",
    "stop": "第2ターミナル国際線",
    "passTime": "13:53",
    "vehicleType": "南海バス",
    "updateTime": "2026/07/21 13:59"
  },
  {
    "vehicleNum": "093011",
    "vehicleCd": "27",
    "vehicleCorpCd": "1",
    "running": true,
    "lat": 34.435,
    "lon": 135.242583,
    "route": "関空展望ホール→旅客ターミナル→関空展望ホール",
    "stop": "関空展望ホール",
    "passTime": "13:50",
    "vehicleType": "南海バス(車椅子・ベビーカー・ノンステップ)",
    "updateTime": "2026/07/21 13:59"
  },
  {
    "vehicleNum": "093046",
    "vehicleCd": "246",
    "vehicleCorpCd": "1",
    "running": true,
    "lat": 34.460389,
    "lon": 135.454389,
    "route": "和泉中央駅→阪本→泉大津駅前",
    "stop": "和泉中央駅",
    "passTime": "13:57",
    "vehicleType": "南海バス(車椅子・ベビーカー・ノンステップ)",
    "updateTime": "2026/07/21 13:59"
  }
]