[
  {
    "vehicleNum": "070102",
    "vehicleCd": "401",
    "vehicleCorpCd": "1",
    "running": true,
    "lat": 34.484278,
    "lon": 135.537889,
    "route": "金剛駅前→狭山ニュータウンセンター→泉ヶ丘駅",
    "stop": "西山台南",
    "passTime": "17:26",
    "vehicleType": "泉北コミュニティバス(車椅子・ベビーカー・ノンステップ)",
    "updateTime": "2026/07/20 17:28"
  },
  {
    "vehicleNum": "070101",
    "vehicleCd": "400",
    "vehicleCorpCd": "1",
    "running": true,
    "lat": 34.477194,
    "lon": 135.539889,
    "route": "泉ヶ丘駅→狭山ニュータウンセンター→金剛駅前",
    "stop": "南第二小学校前",
    "passTime": "17:27",
    "vehicleType": "泉北コミュニティバス(車椅子・ベビーカー・ノンステップ)",
    "updateTime": "2026/07/20 17:28"
  },
  {
    "vehicleNum": "070105",
    "vehicleCd": "403",
    "vehicleCorpCd": "1",
    "running": true,
    "lat": 34.498583,
    "lon": 135.553,
    "route": "泉ヶ丘駅→狭山ニュータウンセンター→金剛駅前",
    "stop": "亀の甲",
    "passTime": "17:27",
    "vehicleType": "泉北コミュニティバス(車椅子・ベビーカー・ノンステップ)",
    "updateTime": "2026/07/20 17:28"
  },
  {
    "vehicleNum": "070104",
    "vehicleCd": "402",
    "vehicleCorpCd": "1",
    "running": true,
    "lat": 34.497972,
    "lon": 135.543889,
    "route": "金剛駅前→狭山ニュータウンセンター→泉ヶ丘駅",
    "stop": "狭山西小学校前",
    "passTime": "17:28",
    "vehicleType": "泉北コミュニティバス(車椅子・ベビーカー・ノンステップ)",
    "updateTime": "2026/07/20 17:28"
  },
  {
    "vehicleNum": "070850",
    "vehicleCd": "429",
    "vehicleCorpCd": "1",
    "running": true,
    "lat": 34.611194,
    "lon": 135.446,
    "route": "堺東駅前→ＡＴＣ→海遊館→堺東駅前",
    "stop": "堺駅前",
    "passTime": "17:13",
    "vehicleType": "南海バス",
    "updateTime": "2026/07/20 17:28"
  },
  {
    "vehicleNum": "071602",
    "vehicleCd": "109",
    "vehicleCorpCd": "1",
    "running": true,
    "lat": 34.578694,
    "lon": 135.474583,
    "route": "堺東駅前→大小路→堺駅前",
    "stop": "大小路",
    "passTime": "17:28",
    "vehicleType": "堺シャトル(車椅子・ベビーカー・ノンステップ)",
    "updateTime": "2026/07/20 17:28"
  },
  {
    "vehicleNum": "071605",
    "vehicleCd": "412",
    "vehicleCorpCd": "1",
    "running": true,
    "lat": 34.575778,
    "lon": 135.479,
    "route": "堺駅前→大小路→堺東駅前",
    "stop": "熊野小学校前",
    "passTime": "17:28",
    "vehicleType": "堺シャトル(車椅子・ベビーカー・ノンステップ)",
    "updateTime": "2026/07/20 17:28"
  },
  {
    "vehicleNum": "080105",
    "vehicleCd": "127",
    "vehicleCorpCd": "2",
    "running": true,
    "lat": 34.417194,
    "lon": 135.440194,
    "route": "白原車庫→内畑→岸和田駅前",
    "stop": "沢峯",
    "passTime": "17:28",
    "vehicleType": "南海ウイングバス(車椅子・ベビーカー・ワンステップ)",
    "updateTime": "2026/07/20 17:28"
  },
  {
    "vehicleNum": "080117",
    "vehicleCd": "470",
    "vehicleCorpCd": "1",
    "running": true,
    "lat": 34.4955,
    "lon": 135.517194,
    "route": "はるみ小学校前→帝塚山学院泉ヶ丘校前→泉ヶ丘駅",
    "stop": "帝塚山学院泉ケ丘校前",
    "passTime": "17:22",
    "vehicleType": "南海バス",
    "updateTime": "2026/07/20 17:28"
  },
  {
    "vehicleNum": "080118",
    "vehicleCd": "38",
    "vehicleCorpCd": "1",
    "running": true,
    "lat": 34.484694,
    "lon": 135.527694,
    "route": "はるみ小学校前→帝塚山学院泉ヶ丘校前→泉ヶ丘駅",
    "stop": "帝塚山学院泉ケ丘校前",
    "passTime": "17:26",
    "vehicleType": "南海バス(車椅子・ベビーカー・ワンステップ)",
    "updateTime": "2026/07/20 17:28"
  },
  {
    "vehicleNum": "080180",
    "vehicleCd": "68",
    "vehicleCorpCd": "2",
    "running": true,
    "lat": 34.451889,
    "lon": 135.435472,
    "route": "道の駅愛彩ランド→包近→和泉中央駅",
    "stop": "山直東",
    "passTime": "17:28",
    "vehicleType": "南海ウイングバス(車椅子・ベビーカー・ワンステップ)",
    "updateTime": "2026/07/20 17:28"
  },
  {
    "vehicleNum": "080184",
    "vehicleCd": "34",
    "vehicleCorpCd": "2",
    "running": true,
    "lat": 34.404194,
    "lon": 135.345194,
    "route": "つばさが丘北口→大阪体育大学前→熊取駅前→ダンバラ公園前→泉佐野駅前",
    "stop": "青年会場前",
    "passTime": "17:28",
    "vehicleType": "南海ウイングバス(車椅子・ベビーカー・ノンステップ)",
    "updateTime": "2026/07/20 17:28"
  },
  {
    "vehicleNum": "080321",
    "vehicleCd": "14",
    "vehicleCorpCd": "2",
    "running": true,
    "lat": 34.429083,
    "lon": 135.432194,
    "route": "和泉中央駅→包近→道の駅愛彩ランド",
    "stop": "稲葉町",
    "passTime": "17:27",
    "vehicleType": "南海ウイングバス(車椅子・ワンステップ)",
    "updateTime": "2026/07/20 17:28"
  },
  {
    "vehicleNum": "080323",
    "vehicleCd": "59",
    "vehicleCorpCd": "2",
    "running": true,
    "lat": 34.408194,
    "lon": 135.425,
    "route": "岸和田駅前→岸和田警察署前→河合→白原車庫",
    "stop": "白原",
    "passTime": "17:27",
    "vehicleType": "南海ウイングバス(車椅子・ワンステップ)",
    "updateTime": "2026/07/20 17:28"
  },
  {
    "vehicleNum": "080388",
    "vehicleCd": "52",
    "vehicleCorpCd": "2",
    "running": true,
    "lat": 34.398083,
    "lon": 135.368194,
    "route": "熊取駅前→山の手台→小谷→熊取駅前",
    "stop": "大宮",
    "passTime": "17:28",
    "vehicleType": "南海ウイングバス(車椅子・ベビーカー・ワンステップ)",
    "updateTime": "2026/07/20 17:28"
  },
  {
    "vehicleNum": "080482",
    "vehicleCd": "156",
    "vehicleCorpCd": "1",
    "running": true,
    "lat": 34.533472,
    "lon": 135.463278,
    "route": "石津川駅前→浜寺公園駅前通→鳳駅前→堺市立総合医療センター前",
    "stop": "西区役所前",
    "passTime": "17:27",
    "vehicleType": "南海バス(車椅子・ベビーカー・ノンステップ)",
    "updateTime": "2026/07/20 17:28"
  },
  {
    "vehicleNum": "080627",
    "vehicleCd": "446",
    "vehicleCorpCd": "1",
    "running": true,
    "lat": 34.547083,
    "lon": 135.560889,
    "route": "北野田駅前→多治井北（循環）→北野田駅前",
    "stop": "黒姫山古墳前",
    "passTime": "17:26",
    "vehicleType": "南海バス(車椅子・ベビーカー・ノンステップ)",
    "updateTime": "2026/07/20 17:28"
  },
  {
    "vehicleNum": "080640",
    "vehicleCd": "133",
    "vehicleCorpCd": "2",
    "running": true,
    "lat": 34.335083,
    "lon": 135.219083,
    "route": "箱作駅前→桃の木台回り→箱作駅前",
    "stop": "箱作駅前",
    "passTime": "17:26",
    "vehicleType": "南海ウイングバス(車椅子・ベビーカー・ノンステップ)",
    "updateTime": "2026/07/20 17:28"
  },
  {
    "vehicleNum": "080651",
    "vehicleCd": "455",
    "vehicleCorpCd": "1",
    "running": true,
    "lat": 34.545694,
    "lon": 135.555194,
    "route": "地下鉄新金岡駅前→野遠→美原区役所",
    "stop": "太井",
    "passTime": "17:25",
    "vehicleType": "南海バス",
    "updateTime": "2026/07/20 17:28"
  },
  {
    "vehicleNum": "080676",
    "vehicleCd": "158",
    "vehicleCorpCd": "1",
    "running": true,
    "lat": 34.528694,
    "lon": 135.547889,
    "route": "北野田駅前→菩提→地下鉄新金岡駅前",
    "stop": "北野田北口",
    "passTime": "17:28",
    "vehicleType": "南海バス",
    "updateTime": "2026/07/20 17:28"
  },
  {
    "vehicleNum": "080698",
    "vehicleCd": "531",
    "vehicleCorpCd": "1",
    "running": true,
    "lat": 34.583583,
    "lon": 135.478389,
    "route": "堺東駅前→材木町→堺駅西口",
    "stop": "材木町",
    "passTime": "17:28",
    "vehicleType": "南海バス",
    "updateTime": "2026/07/20 17:28"
  },
  {
    "vehicleNum": "080703",
    "vehicleCd": "219",
    "vehicleCorpCd": "1",
    "running": true,
    "lat": 34.582694,
    "lon": 135.516694,
    "route": "河内天美駅前→天美我堂→堺東駅前",
    "stop": "北花田２丁",
    "passTime": "17:27",
    "vehicleType": "南海バス(車椅子・ベビーカー・ノンステップ)",
    "updateTime": "2026/07/20 17:28"
  },
  {
    "vehicleNum": "080707",
    "vehicleCd": "544",
    "vehicleCorpCd": "1",
    "running": true,
    "lat": 34.582694,
    "lon": 135.523278,
    "route": "堺東駅前→錦綾町→河内天美駅前",
    "stop": "西我堂",
    "passTime": "17:28",
    "vehicleType": "南海バス(車椅子・ベビーカー・ノンステップ)",
    "updateTime": "2026/07/20 17:28"
  },
  {
    "vehicleNum": "080711",
    "vehicleCd": "79",
    "vehicleCorpCd": "2",
    "running": true,
    "lat": 34.407389,
    "lon": 135.322083,
    "route": "泉佐野駅前→野々地蔵北→日根野駅前→犬鳴山",
    "stop": "上町１丁目",
    "passTime": "17:27",
    "vehicleType": "南海ウイングバス(車椅子・ベビーカー・ノンステップ)",
    "updateTime": "2026/07/20 17:28"
  },
  {
    "vehicleNum": "080734",
    "vehicleCd": "415",
    "vehicleCorpCd": "1",
    "running": true,
    "lat": 34.552389,
    "lon": 135.548889,
    "route": "美原区役所→初芝駅前→美原区役所",
    "stop": "今井南",
    "passTime": "17:28",
    "vehicleType": "南海バス",
    "updateTime": "2026/07/20 17:28"
  },
  {
    "vehicleNum": "080740",
    "vehicleCd": "181",
    "vehicleCorpCd": "1",
    "running": true,
    "lat": 34.5085,
    "lon": 135.522389,
    "route": "堺東駅前→もず駅前→深井駅→あみだ池",
    "stop": "上之",
    "passTime": "17:28",
    "vehicleType": "南海バス(車椅子・ベビーカー・ノンステップ)",
    "updateTime": "2026/07/20 17:28"
  },
  {
    "vehicleNum": "080746",
    "vehicleCd": "395",
    "vehicleCorpCd": "1",
    "running": true,
    "lat": 34.496083,
    "lon": 135.565,
    "route": "金剛駅前→向陽・藤沢回り→金剛駅前",
    "stop": "久野喜台二丁目",
    "passTime": "17:28",
    "vehicleType": "南海バス(車椅子・ベビーカー・ノンステップ)",
    "updateTime": "2026/07/20 17:28"
  },
  {
    "vehicleNum": "080747",
    "vehicleCd": "161",
    "vehicleCorpCd": "1",
    "running": true,
    "lat": 34.574694,
    "lon": 135.504778,
    "route": "地下鉄北花田駅前→浅香→ＪＲ堺市駅前→地下鉄北花田駅前",
    "stop": "警察学校前（堺市）",
    "passTime": "17:28",
    "vehicleType": "南海バス(車椅子・ベビーカー・ノンステップ)",
    "updateTime": "2026/07/20 17:28"
  },
  {
    "vehicleNum": "080748",
    "vehicleCd": "218",
    "vehicleCorpCd": "1",
    "running": true,
    "lat": 34.560694,
    "lon": 135.469694,
    "route": "堺駅南口→堺駅前",
    "stop": "塩穴通",
    "passTime": "17:26",
    "vehicleType": "南海バス(車椅子・ベビーカー・ノンステップ)",
    "updateTime": "2026/07/20 17:28"
  },
  {
    "vehicleNum": "080755",
    "vehicleCd": "170",
    "vehicleCorpCd": "1",
    "running": true,
    "lat": 34.496083,
    "lon": 135.562278,
    "route": "金剛駅前→高辺台小学校前→金剛駅前",
    "stop": "久野喜台小学校前",
    "passTime": "17:26",
    "vehicleType": "南海バス(車椅子・ベビーカー・ノンステップ)",
    "updateTime": "2026/07/20 17:29"
  },
  {
    "vehicleNum": "080758",
    "vehicleCd": "511",
    "vehicleCorpCd": "1",
    "running": true,
    "lat": 34.499278,
    "lon": 135.507778,
    "route": "泉ヶ丘駅→深阪→津久野駅前",
    "stop": "竹城台２丁",
    "passTime": "17:28",
    "vehicleType": "南海バス(車椅子・ベビーカー・ノンステップ)",
    "updateTime": "2026/07/20 17:29"
  },
  {
    "vehicleNum": "080760",
    "vehicleCd": "559",
    "vehicleCorpCd": "1",
    "running": true,
    "lat": 34.566278,
    "lon": 135.516194,
    "route": "地下鉄新金岡駅前→堺駅南口",
    "stop": "地下鉄新金岡駅前",
    "passTime": "17:27",
    "vehicleType": "南海バス(車椅子・ベビーカー・ノンステップ)",
    "updateTime": "2026/07/20 17:29"
  },
  {
    "vehicleNum": "080762",
    "vehicleCd": "561",
    "vehicleCorpCd": "1",
    "running": true,
    "lat": 34.5745,
    "lon": 135.473694,
    "route": "阪和堺市駅前→堺駅南口",
    "stop": "大寺南門山之口前",
    "passTime": "17:29",
    "vehicleType": "南海バス(車椅子・ベビーカー・ノンステップ)",
    "updateTime": "2026/07/20 17:29"
  },
  {
    "vehicleNum": "080765",
    "vehicleCd": "564",
    "vehicleCorpCd": "1",
    "running": true,
    "lat": 34.521278,
    "lon": 135.508889,
    "route": "深井駅→東山車庫前→北野田駅前",
    "stop": "東山車庫前",
    "passTime": "17:28",
    "vehicleType": "南海バス(車椅子・ベビーカー・ノンステップ)",
    "updateTime": "2026/07/20 17:29"
  },
  {
    "vehicleNum": "080763",
    "vehicleCd": "562",
    "vehicleCorpCd": "1",
    "running": true,
    "lat": 34.558583,
    "lon": 135.473583,
    "route": "堺東駅前→上野芝→泉ヶ丘駅",
    "stop": "塩穴通",
    "passTime": "17:27",
    "vehicleType": "南海バス(車椅子・ベビーカー・ノンステップ)",
    "updateTime": "2026/07/20 17:29"
  },
  {
    "vehicleNum": "080767",
    "vehicleCd": "566",
    "vehicleCorpCd": "1",
    "running": true,
    "lat": 34.540778,
    "lon": 135.534194,
    "route": "初芝駅前→平尾→中もず駅前",
    "stop": "日置荘小学校前",
    "passTime": "17:29",
    "vehicleType": "南海バス(車椅子・ベビーカー・ノンステップ)",
    "updateTime": "2026/07/20 17:29"
  },
  {
    "vehicleNum": "080787",
    "vehicleCd": "301",
    "vehicleCorpCd": "1",
    "running": true,
    "lat": 34.575278,
    "lon": 135.524583,
    "route": "堺駅前→堺東駅前→河内松原駅前",
    "stop": "南花田町",
    "passTime": "17:27",
    "vehicleType": "南海バス(車椅子・ベビーカー・ノンステップ)",
    "updateTime": "2026/07/20 17:29"
  },
  {
    "vehicleNum": "080790",
    "vehicleCd": "106",
    "vehicleCorpCd": "1",
    "running": true,
    "lat": 34.595194,
    "lon": 135.458778,
    "route": "海浜匠町→匠町→堺駅西口→堺東駅前→阪和堺市駅前",
    "stop": "匠町",
    "passTime": "17:25",
    "vehicleType": "南海バス(車椅子・ベビーカー・ノンステップ)",
    "updateTime": "2026/07/20 17:29"
  },
  {
    "vehicleNum": "080794",
    "vehicleCd": "344",
    "vehicleCorpCd": "1",
    "running": true,
    "lat": 34.575389,
    "lon": 135.484,
    "route": "堺駅西口→錦綾町→堺東駅前",
    "stop": "中向陽町",
    "passTime": "17:26",
    "vehicleType": "南海バス(車椅子・ベビーカー・ノンステップ)",
    "updateTime": "2026/07/20 17:29"
  },
  {
    "vehicleNum": "080798",
    "vehicleCd": "107",
    "vehicleCorpCd": "1",
    "running": true,
    "lat": 34.574778,
    "lon": 135.537389,
    "route": "河内松原駅前→阪和堺市駅前→堺駅前",
    "stop": "布忍駅筋",
    "passTime": "17:25",
    "vehicleType": "南海バス(車椅子・ベビーカー・ノンステップ)",
    "updateTime": "2026/07/20 17:29"
  },
  {
    "vehicleNum": "080806",
    "vehicleCd": "307",
    "vehicleCorpCd": "1",
    "running": true,
    "lat": 34.570583,
    "lon": 135.481278,
    "route": "堺駅南口→地下鉄新金岡駅前",
    "stop": "一条通",
    "passTime": "17:27",
    "vehicleType": "南海バス(車椅子・ベビーカー・ノンステップ)",
    "updateTime": "2026/07/20 17:29"
  },
  {
    "vehicleNum": "080808",
    "vehicleCd": "216",
    "vehicleCorpCd": "1",
    "running": true,
    "lat": 34.574583,
    "lon": 135.481778,
    "route": "河内松原駅前→阪和堺市駅前→堺駅前",
    "stop": "堺東駅前",
    "passTime": "17:28",
    "vehicleType": "南海バス(車椅子・ベビーカー・ノンステップ)",
    "updateTime": "2026/07/20 17:29"
  },
  {
    "vehicleNum": "080809",
    "vehicleCd": "215",
    "vehicleCorpCd": "1",
    "running": true,
    "lat": 34.571,
    "lon": 135.480583,
    "route": "堺駅前→堺東駅前→河内松原駅前",
    "stop": "一条通",
    "passTime": "17:28",
    "vehicleType": "南海バス(車椅子・ベビーカー・ノンステップ)",
    "updateTime": "2026/07/20 17:29"
  },
  {
    "vehicleNum": "080814",
    "vehicleCd": "193",
    "vehicleCorpCd": "1",
    "running": true,
    "lat": 34.499889,
    "lon": 135.513778,
    "route": "泉ヶ丘駅→三原台左回り→泉ヶ丘駅",
    "stop": "東大谷高校前",
    "passTime": "17:27",
    "vehicleType": "南海バス(車椅子・ベビーカー・ノンステップ)",
    "updateTime": "2026/07/20 17:29"
  },
  {
    "vehicleNum": "080825",
    "vehicleCd": "261",
    "vehicleCorpCd": "1",
    "running": true,
    "lat": 34.554583,
    "lon": 135.469278,
    "route": "堺東駅前→堀上緑町１丁→堺東駅前",
    "stop": "南陵通１丁",
    "passTime": "17:27",
    "vehicleType": "南海バス(車椅子・ベビーカー・ノンステップ)",
    "updateTime": "2026/07/20 17:29"
  },
  {
    "vehicleNum": "080827",
    "vehicleCd": "317",
    "vehicleCorpCd": "1",
    "running": true,
    "lat": 34.548278,
    "lon": 135.521194,
    "route": "中もず駅前→初芝駅前→船戸下→美原区役所前",
    "stop": "金田新田",
    "passTime": "17:27",
    "vehicleType": "南海バス(車椅子・ベビーカー・ノンステップ)",
    "updateTime": "2026/07/20 17:29"
  },
  {
    "vehicleNum": "080838",
    "vehicleCd": "129",
    "vehicleCorpCd": "1",
    "running": true,
    "lat": 34.538389,
    "lon": 135.561083,
    "route": "美原区役所前→船戸下→初芝駅前→中もず駅前",
    "stop": "美原区役所前",
    "passTime": "17:26",
    "vehicleType": "南海バス(車椅子・ベビーカー・ノンステップ)",
    "updateTime": "2026/07/20 17:29"
  },
  {
    "vehicleNum": "080844",
    "vehicleCd": "581",
    "vehicleCorpCd": "1",
    "running": true,
    "lat": 34.499583,
    "lon": 135.543694,
    "route": "泉ヶ丘駅→帝塚山学院泉ヶ丘校前→金剛駅前",
    "stop": "狭山西小学校前",
    "passTime": "17:28",
    "vehicleType": "南海バス(車椅子・ベビーカー・ノンステップ)",
    "updateTime": "2026/07/20 17:29"
  },
  {
    "vehicleNum": "080845",
    "vehicleCd": "319",
    "vehicleCorpCd": "1",
    "running": true,
    "lat": 34.5205,
    "lon": 135.489194,
    "route": "堺東駅前→上野芝駅前→東山車庫前",
    "stop": "小阪",
    "passTime": "17:28",
    "vehicleType": "南海バス(車椅子・ベビーカー・ノンステップ)",
    "updateTime": "2026/07/20 17:29"
  },
  {
    "vehicleNum": "080859",
    "vehicleCd": "227",
    "vehicleCorpCd": "1",
    "running": true,
    "lat": 34.607,
    "lon": 135.473083,
    "route": "匠町→住之江公園駅前→匠町",
    "stop": "住之江公園駅前",
    "passTime": "17:25",
    "vehicleType": "南海バス(車椅子・ベビーカー・ノンステップ)",
    "updateTime": "2026/07/20 17:29"
  },
  {
    "vehicleNum": "080863",
    "vehicleCd": "249",
    "vehicleCorpCd": "1",
    "running": true,
    "lat": 34.585694,
    "lon": 135.47,
    "route": "堺東駅前→錦綾町→堺駅西口",
    "stop": "三宝公園前",
    "passTime": "17:25",
    "vehicleType": "南海バス(車椅子・ベビーカー・ノンステップ)",
    "updateTime": "2026/07/20 17:29"
  },
  {
    "vehicleNum": "080865",
    "vehicleCd": "504",
    "vehicleCorpCd": "1",
    "running": true,
    "lat": 34.595694,
    "lon": 135.457583,
    "route": "堺駅西口→錦綾町→堺東駅前",
    "stop": "塩浜町",
    "passTime": "17:26",
    "vehicleType": "南海バス(車椅子・ベビーカー・ノンステップ)",
    "updateTime": "2026/07/20 17:29"
  },
  {
    "vehicleNum": "080866",
    "vehicleCd": "497",
    "vehicleCorpCd": "1",
    "running": true,
    "lat": 34.491694,
    "lon": 135.570083,
    "route": "金剛駅前→寺池台小学校前→金剛駅前",
    "stop": "寺池台四丁目",
    "passTime": "17:28",
    "vehicleType": "南海バス(車椅子・ベビーカー・ノンステップ)",
    "updateTime": "2026/07/20 17:29"
  },
  {
    "vehicleNum": "080867",
    "vehicleCd": "364",
    "vehicleCorpCd": "1",
    "running": true,
    "lat": 34.498583,
    "lon": 135.556583,
    "route": "金剛駅前→帝塚山学院泉ヶ丘校前→泉ヶ丘駅前",
    "stop": "半田",
    "passTime": "17:24",
    "vehicleType": "南海バス(車椅子・ベビーカー・ノンステップ)",
    "updateTime": "2026/07/20 17:29"
  },
  {
    "vehicleNum": "080869",
    "vehicleCd": "316",
    "vehicleCorpCd": "1",
    "running": true,
    "lat": 34.488389,
    "lon": 135.513389,
    "route": "ハーベストの丘→別所→泉ヶ丘駅",
    "stop": "御池台南",
    "passTime": "17:15",
    "vehicleType": "南海バス(車椅子・ベビーカー・ノンステップ)",
    "updateTime": "2026/07/20 17:29"
  },
  {
    "vehicleNum": "080873",
    "vehicleCd": "144",
    "vehicleCorpCd": "1",
    "running": true,
    "lat": 34.511083,
    "lon": 135.4955,
    "route": "津久野駅前→堺市立総合医療センター前→八田荘団地→泉ヶ丘駅",
    "stop": "伏尾",
    "passTime": "17:28",
    "vehicleType": "南海バス(車椅子・ベビーカー・ノンステップ)",
    "updateTime": "2026/07/20 17:29"
  },
  {
    "vehicleNum": "080875",
    "vehicleCd": "485",
    "vehicleCorpCd": "1",
    "running": true,
    "lat": 34.492389,
    "lon": 135.519389,
    "route": "泉ヶ丘駅→晴美台右回り→泉ヶ丘駅",
    "stop": "茶山台２丁",
    "passTime": "17:28",
    "vehicleType": "南海バス(車椅子・ベビーカー・ノンステップ)",
    "updateTime": "2026/07/20 17:29"
  },
  {
    "vehicleNum": "080878",
    "vehicleCd": "368",
    "vehicleCorpCd": "1",
    "running": true,
    "lat": 34.561083,
    "lon": 135.494,
    "route": "堺駅南口→福町→北野田駅前",
    "stop": "梅北２丁",
    "passTime": "17:28",
    "vehicleType": "南海バス(車椅子・ベビーカー・ノンステップ)",
    "updateTime": "2026/07/20 17:29"
  },
  {
    "vehicleNum": "080879",
    "vehicleCd": "359",
    "vehicleCorpCd": "1",
    "running": true,
    "lat": 34.523278,
    "lon": 135.537583,
    "route": "堺駅南口→福町→北野田駅前",
    "stop": "伊勢道",
    "passTime": "17:28",
    "vehicleType": "南海バス(車椅子・ベビーカー・ノンステップ)",
    "updateTime": "2026/07/20 17:29"
  },
  {
    "vehicleNum": "080883",
    "vehicleCd": "361",
    "vehicleCorpCd": "1",
    "running": true,
    "lat": 34.540694,
    "lon": 135.469889,
    "route": "泉ヶ丘駅→泉北２号線→津久野駅前",
    "stop": "平岡西口",
    "passTime": "17:24",
    "vehicleType": "南海バス(車椅子・ベビーカー・ノンステップ)",
    "updateTime": "2026/07/20 17:29"
  },
  {
    "vehicleNum": "080895",
    "vehicleCd": "167",
    "vehicleCorpCd": "1",
    "running": true,
    "lat": 34.539694,
    "lon": 135.559694,
    "route": "美原区役所→初芝駅前→美原区役所",
    "stop": "下黒山西",
    "passTime": "17:20",
    "vehicleType": "南海バス(車椅子・ベビーカー・ノンステップ)",
    "updateTime": "2026/07/20 17:29"
  },
  {
    "vehicleNum": "080904",
    "vehicleCd": "362",
    "vehicleCorpCd": "1",
    "running": true,
    "lat": 34.524694,
    "lon": 135.506194,
    "route": "北野田駅前→福町→深井駅",
    "stop": "北垣外",
    "passTime": "17:29",
    "vehicleType": "南海バス(車椅子・ベビーカー・ノンステップ)",
    "updateTime": "2026/07/20 17:29"
  },
  {
    "vehicleNum": "080912",
    "vehicleCd": "372",
    "vehicleCorpCd": "1",
    "running": true,
    "lat": 34.574389,
    "lon": 135.482889,
    "route": "堺駅前→堺駅南口",
    "stop": "一条通",
    "passTime": "17:24",
    "vehicleType": "南海バス(車椅子・ベビーカー・ノンステップ)",
    "updateTime": "2026/07/20 17:29"
  },
  {
    "vehicleNum": "080913",
    "vehicleCd": "128",
    "vehicleCorpCd": "1",
    "running": true,
    "lat": 34.565194,
    "lon": 135.515194,
    "route": "堺東駅前→白鷺駅前→堺東駅前（循環）",
    "stop": "しもつ池",
    "passTime": "17:28",
    "vehicleType": "南海バス(車椅子・ベビーカー・ノンステップ)",
    "updateTime": "2026/07/20 17:29"
  },
  {
    "vehicleNum": "080917",
    "vehicleCd": "70",
    "vehicleCorpCd": "1",
    "running": true,
    "lat": 34.5405,
    "lon": 135.47,
    "route": "泉ヶ丘駅→深阪→津久野駅前",
    "stop": "文珠前",
    "passTime": "17:25",
    "vehicleType": "南海バス(車椅子・ベビーカー・ノンステップ)",
    "updateTime": "2026/07/20 17:29"
  },
  {
    "vehicleNum": "080921",
    "vehicleCd": "143",
    "vehicleCorpCd": "1",
    "running": true,
    "lat": 34.502472,
    "lon": 135.498694,
    "route": "津久野駅前→堺市立総合医療センター前→泉北２号線→泉ヶ丘駅",
    "stop": "宮山台２丁",
    "passTime": "17:29",
    "vehicleType": "南海バス(車椅子・ベビーカー・ノンステップ)",
    "updateTime": "2026/07/20 17:29"
  },
  {
    "vehicleNum": "080927",
    "vehicleCd": "79",
    "vehicleCorpCd": "1",
    "running": true,
    "lat": 34.4985,
    "lon": 135.5355,
    "route": "泉ヶ丘駅→スマ・エコタウン晴美台→高倉台左回り→泉ヶ丘駅",
    "stop": "スマ・エコタウン晴美台",
    "passTime": "17:28",
    "vehicleType": "南海バス(車椅子・ベビーカー・ノンステップ)",
    "updateTime": "2026/07/20 17:29"
  },
  {
    "vehicleNum": "080948",
    "vehicleCd": "276",
    "vehicleCorpCd": "1",
    "running": true,
    "lat": 34.595694,
    "lon": 135.442083,
    "route": "阪和堺市駅前→堺東駅前→堺駅西口→匠町→海浜匠町",
    "stop": "匠町",
    "passTime": "17:27",
    "vehicleType": "南海バス(車椅子・ベビーカー・ノンステップ)",
    "updateTime": "2026/07/20 17:29"
  },
  {
    "vehicleNum": "080950",
    "vehicleCd": "513",
    "vehicleCorpCd": "1",
    "running": true,
    "lat": 34.5655,
    "lon": 135.493583,
    "route": "堺東駅前→白鷺駅前→堺東駅前（循環）",
    "stop": "三国ヶ丘駅前",
    "passTime": "17:27",
    "vehicleType": "南海バス(車椅子・ベビーカー・ノンステップ)",
    "updateTime": "2026/07/20 17:29"
  },
  {
    "vehicleNum": "080951",
    "vehicleCd": "597",
    "vehicleCorpCd": "1",
    "running": true,
    "lat": 34.479694,
    "lon": 135.527972,
    "route": "泉ヶ丘駅→槙塚台左回り→泉ヶ丘駅",
    "stop": "逆瀬川口",
    "passTime": "17:28",
    "vehicleType": "南海バス(車椅子・ベビーカー・ノンステップ)",
    "updateTime": "2026/07/20 17:29"
  },
  {
    "vehicleNum": "080977",
    "vehicleCd": "388",
    "vehicleCorpCd": "1",
    "running": true,
    "lat": 34.539472,
    "lon": 135.470472,
    "route": "津久野駅前→鈴の宮団地センター→深井駅",
    "stop": "堺市立総合医療センター前",
    "passTime": "17:28",
    "vehicleType": "南海バス(車椅子・ベビーカー・ノンステップ)",
    "updateTime": "2026/07/20 17:29"
  },
  {
    "vehicleNum": "080989",
    "vehicleCd": "259",
    "vehicleCorpCd": "1",
    "running": true,
    "lat": 34.554389,
    "lon": 135.500472,
    "route": "伏尾→北条→中もず駅前",
    "stop": "もず八幡前",
    "passTime": "17:26",
    "vehicleType": "南海バス(車椅子・ベビーカー・ノンステップ)",
    "updateTime": "2026/07/20 17:29"
  },
  {
    "vehicleNum": "080995",
    "vehicleCd": "118",
    "vehicleCorpCd": "1",
    "running": true,
    "lat": 34.484694,
    "lon": 135.491194,
    "route": "泉ヶ丘駅→庭代台右回り→栂・美木多駅",
    "stop": "栂・美木多駅",
    "passTime": "17:29",
    "vehicleType": "南海バス(車椅子・ベビーカー・ノンステップ)",
    "updateTime": "2026/07/20 17:29"
  },
  {
    "vehicleNum": "081003",
    "vehicleCd": "610",
    "vehicleCorpCd": "1",
    "running": true,
    "lat": 34.546889,
    "lon": 135.484778,
    "route": "東山車庫前→小阪→堺東駅前",
    "stop": "北条",
    "passTime": "17:27",
    "vehicleType": "南海バス(車椅子・ベビーカー・ノンステップ)",
    "updateTime": "2026/07/20 17:29"
  },
  {
    "vehicleNum": "081004",
    "vehicleCd": "271",
    "vehicleCorpCd": "1",
    "running": true,
    "lat": 34.576194,
    "lon": 135.471083,
    "route": "北野田駅前→西口園→堺駅南口",
    "stop": "大寺南門山之口前",
    "passTime": "17:26",
    "vehicleType": "南海バス(車椅子・ベビーカー・ノンステップ)",
    "updateTime": "2026/07/20 17:29"
  },
  {
    "vehicleNum": "081013",
    "vehicleCd": "554",
    "vehicleCorpCd": "1",
    "running": true,
    "lat": 34.556194,
    "lon": 135.503972,
    "route": "北野田駅前→西口園→堺駅南口",
    "stop": "中もず駅前通",
    "passTime": "17:26",
    "vehicleType": "南海バス(車椅子・ベビーカー・ノンステップ)",
    "updateTime": "2026/07/20 17:29"
  },
  {
    "vehicleNum": "081014",
    "vehicleCd": "229",
    "vehicleCorpCd": "1",
    "running": true,
    "lat": 34.549778,
    "lon": 135.506694,
    "route": "堺駅南口→三国ヶ丘駅前→北野田駅前",
    "stop": "府立大学前",
    "passTime": "17:29",
    "vehicleType": "南海バス(車椅子・ベビーカー・ノンステップ)",
    "updateTime": "2026/07/20 17:29"
  },
  {
    "vehicleNum": "081021",
    "vehicleCd": "243",
    "vehicleCorpCd": "1",
    "running": true,
    "lat": 34.5355,
    "lon": 135.562778,
    "route": "初芝駅前→平尾→初芝駅前",
    "stop": "船戸下",
    "passTime": "17:24",
    "vehicleType": "南海バス(車椅子・ベビーカー・ノンステップ)",
    "updateTime": "2026/07/20 17:29"
  },
  {
    "vehicleNum": "081035",
    "vehicleCd": "491",
    "vehicleCorpCd": "1",
    "running": true,
    "lat": 34.495583,
    "lon": 135.517583,
    "route": "泉ヶ丘駅→狭山ニュータウンセンター→金剛駅前",
    "stop": "泉ヶ丘駅（南側）",
    "passTime": "17:26",
    "vehicleType": "南海バス(車椅子・ベビーカー・ノンステップ)",
    "updateTime": "2026/07/20 17:29"
  },
  {
    "vehicleNum": "081020",
    "vehicleCd": "163",
    "vehicleCorpCd": "1",
    "running": true,
    "lat": 34.525083,
    "lon": 135.5255,
    "route": "北野田駅前→福町→堺駅南口",
    "stop": "下出口",
    "passTime": "17:28",
    "vehicleType": "南海バス(車椅子・ベビーカー・ノンステップ)",
    "updateTime": "2026/07/20 17:29"
  },
  {
    "vehicleNum": "081034",
    "vehicleCd": "120",
    "vehicleCorpCd": "1",
    "running": true,
    "lat": 34.497694,
    "lon": 135.520278,
    "route": "泉ヶ丘駅→スマ・エコタウン晴美台→高倉台左回り→泉ヶ丘駅",
    "stop": "三原台１丁",
    "passTime": "17:28",
    "vehicleType": "南海バス(車椅子・ベビーカー・ノンステップ)",
    "updateTime": "2026/07/20 17:29"
  },
  {
    "vehicleNum": "081036",
    "vehicleCd": "293",
    "vehicleCorpCd": "1",
    "running": true,
    "lat": 34.494889,
    "lon": 135.510889,
    "route": "泉ヶ丘駅→若松台左回り→泉ヶ丘駅",
    "stop": "茶山台",
    "passTime": "17:26",
    "vehicleType": "南海バス(車椅子・ベビーカー・ノンステップ)",
    "updateTime": "2026/07/20 17:29"
  },
  {
    "vehicleNum": "090103",
    "vehicleCd": "49",
    "vehicleCorpCd": "2",
    "running": true,
    "lat": 34.445278,
    "lon": 135.387194,
    "route": "岸和田駅前→天神山・一の宮循環　左回り→岸和田駅前",
    "stop": "東岸和田駅前",
    "passTime": "17:24",
    "vehicleType": "南海ウイングバス(車椅子・ベビーカー・ワンステップ)",
    "updateTime": "2026/07/20 17:29"
  },
  {
    "vehicleNum": "081045",
    "vehicleCd": "188",
    "vehicleCorpCd": "1",
    "running": true,
    "lat": 34.526083,
    "lon": 135.4835,
    "route": "深井駅→八田荘団地→津久野駅前",
    "stop": "八田荘団地",
    "passTime": "17:27",
    "vehicleType": "南海バス(車椅子・ベビーカー・ノンステップ)",
    "updateTime": "2026/07/20 17:29"
  },
  {
    "vehicleNum": "090144",
    "vehicleCd": "82",
    "vehicleCorpCd": "2",
    "running": true,
    "lat": 34.462778,
    "lon": 135.3795,
    "route": "道の駅愛彩ランド→和泉大宮駅前→岸和田駅前",
    "stop": "沼町",
    "passTime": "17:29",
    "vehicleType": "南海ウイングバス(車椅子・ベビーカー・ワンステップ)",
    "updateTime": "2026/07/20 17:29"
  },
  {
    "vehicleNum": "090160",
    "vehicleCd": "72",
    "vehicleCorpCd": "2",
    "running": true,
    "lat": 34.445583,
    "lon": 135.412083,
    "route": "岸和田駅前→下松駅前→道の駅愛彩ランド",
    "stop": "中尾生",
    "passTime": "17:28",
    "vehicleType": "南海ウイングバス(車椅子・ワンステップ)",
    "updateTime": "2026/07/20 17:29"
  },
  {
    "vehicleNum": "091243",
    "vehicleCd": "13",
    "vehicleCorpCd": "2",
    "running": true,
    "lat": 34.402278,
    "lon": 135.332194,
    "route": "泉佐野駅前→ダンバラ公園前→熊取駅前→つばさが丘北口",
    "stop": "ダンバラ公園前",
    "passTime": "17:22",
    "vehicleType": "南海ウイングバス(車椅子・ワンステップ)",
    "updateTime": "2026/07/20 17:29"
  },
  {
    "vehicleNum": "091658",
    "vehicleCd": "203",
    "vehicleCorpCd": "1",
    "running": true,
    "lat": 34.435,
    "lon": 135.239694,
    "route": "空港駅→直行→給油地区",
    "stop": "空港駅",
    "passTime": "17:28",
    "vehicleType": "南海バス(車椅子・ノンステップ)",
    "updateTime": "2026/07/20 17:29"
  },
  {
    "vehicleNum": "091736",
    "vehicleCd": "65",
    "vehicleCorpCd": "2",
    "running": true,
    "lat": 34.462278,
    "lon": 135.411194,
    "route": "岸和田駅前→内畑→白原車庫",
    "stop": "久米田",
    "passTime": "17:27",
    "vehicleType": "南海ウイングバス(車椅子・ワンステップ)",
    "updateTime": "2026/07/20 17:29"
  },
  {
    "vehicleNum": "091745",
    "vehicleCd": "103",
    "vehicleCorpCd": "2",
    "running": true,
    "lat": 34.444278,
    "lon": 135.3885,
    "route": "塔原→岸和田警察署前→岸和田駅前",
    "stop": "土生",
    "passTime": "17:27",
    "vehicleType": "南海ウイングバス",
    "updateTime": "2026/07/20 17:29"
  },
  {
    "vehicleNum": "091750",
    "vehicleCd": "335",
    "vehicleCorpCd": "1",
    "running": true,
    "lat": 34.414389,
    "lon": 135.557278,
    "route": "三日市町駅前→南花台１丁目北→大矢船西町",
    "stop": "大矢船南町",
    "passTime": "17:26",
    "vehicleType": "南海バス(車椅子・ベビーカー・ワンステップ)",
    "updateTime": "2026/07/20 17:29"
  },
  {
    "vehicleNum": "091785",
    "vehicleCd": "120",
    "vehicleCorpCd": "2",
    "running": true,
    "lat": 34.398194,
    "lon": 135.368083,
    "route": "熊取町　つばさが丘循環コース",
    "stop": "大宮",
    "passTime": "17:28",
    "vehicleType": "熊取町コミュニティバス(メジーナちゃん号)",
    "updateTime": "2026/07/20 17:29"
  },
  {
    "vehicleNum": "091784",
    "vehicleCd": "119",
    "vehicleCorpCd": "2",
    "running": true,
    "lat": 34.401278,
    "lon": 135.3465,
    "route": "熊取町　青葉台方面循環コース",
    "stop": "紺屋",
    "passTime": "17:29",
    "vehicleType": "熊取町コミュニティバス(ジャンプ君号)",
    "updateTime": "2026/07/20 17:29"
  },
  {
    "vehicleNum": "091792",
    "vehicleCd": "59",
    "vehicleCorpCd": "1",
    "running": true,
    "lat": 34.423,
    "lon": 135.2255,
    "route": "給油地区→空港駅",
    "stop": "ANA車輌整備工場前",
    "passTime": "17:29",
    "vehicleType": "南海バス(車椅子・ノンステップ)",
    "updateTime": "2026/07/20 17:29"
  },
  {
    "vehicleNum": "091894",
    "vehicleCd": "3",
    "vehicleCorpCd": "2",
    "running": true,
    "lat": 34.374472,
    "lon": 135.284778,
    "route": "泉南市コミュニティバス 一丘Ａ回り",
    "stop": "市場青年会場前",
    "passTime": "17:25",
    "vehicleType": "泉南市コミュニティバス(紫)",
    "updateTime": "2026/07/20 17:29"
  },
  {
    "vehicleNum": "091910",
    "vehicleCd": "441",
    "vehicleCorpCd": "1",
    "running": true,
    "lat": 34.433083,
    "lon": 135.231583,
    "route": "エアロプラザ→第２ターミナル(国内線・国際線)→エアロプラザ",
    "stop": "第2ターミナル国際線",
    "passTime": "17:27",
    "vehicleType": "南海バス(車椅子・ノンステップ)",
    "updateTime": "2026/07/20 17:29"
  },
  {
    "vehicleNum": "092044",
    "vehicleCd": "462",
    "vehicleCorpCd": "1",
    "running": true,
    "lat": 34.442083,
    "lon": 135.569194,
    "route": "ﾓｯｸﾙ 美加～木戸東町～美加",
    "stop": "上田",
    "passTime": "17:29",
    "vehicleType": "南海バス(車椅子・ベビーカー・ノンステップ)",
    "updateTime": "2026/07/20 17:29"
  },
  {
    "vehicleNum": "092045",
    "vehicleCd": "463",
    "vehicleCorpCd": "1",
    "running": true,
    "lat": 34.454194,
    "lon": 135.563778,
    "route": "ﾓｯｸﾙ 美加～木戸東町～美加",
    "stop": "河内長野警察署前",
    "passTime": "17:28",
    "vehicleType": "南海バス(車椅子・ベビーカー・ノンステップ)",
    "updateTime": "2026/07/20 17:29"
  },
  {
    "vehicleNum": "092153",
    "vehicleCd": "529",
    "vehicleCorpCd": "1",
    "running": true,
    "lat": 34.4375,
    "lon": 135.235778,
    "route": "エアロプラザ→第２ターミナル(国内線・国際線)→エアロプラザ",
    "stop": "第2ターミナル国際線",
    "passTime": "17:28",
    "vehicleType": "南海バス",
    "updateTime": "2026/07/20 17:29"
  },
  {
    "vehicleNum": "092372",
    "vehicleCd": "159",
    "vehicleCorpCd": "1",
    "running": true,
    "lat": 34.471694,
    "lon": 135.477194,
    "route": "光明池駅→赤坂台４丁→光明池駅",
    "stop": "新檜尾台三丁",
    "passTime": "17:25",
    "vehicleType": "南海バス(車椅子・ベビーカー・ノンステップ)",
    "updateTime": "2026/07/20 17:29"
  },
  {
    "vehicleNum": "092382",
    "vehicleCd": "556",
    "vehicleCorpCd": "1",
    "running": true,
    "lat": 34.515778,
    "lon": 135.464278,
    "route": "堺東駅前→鳳駅前→光明池駅",
    "stop": "草部",
    "passTime": "17:29",
    "vehicleType": "南海バス(車椅子・ベビーカー・ノンステップ)",
    "updateTime": "2026/07/20 17:29"
  },
  {
    "vehicleNum": "092383",
    "vehicleCd": "44",
    "vehicleCorpCd": "1",
    "running": true,
    "lat": 34.463389,
    "lon": 135.459389,
    "route": "光明池駅→光明池車庫→和泉中央駅→泉大津駅前",
    "stop": "和泉中央駅",
    "passTime": "17:22",
    "vehicleType": "南海バス(車椅子・ベビーカー・ワンステップ)",
    "updateTime": "2026/07/20 17:29"
  },
  {
    "vehicleNum": "092398",
    "vehicleCd": "41",
    "vehicleCorpCd": "1",
    "running": true,
    "lat": 34.437583,
    "lon": 135.231278,
    "route": "エアロプラザ→第２ターミナル(国内線・国際線)→エアロプラザ",
    "stop": "エアロプラザ",
    "passTime": "17:24",
    "vehicleType": "南海バス(車椅子・ノンステップ)",
    "updateTime": "2026/07/20 17:29"
  },
  {
    "vehicleNum": "092384",
    "vehicleCd": "558",
    "vehicleCorpCd": "1",
    "running": true,
    "lat": 34.470278,
    "lon": 135.489,
    "route": "光明池駅→城山台２丁→光明池駅",
    "stop": "城山台一丁南",
    "passTime": "17:28",
    "vehicleType": "南海バス(車椅子・ベビーカー・ノンステップ)",
    "updateTime": "2026/07/20 17:29"
  },
  {
    "vehicleNum": "092454",
    "vehicleCd": "125",
    "vehicleCorpCd": "2",
    "running": true,
    "lat": 34.378389,
    "lon": 135.259778,
    "route": "泉南市コミュニティバス 南Ａ回り",
    "stop": "男里浜",
    "passTime": "17:25",
    "vehicleType": "泉南市コミュニティバス(橙)",
    "updateTime": "2026/07/20 17:29"
  },
  {
    "vehicleNum": "092483",
    "vehicleCd": "110",
    "vehicleCorpCd": "1",
    "running": true,
    "lat": 34.430194,
    "lon": 135.556694,
    "route": "南ヶ丘→南花台４丁目→三日市町駅前",
    "stop": "南花台３丁目北",
    "passTime": "17:29",
    "vehicleType": "南海バス(車椅子・ベビーカー・ノンステップ)",
    "updateTime": "2026/07/20 17:29"
  },
  {
    "vehicleNum": "092498",
    "vehicleCd": "8",
    "vehicleCorpCd": "1",
    "running": true,
    "lat": 34.569583,
    "lon": 135.480778,
    "route": "堺東駅前→鳳駅前→栂・美木多駅",
    "stop": "一条通",
    "passTime": "17:29",
    "vehicleType": "南海バス(車椅子・ベビーカー・ノンステップ)",
    "updateTime": "2026/07/20 17:29"
  },
  {
    "vehicleNum": "092580",
    "vehicleCd": "377",
    "vehicleCorpCd": "1",
    "running": true,
    "lat": 34.4565,
    "lon": 135.447889,
    "route": "和泉中央駅→寺田→和泉府中駅前",
    "stop": "唐国南",
    "passTime": "17:26",
    "vehicleType": "南海バス(車椅子・ベビーカー・ノンステップ)",
    "updateTime": "2026/07/20 17:29"
  },
  {
    "vehicleNum": "092587",
    "vehicleCd": "124",
    "vehicleCorpCd": "1",
    "running": true,
    "lat": 34.405083,
    "lon": 135.532083,
    "route": "滝畑ダム→河内長野駅前",
    "stop": "滝尻口",
    "passTime": "17:26",
    "vehicleType": "南海バス(車椅子・ベビーカー・ノンステップ)",
    "updateTime": "2026/07/20 17:29"
  },
  {
    "vehicleNum": "092762",
    "vehicleCd": "570",
    "vehicleCorpCd": "1",
    "running": true,
    "lat": 34.548889,
    "lon": 135.463778,
    "route": "堺東駅前→鳳駅前→光明池駅",
    "stop": "神石市之町",
    "passTime": "17:28",
    "vehicleType": "南海バス(車椅子・ベビーカー・ノンステップ)",
    "updateTime": "2026/07/20 17:29"
  },
  {
    "vehicleNum": "092830",
    "vehicleCd": "367",
    "vehicleCorpCd": "1",
    "running": true,
    "lat": 34.453083,
    "lon": 135.463889,
    "route": "和泉中央駅→はつが野→和泉青葉台→和泉中央駅（左回り）",
    "stop": "のぞみ野東",
    "passTime": "17:28",
    "vehicleType": "南海バス(車椅子・ベビーカー・ノンステップ)",
    "updateTime": "2026/07/20 17:29"
  },
  {
    "vehicleNum": "092856",
    "vehicleCd": "601",
    "vehicleCorpCd": "1",
    "running": true,
    "lat": 34.486083,
    "lon": 135.425083,
    "route": "和泉府中駅前→いぶき野→和泉中央駅",
    "stop": "和泉府中駅前",
    "passTime": "17:27",
    "vehicleType": "南海バス(車椅子・ベビーカー・ノンステップ)",
    "updateTime": "2026/07/20 17:29"
  },
  {
    "vehicleNum": "092857",
    "vehicleCd": "516",
    "vehicleCorpCd": "1",
    "running": true,
    "lat": 34.470278,
    "lon": 135.456694,
    "route": "泉大津駅前→和泉府中駅前→和泉中央駅→光明池駅",
    "stop": "北池田",
    "passTime": "17:28",
    "vehicleType": "南海バス(車椅子・ベビーカー・ノンステップ)",
    "updateTime": "2026/07/20 17:29"
  },
  {
    "vehicleNum": "092859",
    "vehicleCd": "32",
    "vehicleCorpCd": "1",
    "running": true,
    "lat": 34.430778,
    "lon": 135.545194,
    "route": "河内長野駅前→滝畑ダム",
    "stop": "高向",
    "passTime": "17:27",
    "vehicleType": "南海バス(車椅子・ベビーカー・ノンステップ)",
    "updateTime": "2026/07/20 17:29"
  },
  {
    "vehicleNum": "092858",
    "vehicleCd": "320",
    "vehicleCorpCd": "1",
    "running": true,
    "lat": 34.453083,
    "lon": 135.446472,
    "route": "和泉中央駅→直行→ららぽーと和泉前",
    "stop": "唐国南",
    "passTime": "17:26",
    "vehicleType": "南海バス(車椅子・ベビーカー・ノンステップ)",
    "updateTime": "2026/07/20 17:29"
  },
  {
    "vehicleNum": "092860",
    "vehicleCd": "379",
    "vehicleCorpCd": "1",
    "running": true,
    "lat": 34.467583,
    "lon": 135.564694,
    "route": "千代→緑→小山田→千代",
    "stop": "千代田駅前",
    "passTime": "17:24",
    "vehicleType": "南海バス(車椅子・ベビーカー・ノンステップ)",
    "updateTime": "2026/07/20 17:29"
  },
  {
    "vehicleNum": "092871",
    "vehicleCd": "33",
    "vehicleCorpCd": "1",
    "running": true,
    "lat": 34.447694,
    "lon": 135.473778,
    "route": "和泉中央駅→和泉青葉台→はつが野→和泉中央駅（右回り）",
    "stop": "南池田小学校前",
    "passTime": "17:28",
    "vehicleType": "南海バス(車椅子・ベビーカー・ノンステップ)",
    "updateTime": "2026/07/20 17:29"
  },
  {
    "vehicleNum": "092872",
    "vehicleCd": "500",
    "vehicleCorpCd": "1",
    "running": true,
    "lat": 34.571278,
    "lon": 135.482083,
    "route": "光明池駅→山田→堺東駅前",
    "stop": "一条通",
    "passTime": "17:28",
    "vehicleType": "南海バス(車椅子・ベビーカー・ノンステップ)",
    "updateTime": "2026/07/20 17:29"
  },
  {
    "vehicleNum": "092873",
    "vehicleCd": "234",
    "vehicleCorpCd": "1",
    "running": true,
    "lat": 34.5325,
    "lon": 135.459583,
    "route": "光明池駅→山田→堺東駅前",
    "stop": "西堺警察署前",
    "passTime": "17:24",
    "vehicleType": "南海バス(車椅子・ベビーカー・ノンステップ)",
    "updateTime": "2026/07/20 17:29"
  },
  {
    "vehicleNum": "092900",
    "vehicleCd": "604",
    "vehicleCorpCd": "1",
    "running": true,
    "lat": 34.449389,
    "lon": 135.447278,
    "route": "和泉中央駅→テクノステージセンター前→和泉中央駅",
    "stop": "あゆみ野二丁目中",
    "passTime": "17:28",
    "vehicleType": "南海バス(車椅子・ベビーカー・ノンステップ)",
    "updateTime": "2026/07/20 17:29"
  },
  {
    "vehicleNum": "092914",
    "vehicleCd": "75",
    "vehicleCorpCd": "1",
    "running": true,
    "lat": 34.487778,
    "lon": 135.424083,
    "route": "泉大津駅前→和泉府中駅前→和泉中央駅",
    "stop": "和泉府中駅前",
    "passTime": "17:29",
    "vehicleType": "南海バス(車椅子・ベビーカー・ノンステップ)",
    "updateTime": "2026/07/20 17:29"
  },
  {
    "vehicleNum": "092915",
    "vehicleCd": "346",
    "vehicleCorpCd": "1",
    "running": true,
    "lat": 34.451389,
    "lon": 135.588083,
    "route": "長野→こんごう福祉",
    "stop": "府立こんごう福祉センター前",
    "passTime": "17:26",
    "vehicleType": "南海バス(車椅子・ベビーカー・ノンステップ)",
    "updateTime": "2026/07/20 17:29"
  },
  {
    "vehicleNum": "092913",
    "vehicleCd": "154",
    "vehicleCorpCd": "1",
    "running": true,
    "lat": 34.515389,
    "lon": 135.4695,
    "route": "国分峠東→栂・美木多駅→堺東駅前",
    "stop": "福泉小学校前",
    "passTime": "17:28",
    "vehicleType": "南海バス(車椅子・ベビーカー・ノンステップ)",
    "updateTime": "2026/07/20 17:29"
  },
  {
    "vehicleNum": "092918",
    "vehicleCd": "114",
    "vehicleCorpCd": "1",
    "running": true,
    "lat": 34.474778,
    "lon": 135.473389,
    "route": "光明池駅→山田→堺東駅前",
    "stop": "光明池駅",
    "passTime": "17:27",
    "vehicleType": "南海バス(車椅子・ベビーカー・ノンステップ)",
    "updateTime": "2026/07/20 17:29"
  },
  {
    "vehicleNum": "092919",
    "vehicleCd": "230",
    "vehicleCorpCd": "1",
    "running": true,
    "lat": 34.419083,
    "lon": 135.615083,
    "route": "金剛山ﾛｰﾌﾟｳｪｲ前→日東町東口→河内長野駅前",
    "stop": "太井(河内長野市)",
    "passTime": "17:27",
    "vehicleType": "南海バス(車椅子・ベビーカー・ノンステップ)",
    "updateTime": "2026/07/20 17:29"
  },
  {
    "vehicleNum": "092976",
    "vehicleCd": "138",
    "vehicleCorpCd": "1",
    "running": true,
    "lat": 34.464,
    "lon": 135.461389,
    "route": "和泉中央駅→はつが野→和泉青葉台→和泉中央駅（左回り）",
    "stop": "室堂",
    "passTime": "17:28",
    "vehicleType": "南海バス(車椅子・ベビーカー・ノンステップ)",
    "updateTime": "2026/07/20 17:29"
  },
  {
    "vehicleNum": "092950",
    "vehicleCd": "257",
    "vehicleCorpCd": "1",
    "running": true,
    "lat": 34.485389,
    "lon": 135.423694,
    "route": "和泉中央駅→阪本→泉大津駅前",
    "stop": "和泉府中駅前",
    "passTime": "17:26",
    "vehicleType": "南海バス(車椅子・ベビーカー・ノンステップ)",
    "updateTime": "2026/07/20 17:29"
  },
  {
    "vehicleNum": "092977",
    "vehicleCd": "608",
    "vehicleCorpCd": "1",
    "running": true,
    "lat": 34.484583,
    "lon": 135.491694,
    "route": "堺東駅前→鳳駅前→国分峠東",
    "stop": "高橋",
    "passTime": "17:24",
    "vehicleType": "南海バス(車椅子・ベビーカー・ノンステップ)",
    "updateTime": "2026/07/20 17:29"
  },
  {
    "vehicleNum": "093003",
    "vehicleCd": "111",
    "vehicleCorpCd": "1",
    "running": true,
    "lat": 34.552778,
    "lon": 135.465472,
    "route": "栂・美木多駅→鳳駅前→堺東駅前",
    "stop": "神石橋",
    "passTime": "17:27",
    "vehicleType": "南海バス(車椅子・ベビーカー・ノンステップ)",
    "updateTime": "2026/07/20 17:29"
  },
  {
    "vehicleNum": "093011",
    "vehicleCd": "27",
    "vehicleCorpCd": "1",
    "running": true,
    "lat": 34.432194,
    "lon": 135.234278,
    "route": "給油地区→空港駅",
    "stop": "機内食前",
    "passTime": "17:27",
    "vehicleType": "南海バス(車椅子・ベビーカー・ノンステップ)",
    "updateTime": "2026/07/20 17:29"
  },
  {
    "vehicleNum": "093012",
    "vehicleCd": "26",
    "vehicleCorpCd": "1",
    "running": true,
    "lat": 34.439389,
    "lon": 135.245389,
    "route": "第２ターミナル(国内線・国際線)→エアロプラザ",
    "stop": "第2ターミナル国際線",
    "passTime": "17:24",
    "vehicleType": "南海バス(車椅子・ベビーカー・ノンステップ)",
    "updateTime": "2026/07/20 17:29"
  },
  {
    "vehicleNum": "093032",
    "vehicleCd": "231",
    "vehicleCorpCd": "1",
    "running": true,
    "lat": 34.434778,
    "lon": 135.239083,
    "route": "エアロプラザ→第２ターミナル(国内線・国際線)→エアロプラザ",
    "stop": "エアロプラザ",
    "passTime": "17:28",
    "vehicleType": "南海バス",
    "updateTime": "2026/07/20 17:29"
  },
  {
    "vehicleNum": "093071",
    "vehicleCd": "274",
    "vehicleCorpCd": "1",
    "running": true,
    "lat": 34.455194,
    "lon": 135.491194,
    "route": "光明池駅→城山台５丁→みずき台２丁目西",
    "stop": "光明台二丁目",
    "passTime": "17:29",
    "vehicleType": "南海バス(車椅子・ベビーカー・ノンステップ)",
    "updateTime": "2026/07/20 17:29"
  }
]