[
  {
    "vehicleNum": "070103",
    "vehicleCd": "425",
    "vehicleCorpCd": "1",
    "running": true,
    "lat": 34.484889,
    "lon": 135.5255,
    "route": "金剛駅前→狭山ニュータウンセンター→泉ヶ丘駅",
    "stop": "槙塚台１丁",
    "passTime": "21:22",
    "vehicleType": "泉北コミュニティバス(車椅子・ベビーカー・ノンステップ)",
    "updateTime": "2026/07/21 21:23"
  },
  {
    "vehicleNum": "070101",
    "vehicleCd": "400",
    "vehicleCorpCd": "1",
    "running": true,
    "lat": 34.484278,
    "lon": 135.545083,
    "route": "金剛駅前→右回り→狭山ニュータウンセンター",
    "stop": "狭山ニュータウンセンター",
    "passTime": "21:23",
    "vehicleType": "泉北コミュニティバス(車椅子・ベビーカー・ノンステップ)",
    "updateTime": "2026/07/21 21:23"
  },
  {
    "vehicleNum": "070108",
    "vehicleCd": "406",
    "vehicleCorpCd": "1",
    "running": true,
    "lat": 34.484583,
    "lon": 135.537278,
    "route": "泉ヶ丘駅→近畿大学病院前→泉ヶ丘駅",
    "stop": "大野台六丁目",
    "passTime": "21:23",
    "vehicleType": "泉北コミュニティバス(車椅子・ベビーカー・ノンステップ)",
    "updateTime": "2026/07/21 21:23"
  },
  {
    "vehicleNum": "070109",
    "vehicleCd": "407",
    "vehicleCorpCd": "1",
    "running": true,
    "lat": 34.484778,
    "lon": 135.5275,
    "route": "泉ヶ丘駅→狭山ニュータウンセンター→金剛駅前",
    "stop": "槙塚台センター",
    "passTime": "21:23",
    "vehicleType": "泉北コミュニティバス(車椅子・ベビーカー・ノンステップ)",
    "updateTime": "2026/07/21 21:23"
  },
  {
    "vehicleNum": "071604",
    "vehicleCd": "217",
    "vehicleCorpCd": "1",
    "running": true,
    "lat": 34.579,
    "lon": 135.473889,
    "route": "堺駅前→大小路→堺東駅前",
    "stop": "市小学校前",
    "passTime": "21:21",
    "vehicleType": "堺シャトル(車椅子・ベビーカー・ノンステップ)",
    "updateTime": "2026/07/21 21:23"
  },
  {
    "vehicleNum": "080088",
    "vehicleCd": "442",
    "vehicleCorpCd": "1",
    "running": true,
    "lat": 34.495694,
    "lon": 135.562278,
    "route": "金剛駅前→寺池台小学校前→金剛駅前",
    "stop": "久野喜台二丁目",
    "passTime": "21:21",
    "vehicleType": "南海バス(車椅子・ベビーカー・ワンステップ)",
    "updateTime": "2026/07/21 21:23"
  },
  {
    "vehicleNum": "080381",
    "vehicleCd": "88",
    "vehicleCorpCd": "1",
    "running": true,
    "lat": 34.638694,
    "lon": 135.415583,
    "route": "ＡＴＣ→堺東駅前",
    "stop": "コスモタワー",
    "passTime": "21:23",
    "vehicleType": "南海バス(車椅子・ワンステップ)",
    "updateTime": "2026/07/21 21:24"
  },
  {
    "vehicleNum": "080323",
    "vehicleCd": "59",
    "vehicleCorpCd": "2",
    "running": true,
    "lat": 34.433278,
    "lon": 135.403278,
    "route": "岸和田駅前→岸和田警察署前→河合→白原車庫",
    "stop": "一の宮",
    "passTime": "21:24",
    "vehicleType": "南海ウイングバス(車椅子・ワンステップ)",
    "updateTime": "2026/07/21 21:24"
  },
  {
    "vehicleNum": "080345",
    "vehicleCd": "121",
    "vehicleCorpCd": "2",
    "running": true,
    "lat": 34.408194,
    "lon": 135.364889,
    "route": "熊取ニュータウン→熊取駅前（フリー乗降）",
    "stop": "若葉",
    "passTime": "21:22",
    "vehicleType": "南海ウイングバス",
    "updateTime": "2026/07/21 21:24"
  },
  {
    "vehicleNum": "080412",
    "vehicleCd": "115",
    "vehicleCorpCd": "2",
    "running": true,
    "lat": 34.381389,
    "lon": 135.354583,
    "route": "熊取駅前→つばさが丘北口",
    "stop": "大阪体育大学口",
    "passTime": "21:23",
    "vehicleType": "南海ウイングバス(車椅子・ベビーカー・ノンステップ)",
    "updateTime": "2026/07/21 21:24"
  },
  {
    "vehicleNum": "080651",
    "vehicleCd": "455",
    "vehicleCorpCd": "1",
    "running": true,
    "lat": 34.544278,
    "lon": 135.556194,
    "route": "美原区役所→初芝駅前→美原区役所",
    "stop": "下黒山西",
    "passTime": "21:22",
    "vehicleType": "南海バス",
    "updateTime": "2026/07/21 21:24"
  },
  {
    "vehicleNum": "080670",
    "vehicleCd": "507",
    "vehicleCorpCd": "1",
    "running": true,
    "lat": 34.575778,
    "lon": 135.496694,
    "route": "河内松原駅前→阪和堺市駅前→堺駅前",
    "stop": "阪和堺市駅筋",
    "passTime": "21:21",
    "vehicleType": "南海バス(車椅子・ベビーカー・ノンステップ)",
    "updateTime": "2026/07/21 21:24"
  },
  {
    "vehicleNum": "080652",
    "vehicleCd": "456",
    "vehicleCorpCd": "1",
    "running": true,
    "lat": 34.545083,
    "lon": 135.558694,
    "route": "北野田駅前→多治井北（循環）→北野田駅前",
    "stop": "太井南",
    "passTime": "21:20",
    "vehicleType": "南海バス",
    "updateTime": "2026/07/21 21:24"
  },
  {
    "vehicleNum": "080705",
    "vehicleCd": "542",
    "vehicleCorpCd": "1",
    "running": true,
    "lat": 34.5685,
    "lon": 135.485,
    "route": "堺東駅前→白鷺駅前→三国ヶ丘駅前",
    "stop": "永山園",
    "passTime": "21:23",
    "vehicleType": "南海バス(車椅子・ベビーカー・ノンステップ)",
    "updateTime": "2026/07/21 21:24"
  },
  {
    "vehicleNum": "080709",
    "vehicleCd": "5",
    "vehicleCorpCd": "2",
    "running": true,
    "lat": 34.3935,
    "lon": 135.279583,
    "route": "イオンモール→ポート→イオンモールりんくう泉南",
    "stop": "警察学校前",
    "passTime": "21:21",
    "vehicleType": "南海ウイングバス(車椅子・ベビーカー・ノンステップ)",
    "updateTime": "2026/07/21 21:24"
  },
  {
    "vehicleNum": "080734",
    "vehicleCd": "415",
    "vehicleCorpCd": "1",
    "running": true,
    "lat": 34.552,
    "lon": 135.541889,
    "route": "美原区役所→初芝駅前→美原区役所",
    "stop": "石原",
    "passTime": "21:23",
    "vehicleType": "南海バス",
    "updateTime": "2026/07/21 21:24"
  },
  {
    "vehicleNum": "080750",
    "vehicleCd": "103",
    "vehicleCorpCd": "1",
    "running": true,
    "lat": 34.584083,
    "lon": 135.468278,
    "route": "阪和堺市駅前→堺駅西口→匠町→海浜匠町",
    "stop": "戎島",
    "passTime": "21:23",
    "vehicleType": "南海バス(車椅子・ベビーカー・ノンステップ)",
    "updateTime": "2026/07/21 21:24"
  },
  {
    "vehicleNum": "080754",
    "vehicleCd": "428",
    "vehicleCorpCd": "1",
    "running": true,
    "lat": 34.473778,
    "lon": 135.494583,
    "route": "栂・美木多駅→庭代台左回り→栂・美木多駅",
    "stop": "庭代台西口",
    "passTime": "21:23",
    "vehicleType": "南海バス(車椅子・ベビーカー・ノンステップ)",
    "updateTime": "2026/07/21 21:24"
  },
  {
    "vehicleNum": "080761",
    "vehicleCd": "560",
    "vehicleCorpCd": "1",
    "running": true,
    "lat": 34.608694,
    "lon": 135.479972,
    "route": "匠町→住之江公園駅前→匠町",
    "stop": "松屋大和川通３丁",
    "passTime": "21:18",
    "vehicleType": "南海バス(車椅子・ベビーカー・ノンステップ)",
    "updateTime": "2026/07/21 21:24"
  },
  {
    "vehicleNum": "080764",
    "vehicleCd": "563",
    "vehicleCorpCd": "1",
    "running": true,
    "lat": 34.574583,
    "lon": 135.473583,
    "route": "北野田駅前→福町→堺駅南口",
    "stop": "大寺南門山之口前",
    "passTime": "21:23",
    "vehicleType": "南海バス(車椅子・ベビーカー・ノンステップ)",
    "updateTime": "2026/07/21 21:24"
  },
  {
    "vehicleNum": "080787",
    "vehicleCd": "301",
    "vehicleCorpCd": "1",
    "running": true,
    "lat": 34.565389,
    "lon": 135.5175,
    "route": "堺駅南口→地下鉄新金岡駅前",
    "stop": "北区役所前",
    "passTime": "21:23",
    "vehicleType": "南海バス(車椅子・ベビーカー・ノンステップ)",
    "updateTime": "2026/07/21 21:24"
  },
  {
    "vehicleNum": "080806",
    "vehicleCd": "307",
    "vehicleCorpCd": "1",
    "running": true,
    "lat": 34.5855,
    "lon": 135.469889,
    "route": "匠町→堺駅西口→堺東駅前→阪和堺市駅前",
    "stop": "三宝公園前",
    "passTime": "21:20",
    "vehicleType": "南海バス(車椅子・ベビーカー・ノンステップ)",
    "updateTime": "2026/07/21 21:24"
  },
  {
    "vehicleNum": "080808",
    "vehicleCd": "216",
    "vehicleCorpCd": "1",
    "running": true,
    "lat": 34.589889,
    "lon": 135.468583,
    "route": "堺東駅前→錦綾町→堺駅西口",
    "stop": "三宝",
    "passTime": "21:24",
    "vehicleType": "南海バス(車椅子・ベビーカー・ノンステップ)",
    "updateTime": "2026/07/21 21:24"
  },
  {
    "vehicleNum": "080825",
    "vehicleCd": "261",
    "vehicleCorpCd": "1",
    "running": true,
    "lat": 34.521278,
    "lon": 135.520083,
    "route": "北野田駅前→福町→東山車庫前",
    "stop": "金山",
    "passTime": "21:24",
    "vehicleType": "南海バス(車椅子・ベビーカー・ノンステップ)",
    "updateTime": "2026/07/21 21:24"
  },
  {
    "vehicleNum": "080835",
    "vehicleCd": "310",
    "vehicleCorpCd": "1",
    "running": true,
    "lat": 34.506194,
    "lon": 135.5745,
    "route": "金剛駅前→向陽・藤沢回り→金剛駅前",
    "stop": "藤沢台６丁目",
    "passTime": "21:24",
    "vehicleType": "南海バス(車椅子・ベビーカー・ノンステップ)",
    "updateTime": "2026/07/21 21:24"
  },
  {
    "vehicleNum": "080836",
    "vehicleCd": "268",
    "vehicleCorpCd": "1",
    "running": true,
    "lat": 34.582889,
    "lon": 135.512472,
    "route": "堺東駅前→錦綾町→河内天美駅前",
    "stop": "奥本町",
    "passTime": "21:23",
    "vehicleType": "南海バス(車椅子・ベビーカー・ノンステップ)",
    "updateTime": "2026/07/21 21:24"
  },
  {
    "vehicleNum": "080845",
    "vehicleCd": "319",
    "vehicleCorpCd": "1",
    "running": true,
    "lat": 34.540778,
    "lon": 135.469778,
    "route": "津久野駅前→家原寺→堀上緑町１丁",
    "stop": "津久野駅前",
    "passTime": "21:23",
    "vehicleType": "南海バス(車椅子・ベビーカー・ノンステップ)",
    "updateTime": "2026/07/21 21:24"
  },
  {
    "vehicleNum": "080846",
    "vehicleCd": "224",
    "vehicleCorpCd": "1",
    "running": true,
    "lat": 34.500778,
    "lon": 135.5755,
    "route": "金剛駅前→高辺台小学校前→金剛駅前",
    "stop": "津々山台１丁目北",
    "passTime": "21:23",
    "vehicleType": "南海バス(車椅子・ベビーカー・ノンステップ)",
    "updateTime": "2026/07/21 21:24"
  },
  {
    "vehicleNum": "080854",
    "vehicleCd": "17",
    "vehicleCorpCd": "1",
    "running": true,
    "lat": 34.574694,
    "lon": 135.480889,
    "route": "【急行】海浜匠町→堺東駅前→阪和堺市駅前",
    "stop": "堺東駅前",
    "passTime": "21:21",
    "vehicleType": "南海バス(車椅子・ベビーカー・ノンステップ)",
    "updateTime": "2026/07/21 21:24"
  },
  {
    "vehicleNum": "080857",
    "vehicleCd": "226",
    "vehicleCorpCd": "1",
    "running": true,
    "lat": 34.582583,
    "lon": 135.519194,
    "route": "河内天美駅前→天美我堂→堺東駅前",
    "stop": "西我堂",
    "passTime": "21:23",
    "vehicleType": "南海バス(車椅子・ベビーカー・ノンステップ)",
    "updateTime": "2026/07/21 21:24"
  },
  {
    "vehicleNum": "080858",
    "vehicleCd": "225",
    "vehicleCorpCd": "1",
    "running": true,
    "lat": 34.59,
    "lon": 135.435,
    "route": "【急行】海浜匠町→堺駅西口",
    "stop": "海浜匠町",
    "passTime": "21:20",
    "vehicleType": "南海バス(車椅子・ベビーカー・ノンステップ)",
    "updateTime": "2026/07/21 21:24"
  },
  {
    "vehicleNum": "080863",
    "vehicleCd": "249",
    "vehicleCorpCd": "1",
    "running": true,
    "lat": 34.565694,
    "lon": 135.492889,
    "route": "地下鉄新金岡駅前→堺駅南口",
    "stop": "三国ヶ丘駅前",
    "passTime": "21:24",
    "vehicleType": "南海バス(車椅子・ベビーカー・ノンステップ)",
    "updateTime": "2026/07/21 21:24"
  },
  {
    "vehicleNum": "080710",
    "vehicleCd": "18",
    "vehicleCorpCd": "2",
    "running": true,
    "lat": 34.454583,
    "lon": 135.3855,
    "route": "岸和田駅前→下松駅前→道の駅愛彩ランド",
    "stop": "岸和田警察署前",
    "passTime": "21:22",
    "vehicleType": "南海ウイングバス(車椅子・ベビーカー・ノンステップ)",
    "updateTime": "2026/07/21 21:24"
  },
  {
    "vehicleNum": "080868",
    "vehicleCd": "237",
    "vehicleCorpCd": "1",
    "running": true,
    "lat": 34.489389,
    "lon": 135.525278,
    "route": "泉ヶ丘駅→スマ・エコタウン晴美台→高倉台左回り→泉ヶ丘駅",
    "stop": "高倉台３丁",
    "passTime": "21:23",
    "vehicleType": "南海バス(車椅子・ベビーカー・ノンステップ)",
    "updateTime": "2026/07/21 21:24"
  },
  {
    "vehicleNum": "080875",
    "vehicleCd": "485",
    "vehicleCorpCd": "1",
    "running": true,
    "lat": 34.505583,
    "lon": 135.517,
    "route": "泉ヶ丘駅→三原台左回り→泉ヶ丘駅",
    "stop": "三原台小学校前",
    "passTime": "21:23",
    "vehicleType": "南海バス(車椅子・ベビーカー・ノンステップ)",
    "updateTime": "2026/07/21 21:24"
  },
  {
    "vehicleNum": "080901",
    "vehicleCd": "347",
    "vehicleCorpCd": "1",
    "running": true,
    "lat": 34.595083,
    "lon": 135.462083,
    "route": "【急行】海浜匠町→堺東駅前→阪和堺市駅前",
    "stop": "海浜匠町",
    "passTime": "21:15",
    "vehicleType": "南海バス(車椅子・ベビーカー・ワンステップ)",
    "updateTime": "2026/07/21 21:24"
  },
  {
    "vehicleNum": "080911",
    "vehicleCd": "240",
    "vehicleCorpCd": "1",
    "running": true,
    "lat": 34.574889,
    "lon": 135.55,
    "route": "堺駅前→堺東駅前→河内松原駅前",
    "stop": "高見の里駅前",
    "passTime": "21:23",
    "vehicleType": "南海バス(車椅子・ベビーカー・ノンステップ)",
    "updateTime": "2026/07/21 21:24"
  },
  {
    "vehicleNum": "080765",
    "vehicleCd": "564",
    "vehicleCorpCd": "1",
    "running": true,
    "lat": 34.549889,
    "lon": 135.506389,
    "route": "北野田駅前→西口園→堺駅南口",
    "stop": "府立大学前",
    "passTime": "21:24",
    "vehicleType": "南海バス(車椅子・ベビーカー・ノンステップ)",
    "updateTime": "2026/07/21 21:24"
  },
  {
    "vehicleNum": "080935",
    "vehicleCd": "593",
    "vehicleCorpCd": "1",
    "running": true,
    "lat": 34.565778,
    "lon": 135.511583,
    "route": "堺東駅前→白鷺駅前→堺東駅前（循環）",
    "stop": "北堺警察署前",
    "passTime": "21:23",
    "vehicleType": "南海バス(車椅子・ベビーカー・ノンステップ)",
    "updateTime": "2026/07/21 21:24"
  },
  {
    "vehicleNum": "080957",
    "vehicleCd": "34",
    "vehicleCorpCd": "1",
    "running": true,
    "lat": 34.581194,
    "lon": 135.47,
    "route": "堺東駅前→ＡＴＣ",
    "stop": "堺駅前",
    "passTime": "21:23",
    "vehicleType": "南海バス",
    "updateTime": "2026/07/21 21:24"
  },
  {
    "vehicleNum": "081005",
    "vehicleCd": "272",
    "vehicleCorpCd": "1",
    "running": true,
    "lat": 34.531278,
    "lon": 135.497389,
    "route": "深井駅→八田荘団地→津久野駅前",
    "stop": "深井駅（西側）",
    "passTime": "21:23",
    "vehicleType": "南海バス(車椅子・ベビーカー・ノンステップ)",
    "updateTime": "2026/07/21 21:24"
  },
  {
    "vehicleNum": "081004",
    "vehicleCd": "271",
    "vehicleCorpCd": "1",
    "running": true,
    "lat": 34.523583,
    "lon": 135.539583,
    "route": "堺駅南口→福町→北野田駅前",
    "stop": "大美野噴水前",
    "passTime": "21:22",
    "vehicleType": "南海バス(車椅子・ベビーカー・ノンステップ)",
    "updateTime": "2026/07/21 21:24"
  },
  {
    "vehicleNum": "081006",
    "vehicleCd": "54",
    "vehicleCorpCd": "1",
    "running": true,
    "lat": 34.576278,
    "lon": 135.471389,
    "route": "堺駅南口→福町→北野田駅前",
    "stop": "宿院",
    "passTime": "21:23",
    "vehicleType": "南海バス(車椅子・ベビーカー・ノンステップ)",
    "updateTime": "2026/07/21 21:24"
  },
  {
    "vehicleNum": "081017",
    "vehicleCd": "135",
    "vehicleCorpCd": "1",
    "running": true,
    "lat": 34.498389,
    "lon": 135.545583,
    "route": "金剛駅前→狭山ニュータウンセンター→泉ヶ丘駅",
    "stop": "亀の甲",
    "passTime": "21:23",
    "vehicleType": "南海バス(車椅子・ベビーカー・ノンステップ)",
    "updateTime": "2026/07/21 21:24"
  },
  {
    "vehicleNum": "081021",
    "vehicleCd": "243",
    "vehicleCorpCd": "1",
    "running": true,
    "lat": 34.549389,
    "lon": 135.507083,
    "route": "堺駅南口→三国ヶ丘駅前→北野田駅前",
    "stop": "府立大学前",
    "passTime": "21:24",
    "vehicleType": "南海バス(車椅子・ベビーカー・ノンステップ)",
    "updateTime": "2026/07/21 21:24"
  },
  {
    "vehicleNum": "081024",
    "vehicleCd": "270",
    "vehicleCorpCd": "1",
    "running": true,
    "lat": 34.508194,
    "lon": 135.494694,
    "route": "泉ヶ丘駅→宮山台中学校前→堺東駅前",
    "stop": "宮山台３丁",
    "passTime": "21:24",
    "vehicleType": "南海バス(車椅子・ベビーカー・ノンステップ)",
    "updateTime": "2026/07/21 21:24"
  },
  {
    "vehicleNum": "081023",
    "vehicleCd": "264",
    "vehicleCorpCd": "1",
    "running": true,
    "lat": 34.541778,
    "lon": 135.531389,
    "route": "中もず駅前→平尾・美原区役所前→初芝駅前",
    "stop": "初芝駅前",
    "passTime": "21:22",
    "vehicleType": "南海バス(車椅子・ベビーカー・ノンステップ)",
    "updateTime": "2026/07/21 21:24"
  },
  {
    "vehicleNum": "081034",
    "vehicleCd": "120",
    "vehicleCorpCd": "1",
    "running": true,
    "lat": 34.495778,
    "lon": 135.4995,
    "route": "泉ヶ丘駅→竹城台右回り→泉ヶ丘駅",
    "stop": "竹城台４丁",
    "passTime": "21:23",
    "vehicleType": "南海バス(車椅子・ベビーカー・ノンステップ)",
    "updateTime": "2026/07/21 21:24"
  },
  {
    "vehicleNum": "081040",
    "vehicleCd": "248",
    "vehicleCorpCd": "1",
    "running": true,
    "lat": 34.482778,
    "lon": 135.518472,
    "route": "泉ヶ丘駅→槙塚台左回り→泉ヶ丘駅",
    "stop": "槙塚台２丁北",
    "passTime": "21:23",
    "vehicleType": "南海バス(車椅子・ベビーカー・ノンステップ)",
    "updateTime": "2026/07/21 21:24"
  },
  {
    "vehicleNum": "081043",
    "vehicleCd": "612",
    "vehicleCorpCd": "1",
    "running": true,
    "lat": 34.470389,
    "lon": 135.494194,
    "route": "栂・美木多駅→御池台回り→栂・美木多駅",
    "stop": "庭代台１丁南",
    "passTime": "21:23",
    "vehicleType": "南海バス(車椅子・ベビーカー・ノンステップ)",
    "updateTime": "2026/07/21 21:24"
  },
  {
    "vehicleNum": "090766",
    "vehicleCd": "137",
    "vehicleCorpCd": "2",
    "running": true,
    "lat": 34.379889,
    "lon": 135.354972,
    "route": "大阪体育大学前→熊取駅前",
    "stop": "浪商学園前",
    "passTime": "21:23",
    "vehicleType": "南海ウイングバス(車椅子・ワンステップ)",
    "updateTime": "2026/07/21 21:24"
  },
  {
    "vehicleNum": "091052",
    "vehicleCd": "490",
    "vehicleCorpCd": "1",
    "running": true,
    "lat": 34.438694,
    "lon": 135.246083,
    "route": "第２ターミナル(国内線・国際線)→エアロプラザ",
    "stop": "第2ターミナル国際線",
    "passTime": "21:18",
    "vehicleType": "南海バス",
    "updateTime": "2026/07/21 21:24"
  },
  {
    "vehicleNum": "091659",
    "vehicleCd": "204",
    "vehicleCorpCd": "1",
    "running": true,
    "lat": 34.4335,
    "lon": 135.222389,
    "route": "空港駅→ＦｅｄＥｘ→給油地区",
    "stop": "二期島国際貨物駐車場前",
    "passTime": "21:23",
    "vehicleType": "南海バス(車椅子・ノンステップ)",
    "updateTime": "2026/07/21 21:24"
  },
  {
    "vehicleNum": "092153",
    "vehicleCd": "529",
    "vehicleCorpCd": "1",
    "running": true,
    "lat": 34.436278,
    "lon": 135.235972,
    "route": "エアロプラザ→第２ターミナル(国内線・国際線)→エアロプラザ",
    "stop": "第2ターミナル国際線",
    "passTime": "21:22",
    "vehicleType": "南海バス",
    "updateTime": "2026/07/21 21:24"
  },
  {
    "vehicleNum": "092345",
    "vehicleCd": "160",
    "vehicleCorpCd": "1",
    "running": true,
    "lat": 34.433778,
    "lon": 135.222889,
    "route": "給油地区→ＦｅｄＥｘ→空港駅",
    "stop": "国際貨物FedEx前",
    "passTime": "21:23",
    "vehicleType": "南海バス",
    "updateTime": "2026/07/21 21:24"
  },
  {
    "vehicleNum": "092373",
    "vehicleCd": "553",
    "vehicleCorpCd": "1",
    "running": true,
    "lat": 34.479,
    "lon": 135.423583,
    "route": "和泉中央駅→寺田→泉大津駅前",
    "stop": "柳田",
    "passTime": "21:23",
    "vehicleType": "南海バス(車椅子・ベビーカー・ノンステップ)",
    "updateTime": "2026/07/21 21:24"
  },
  {
    "vehicleNum": "092382",
    "vehicleCd": "556",
    "vehicleCorpCd": "1",
    "running": true,
    "lat": 34.457,
    "lon": 135.473972,
    "route": "泉大津駅前→和泉中央駅→和泉青葉台",
    "stop": "和田南",
    "passTime": "21:24",
    "vehicleType": "南海バス(車椅子・ベビーカー・ノンステップ)",
    "updateTime": "2026/07/21 21:24"
  },
  {
    "vehicleNum": "092398",
    "vehicleCd": "41",
    "vehicleCorpCd": "1",
    "running": true,
    "lat": 34.438,
    "lon": 135.232694,
    "route": "第２ターミナル(国内線・国際線)→エアロプラザ",
    "stop": "第2ターミナル国内線",
    "passTime": "21:20",
    "vehicleType": "南海バス(車椅子・ノンステップ)",
    "updateTime": "2026/07/21 21:24"
  },
  {
    "vehicleNum": "092482",
    "vehicleCd": "528",
    "vehicleCorpCd": "1",
    "running": true,
    "lat": 34.440583,
    "lon": 135.5475,
    "route": "旭ヶ丘→水落→河内長野駅前",
    "stop": "清崎",
    "passTime": "21:23",
    "vehicleType": "南海バス(車椅子・ベビーカー・ノンステップ)",
    "updateTime": "2026/07/21 21:24"
  },
  {
    "vehicleNum": "092498",
    "vehicleCd": "8",
    "vehicleCorpCd": "1",
    "running": true,
    "lat": 34.482694,
    "lon": 135.427083,
    "route": "和泉府中駅前→いぶき野→和泉中央駅",
    "stop": "府中町南",
    "passTime": "21:24",
    "vehicleType": "南海バス(車椅子・ベビーカー・ノンステップ)",
    "updateTime": "2026/07/21 21:24"
  },
  {
    "vehicleNum": "092579",
    "vehicleCd": "579",
    "vehicleCorpCd": "1",
    "running": true,
    "lat": 34.445194,
    "lon": 135.544194,
    "route": "千代田駅前→赤峯→緑ヶ丘北町",
    "stop": "東峯",
    "passTime": "21:23",
    "vehicleType": "南海バス(車椅子・ベビーカー・ノンステップ)",
    "updateTime": "2026/07/21 21:24"
  },
  {
    "vehicleNum": "092578",
    "vehicleCd": "147",
    "vehicleCorpCd": "1",
    "running": true,
    "lat": 34.462889,
    "lon": 135.561194,
    "route": "千代田駅前→赤峯→荘園町",
    "stop": "市民グランド前",
    "passTime": "21:23",
    "vehicleType": "南海バス(車椅子・ベビーカー・ノンステップ)",
    "updateTime": "2026/07/21 21:24"
  },
  {
    "vehicleNum": "092595",
    "vehicleCd": "326",
    "vehicleCorpCd": "1",
    "running": true,
    "lat": 34.421194,
    "lon": 135.586778,
    "route": "美加の台駅前→美加の台口→美加の台駅前",
    "stop": "美加の台口",
    "passTime": "21:22",
    "vehicleType": "南海バス(車椅子・ベビーカー・ノンステップ)",
    "updateTime": "2026/07/21 21:24"
  },
  {
    "vehicleNum": "092711",
    "vehicleCd": "355",
    "vehicleCorpCd": "1",
    "running": true,
    "lat": 34.473278,
    "lon": 135.477583,
    "route": "堺東駅前→鳳駅前→光明池駅",
    "stop": "変電所前",
    "passTime": "21:20",
    "vehicleType": "南海バス(車椅子・ベビーカー・ノンステップ)",
    "updateTime": "2026/07/21 21:24"
  },
  {
    "vehicleNum": "092734",
    "vehicleCd": "289",
    "vehicleCorpCd": "1",
    "running": true,
    "lat": 34.451,
    "lon": 135.572389,
    "route": "長野→こんごう福祉",
    "stop": "河合寺",
    "passTime": "21:21",
    "vehicleType": "南海バス(車椅子・ベビーカー・ノンステップ)",
    "updateTime": "2026/07/21 21:24"
  },
  {
    "vehicleNum": "092859",
    "vehicleCd": "32",
    "vehicleCorpCd": "1",
    "running": true,
    "lat": 34.422083,
    "lon": 135.569778,
    "route": "三日市町駅東→南青葉台中央",
    "stop": "青葉台センター前",
    "passTime": "21:24",
    "vehicleType": "南海バス(車椅子・ベビーカー・ノンステップ)",
    "updateTime": "2026/07/21 21:24"
  },
  {
    "vehicleNum": "092763",
    "vehicleCd": "520",
    "vehicleCorpCd": "1",
    "running": true,
    "lat": 34.460583,
    "lon": 135.455083,
    "route": "泉大津駅前→和泉府中駅前→和泉中央駅",
    "stop": "唐国南",
    "passTime": "21:21",
    "vehicleType": "南海バス(車椅子・ベビーカー・ノンステップ)",
    "updateTime": "2026/07/21 21:24"
  },
  {
    "vehicleNum": "092872",
    "vehicleCd": "500",
    "vehicleCorpCd": "1",
    "running": true,
    "lat": 34.459389,
    "lon": 135.455194,
    "route": "和泉中央駅→はつが野六丁目→和泉中央駅",
    "stop": "万町弘法寺前",
    "passTime": "21:21",
    "vehicleType": "南海バス(車椅子・ベビーカー・ノンステップ)",
    "updateTime": "2026/07/21 21:24"
  },
  {
    "vehicleNum": "092936",
    "vehicleCd": "322",
    "vehicleCorpCd": "1",
    "running": true,
    "lat": 34.436083,
    "lon": 135.2415,
    "route": "エアロプラザ→第２ターミナル(国内線・国際線)→エアロプラザ",
    "stop": "第2ターミナル国際線",
    "passTime": "21:16",
    "vehicleType": "南海バス(車椅子・ベビーカー・ノンステップ)",
    "updateTime": "2026/07/21 21:24"
  },
  {
    "vehicleNum": "092948",
    "vehicleCd": "606",
    "vehicleCorpCd": "1",
    "running": true,
    "lat": 34.481,
    "lon": 135.437972,
    "route": "泉大津駅前→和泉府中駅前→和泉中央駅",
    "stop": "桑原",
    "passTime": "21:23",
    "vehicleType": "南海バス(車椅子・ベビーカー・ノンステップ)",
    "updateTime": "2026/07/21 21:24"
  },
  {
    "vehicleNum": "092952",
    "vehicleCd": "113",
    "vehicleCorpCd": "1",
    "running": true,
    "lat": 34.418972,
    "lon": 135.453389,
    "route": "和泉中央駅→テクノステージセンター前→直行→和泉中央駅",
    "stop": "テクノステージ中",
    "passTime": "21:24",
    "vehicleType": "南海バス(車椅子・ベビーカー・ノンステップ)",
    "updateTime": "2026/07/21 21:24"
  },
  {
    "vehicleNum": "092950",
    "vehicleCd": "257",
    "vehicleCorpCd": "1",
    "running": true,
    "lat": 34.552,
    "lon": 135.465083,
    "route": "栂・美木多駅→鳳駅前→堺東駅前",
    "stop": "神石橋",
    "passTime": "21:24",
    "vehicleType": "南海バス(車椅子・ベビーカー・ノンステップ)",
    "updateTime": "2026/07/21 21:24"
  },
  {
    "vehicleNum": "092974",
    "vehicleCd": "260",
    "vehicleCorpCd": "1",
    "running": true,
    "lat": 34.507889,
    "lon": 135.442194,
    "route": "北信太駅筋→鶴山台団地→北信太駅筋",
    "stop": "北信太駅筋",
    "passTime": "21:23",
    "vehicleType": "南海バス(車椅子・ベビーカー・ノンステップ)",
    "updateTime": "2026/07/21 21:24"
  },
  {
    "vehicleNum": "092976",
    "vehicleCd": "138",
    "vehicleCorpCd": "1",
    "running": true,
    "lat": 34.546389,
    "lon": 135.463389,
    "route": "堺東駅前→鳳駅前→光明池駅",
    "stop": "神石市之町",
    "passTime": "21:23",
    "vehicleType": "南海バス(車椅子・ベビーカー・ノンステップ)",
    "updateTime": "2026/07/21 21:24"
  },
  {
    "vehicleNum": "093003",
    "vehicleCd": "111",
    "vehicleCorpCd": "1",
    "running": true,
    "lat": 34.460278,
    "lon": 135.455694,
    "route": "ららぽーと和泉前→和泉中央駅→和泉府中駅前",
    "stop": "和泉中央駅",
    "passTime": "21:23",
    "vehicleType": "南海バス(車椅子・ベビーカー・ノンステップ)",
    "updateTime": "2026/07/21 21:24"
  },
  {
    "vehicleNum": "093032",
    "vehicleCd": "231",
    "vehicleCorpCd": "1",
    "running": true,
    "lat": 34.436389,
    "lon": 135.234194,
    "route": "エアロプラザ→第２ターミナル(国内線・国際線)→エアロプラザ",
    "stop": "エアロプラザ",
    "passTime": "21:20",
    "vehicleType": "南海バス",
    "updateTime": "2026/07/21 21:24"
  },
  {
    "vehicleNum": "093073",
    "vehicleCd": "370",
    "vehicleCorpCd": "1",
    "running": true,
    "lat": 34.551889,
    "lon": 135.465083,
    "route": "光明池駅→山田→堺東駅前",
    "stop": "神石橋",
    "passTime": "21:24",
    "vehicleType": "南海バス(車椅子・ベビーカー・ノンステップ)",
    "updateTime": "2026/07/21 21:24"
  },
  {
    "vehicleNum": "093046",
    "vehicleCd": "246",
    "vehicleCorpCd": "1",
    "running": true,
    "lat": 34.487583,
    "lon": 135.424,
    "route": "和泉中央駅→阪本→泉大津駅前",
    "stop": "府中町南",
    "passTime": "21:19",
    "vehicleType": "南海バス(車椅子・ベビーカー・ノンステップ)",
    "updateTime": "2026/07/21 21:24"
  },
  {
    "vehicleNum": "093114",
    "vehicleCd": "262",
    "vehicleCorpCd": "1",
    "running": true,
    "lat": 34.515389,
    "lon": 135.4695,
    "route": "堺東駅前→鳳駅前→栂・美木多駅",
    "stop": "福泉小学校前",
    "passTime": "21:24",
    "vehicleType": "南海バス(車椅子・ベビーカー・ノンステップ)",
    "updateTime": "2026/07/21 21:24"
  }
]