[
  {
    "vehicleNum": "070104",
    "vehicleCd": "402",
    "vehicleCorpCd": "1",
    "running": true,
    "lat": 34.484278,
    "lon": 135.538,
    "route": "泉ヶ丘駅→狭山ニュータウンセンター→金剛駅前",
    "stop": "槙塚台東",
    "passTime": "21:04",
    "vehicleType": "泉北コミュニティバス(車椅子・ベビーカー・ノンステップ)",
    "updateTime": "2026/07/20 21:05"
  },
  {
    "vehicleNum": "070850",
    "vehicleCd": "429",
    "vehicleCorpCd": "1",
    "running": true,
    "lat": 34.574389,
    "lon": 135.484278,
    "route": "堺東駅前→ＡＴＣ→海遊館→堺東駅前",
    "stop": "堺東駅前",
    "passTime": "21:05",
    "vehicleType": "南海バス",
    "updateTime": "2026/07/20 21:05"
  },
  {
    "vehicleNum": "080146",
    "vehicleCd": "6",
    "vehicleCorpCd": "2",
    "running": true,
    "lat": 34.382778,
    "lon": 135.354278,
    "route": "熊取駅前→つばさが丘北口",
    "stop": "南小学校前",
    "passTime": "21:04",
    "vehicleType": "南海ウイングバス(車椅子・ワンステップ)",
    "updateTime": "2026/07/20 21:05"
  },
  {
    "vehicleNum": "080184",
    "vehicleCd": "34",
    "vehicleCorpCd": "2",
    "running": true,
    "lat": 34.397083,
    "lon": 135.345694,
    "route": "大阪体育大学前→熊取駅前",
    "stop": "熊取西小学校前",
    "passTime": "21:05",
    "vehicleType": "南海ウイングバス(車椅子・ベビーカー・ノンステップ)",
    "updateTime": "2026/07/20 21:05"
  },
  {
    "vehicleNum": "080640",
    "vehicleCd": "133",
    "vehicleCorpCd": "2",
    "running": true,
    "lat": 34.329583,
    "lon": 135.222778,
    "route": "箱作駅前→桃の木台回り→箱作駅前",
    "stop": "桃の木台３丁目",
    "passTime": "21:05",
    "vehicleType": "南海ウイングバス(車椅子・ベビーカー・ノンステップ)",
    "updateTime": "2026/07/20 21:05"
  },
  {
    "vehicleNum": "080652",
    "vehicleCd": "456",
    "vehicleCorpCd": "1",
    "running": true,
    "lat": 34.542778,
    "lon": 135.5265,
    "route": "美原区役所→初芝駅前→美原区役所",
    "stop": "初芝中",
    "passTime": "21:02",
    "vehicleType": "南海バス",
    "updateTime": "2026/07/20 21:05"
  },
  {
    "vehicleNum": "080697",
    "vehicleCd": "461",
    "vehicleCorpCd": "1",
    "running": true,
    "lat": 34.574278,
    "lon": 135.483083,
    "route": "海浜匠町→匠町→堺駅西口→堺東駅前→阪和堺市駅前",
    "stop": "堺東駅前",
    "passTime": "21:04",
    "vehicleType": "南海バス",
    "updateTime": "2026/07/20 21:05"
  },
  {
    "vehicleNum": "080708",
    "vehicleCd": "537",
    "vehicleCorpCd": "1",
    "running": true,
    "lat": 34.496,
    "lon": 135.512083,
    "route": "泉ヶ丘駅→槙塚台左回り→泉ヶ丘駅",
    "stop": "茶山台",
    "passTime": "21:02",
    "vehicleType": "南海バス(車椅子・ベビーカー・ノンステップ)",
    "updateTime": "2026/07/20 21:05"
  },
  {
    "vehicleNum": "080709",
    "vehicleCd": "5",
    "vehicleCorpCd": "2",
    "running": true,
    "lat": 34.411194,
    "lon": 135.302583,
    "route": "イオンモール→ワシントンホテル→イオンモールりんくう泉南",
    "stop": "ワシントンホテル",
    "passTime": "21:04",
    "vehicleType": "南海ウイングバス(車椅子・ベビーカー・ノンステップ)",
    "updateTime": "2026/07/20 21:05"
  },
  {
    "vehicleNum": "080757",
    "vehicleCd": "182",
    "vehicleCorpCd": "1",
    "running": true,
    "lat": 34.499694,
    "lon": 135.564278,
    "route": "金剛駅前→高辺台小学校前→金剛駅前",
    "stop": "久野喜台小学校前",
    "passTime": "21:04",
    "vehicleType": "南海バス(車椅子・ベビーカー・ノンステップ)",
    "updateTime": "2026/07/20 21:05"
  },
  {
    "vehicleNum": "080765",
    "vehicleCd": "564",
    "vehicleCorpCd": "1",
    "running": true,
    "lat": 34.524389,
    "lon": 135.533278,
    "route": "北野田駅前→西口園→堺駅南口",
    "stop": "中大美野",
    "passTime": "21:04",
    "vehicleType": "南海バス(車椅子・ベビーカー・ノンステップ)",
    "updateTime": "2026/07/20 21:05"
  },
  {
    "vehicleNum": "080787",
    "vehicleCd": "301",
    "vehicleCorpCd": "1",
    "running": true,
    "lat": 34.577194,
    "lon": 135.481278,
    "route": "堺駅前→堺東駅前→河内松原駅前",
    "stop": "瓦町公園前",
    "passTime": "21:04",
    "vehicleType": "南海バス(車椅子・ベビーカー・ノンステップ)",
    "updateTime": "2026/07/20 21:05"
  },
  {
    "vehicleNum": "080792",
    "vehicleCd": "302",
    "vehicleCorpCd": "1",
    "running": true,
    "lat": 34.601194,
    "lon": 135.4485,
    "route": "堺駅西口→南島町→堺東駅前",
    "stop": "Jグリーン堺南口",
    "passTime": "21:05",
    "vehicleType": "南海バス(車椅子・ベビーカー・ノンステップ)",
    "updateTime": "2026/07/20 21:05"
  },
  {
    "vehicleNum": "080795",
    "vehicleCd": "43",
    "vehicleCorpCd": "1",
    "running": true,
    "lat": 34.556583,
    "lon": 135.519278,
    "route": "堺東駅前→白鷺駅前→堺東駅前（循環）",
    "stop": "金岡町",
    "passTime": "21:03",
    "vehicleType": "南海バス(車椅子・ベビーカー・ノンステップ)",
    "updateTime": "2026/07/20 21:05"
  },
  {
    "vehicleNum": "080822",
    "vehicleCd": "576",
    "vehicleCorpCd": "1",
    "running": true,
    "lat": 34.574583,
    "lon": 135.483889,
    "route": "堺東駅前→上野芝→泉ヶ丘駅",
    "stop": "堺東駅前",
    "passTime": "21:05",
    "vehicleType": "南海バス(車椅子・ベビーカー・ノンステップ)",
    "updateTime": "2026/07/20 21:05"
  },
  {
    "vehicleNum": "080825",
    "vehicleCd": "261",
    "vehicleCorpCd": "1",
    "running": true,
    "lat": 34.516389,
    "lon": 135.492278,
    "route": "堺東駅前→上野芝→泉ヶ丘駅",
    "stop": "天の橋",
    "passTime": "21:04",
    "vehicleType": "南海バス(車椅子・ベビーカー・ノンステップ)",
    "updateTime": "2026/07/20 21:05"
  },
  {
    "vehicleNum": "080826",
    "vehicleCd": "152",
    "vehicleCorpCd": "1",
    "running": true,
    "lat": 34.553583,
    "lon": 135.5135,
    "route": "中もず駅前→初芝駅前→平尾",
    "stop": "中もず団地前",
    "passTime": "21:04",
    "vehicleType": "南海バス(車椅子・ベビーカー・ノンステップ)",
    "updateTime": "2026/07/20 21:05"
  },
  {
    "vehicleNum": "080838",
    "vehicleCd": "129",
    "vehicleCorpCd": "1",
    "running": true,
    "lat": 34.606278,
    "lon": 135.479694,
    "route": "匠町→住之江公園駅前→匠町",
    "stop": "松屋大和川通３丁",
    "passTime": "20:58",
    "vehicleType": "南海バス(車椅子・ベビーカー・ノンステップ)",
    "updateTime": "2026/07/20 21:05"
  },
  {
    "vehicleNum": "080844",
    "vehicleCd": "581",
    "vehicleCorpCd": "1",
    "running": true,
    "lat": 34.500889,
    "lon": 135.578472,
    "route": "金剛駅前→向陽・藤沢回り→金剛駅前",
    "stop": "藤沢台１丁目",
    "passTime": "21:04",
    "vehicleType": "南海バス(車椅子・ベビーカー・ノンステップ)",
    "updateTime": "2026/07/20 21:05"
  },
  {
    "vehicleNum": "080854",
    "vehicleCd": "17",
    "vehicleCorpCd": "1",
    "running": true,
    "lat": 34.595194,
    "lon": 135.459778,
    "route": "海浜匠町→匠町→堺駅西口→阪和堺市駅前",
    "stop": "匠町",
    "passTime": "21:00",
    "vehicleType": "南海バス(車椅子・ベビーカー・ノンステップ)",
    "updateTime": "2026/07/20 21:05"
  },
  {
    "vehicleNum": "080857",
    "vehicleCd": "226",
    "vehicleCorpCd": "1",
    "running": true,
    "lat": 34.574778,
    "lon": 135.552278,
    "route": "堺駅前→堺東駅前→河内松原駅前",
    "stop": "高見の里駅前",
    "passTime": "21:03",
    "vehicleType": "南海バス(車椅子・ベビーカー・ノンステップ)",
    "updateTime": "2026/07/20 21:05"
  },
  {
    "vehicleNum": "080863",
    "vehicleCd": "249",
    "vehicleCorpCd": "1",
    "running": true,
    "lat": 34.597889,
    "lon": 135.470278,
    "route": "堺東駅前→錦綾町→堺駅西口",
    "stop": "浅香山通",
    "passTime": "21:04",
    "vehicleType": "南海バス(車椅子・ベビーカー・ノンステップ)",
    "updateTime": "2026/07/20 21:05"
  },
  {
    "vehicleNum": "080864",
    "vehicleCd": "146",
    "vehicleCorpCd": "1",
    "running": true,
    "lat": 34.573,
    "lon": 135.516083,
    "route": "堺駅南口→阪和堺市駅",
    "stop": "新金岡２丁",
    "passTime": "21:04",
    "vehicleType": "南海バス(車椅子・ベビーカー・ノンステップ)",
    "updateTime": "2026/07/20 21:05"
  },
  {
    "vehicleNum": "080865",
    "vehicleCd": "504",
    "vehicleCorpCd": "1",
    "running": true,
    "lat": 34.584583,
    "lon": 135.496778,
    "route": "河内天美駅前→天美我堂→堺東駅前",
    "stop": "愛泉学園前",
    "passTime": "21:05",
    "vehicleType": "南海バス(車椅子・ベビーカー・ノンステップ)",
    "updateTime": "2026/07/20 21:05"
  },
  {
    "vehicleNum": "080883",
    "vehicleCd": "361",
    "vehicleCorpCd": "1",
    "running": true,
    "lat": 34.505,
    "lon": 135.518194,
    "route": "泉ヶ丘駅→三原台左回り→泉ヶ丘駅",
    "stop": "三原台小学校前",
    "passTime": "21:03",
    "vehicleType": "南海バス(車椅子・ベビーカー・ノンステップ)",
    "updateTime": "2026/07/20 21:05"
  },
  {
    "vehicleNum": "080894",
    "vehicleCd": "350",
    "vehicleCorpCd": "1",
    "running": true,
    "lat": 34.522583,
    "lon": 135.542694,
    "route": "北野田駅前→多治井北（循環）→北野田駅前",
    "stop": "北野田駅前",
    "passTime": "21:05",
    "vehicleType": "南海バス(車椅子・ベビーカー・ノンステップ)",
    "updateTime": "2026/07/20 21:05"
  },
  {
    "vehicleNum": "080907",
    "vehicleCd": "499",
    "vehicleCorpCd": "1",
    "running": true,
    "lat": 34.494778,
    "lon": 135.518083,
    "route": "泉ヶ丘駅→晴美台左回り→泉ヶ丘駅",
    "stop": "泉ヶ丘駅（南側）",
    "passTime": "21:03",
    "vehicleType": "南海バス(車椅子・ベビーカー・ノンステップ)",
    "updateTime": "2026/07/20 21:05"
  },
  {
    "vehicleNum": "080928",
    "vehicleCd": "348",
    "vehicleCorpCd": "1",
    "running": true,
    "lat": 34.464278,
    "lon": 135.502083,
    "route": "栂・美木多駅→御池台３丁",
    "stop": "御池台センター",
    "passTime": "21:05",
    "vehicleType": "南海バス(車椅子・ベビーカー・ノンステップ)",
    "updateTime": "2026/07/20 21:05"
  },
  {
    "vehicleNum": "080934",
    "vehicleCd": "594",
    "vehicleCorpCd": "1",
    "running": true,
    "lat": 34.577278,
    "lon": 135.4975,
    "route": "河内松原駅前→阪和堺市駅前→堺東駅前",
    "stop": "阪和堺市駅前",
    "passTime": "21:05",
    "vehicleType": "南海バス(車椅子・ベビーカー・ノンステップ)",
    "updateTime": "2026/07/20 21:05"
  },
  {
    "vehicleNum": "080936",
    "vehicleCd": "22",
    "vehicleCorpCd": "1",
    "running": true,
    "lat": 34.472583,
    "lon": 135.510194,
    "route": "泉ヶ丘駅→鉢ヶ峯→泉ヶ丘駅",
    "stop": "鉢ヶ峯東",
    "passTime": "21:04",
    "vehicleType": "南海バス(車椅子・ベビーカー・ノンステップ)",
    "updateTime": "2026/07/20 21:05"
  },
  {
    "vehicleNum": "080948",
    "vehicleCd": "276",
    "vehicleCorpCd": "1",
    "running": true,
    "lat": 34.577083,
    "lon": 135.469583,
    "route": "地下鉄新金岡駅前→堺駅南口",
    "stop": "川尻",
    "passTime": "21:05",
    "vehicleType": "南海バス(車椅子・ベビーカー・ノンステップ)",
    "updateTime": "2026/07/20 21:05"
  },
  {
    "vehicleNum": "080951",
    "vehicleCd": "597",
    "vehicleCorpCd": "1",
    "running": true,
    "lat": 34.497694,
    "lon": 135.520278,
    "route": "泉ヶ丘駅→スマ・エコタウン晴美台→高倉台左回り→泉ヶ丘駅",
    "stop": "三原台１丁",
    "passTime": "21:05",
    "vehicleType": "南海バス(車椅子・ベビーカー・ノンステップ)",
    "updateTime": "2026/07/20 21:05"
  },
  {
    "vehicleNum": "080968",
    "vehicleCd": "424",
    "vehicleCorpCd": "1",
    "running": true,
    "lat": 34.536194,
    "lon": 135.556583,
    "route": "初芝駅前→平尾→初芝駅前",
    "stop": "船戸下",
    "passTime": "21:03",
    "vehicleType": "南海バス(車椅子・ベビーカー・ノンステップ)",
    "updateTime": "2026/07/20 21:05"
  },
  {
    "vehicleNum": "080977",
    "vehicleCd": "388",
    "vehicleCorpCd": "1",
    "running": true,
    "lat": 34.539389,
    "lon": 135.470278,
    "route": "深井駅→八田荘団地→津久野駅前",
    "stop": "平岡西口",
    "passTime": "21:03",
    "vehicleType": "南海バス(車椅子・ベビーカー・ノンステップ)",
    "updateTime": "2026/07/20 21:05"
  },
  {
    "vehicleNum": "080996",
    "vehicleCd": "191",
    "vehicleCorpCd": "1",
    "running": true,
    "lat": 34.572889,
    "lon": 135.476889,
    "route": "堺駅南口→三国ヶ丘駅前→北野田駅前",
    "stop": "大寺南門山之口前",
    "passTime": "21:03",
    "vehicleType": "南海バス(車椅子・ベビーカー・ノンステップ)",
    "updateTime": "2026/07/20 21:05"
  },
  {
    "vehicleNum": "080999",
    "vehicleCd": "493",
    "vehicleCorpCd": "1",
    "running": true,
    "lat": 34.554583,
    "lon": 135.500278,
    "route": "北野田駅前→福町→堺駅南口",
    "stop": "中もず町",
    "passTime": "21:04",
    "vehicleType": "南海バス(車椅子・ベビーカー・ノンステップ)",
    "updateTime": "2026/07/20 21:05"
  },
  {
    "vehicleNum": "081001",
    "vehicleCd": "238",
    "vehicleCorpCd": "1",
    "running": true,
    "lat": 34.538389,
    "lon": 135.477,
    "route": "堺東駅前→津久野駅前→堀上緑町一丁→津久野駅前",
    "stop": "家原寺町",
    "passTime": "21:05",
    "vehicleType": "南海バス(車椅子・ベビーカー・ノンステップ)",
    "updateTime": "2026/07/20 21:05"
  },
  {
    "vehicleNum": "081004",
    "vehicleCd": "271",
    "vehicleCorpCd": "1",
    "running": true,
    "lat": 34.5495,
    "lon": 135.507,
    "route": "堺駅南口→福町→北野田駅前",
    "stop": "府立大学前",
    "passTime": "21:04",
    "vehicleType": "南海バス(車椅子・ベビーカー・ノンステップ)",
    "updateTime": "2026/07/20 21:05"
  },
  {
    "vehicleNum": "081006",
    "vehicleCd": "54",
    "vehicleCorpCd": "1",
    "running": true,
    "lat": 34.522,
    "lon": 135.506778,
    "route": "北野田駅前→福町→深井駅",
    "stop": "東山",
    "passTime": "21:05",
    "vehicleType": "南海バス(車椅子・ベビーカー・ノンステップ)",
    "updateTime": "2026/07/20 21:05"
  },
  {
    "vehicleNum": "081017",
    "vehicleCd": "135",
    "vehicleCorpCd": "1",
    "running": true,
    "lat": 34.539583,
    "lon": 135.470278,
    "route": "泉ヶ丘駅→深阪→津久野駅前",
    "stop": "文珠前",
    "passTime": "21:01",
    "vehicleType": "南海バス(車椅子・ベビーカー・ノンステップ)",
    "updateTime": "2026/07/20 21:05"
  },
  {
    "vehicleNum": "081035",
    "vehicleCd": "491",
    "vehicleCorpCd": "1",
    "running": true,
    "lat": 34.490278,
    "lon": 135.532083,
    "route": "泉ヶ丘駅→晴美台右回り→泉ヶ丘駅",
    "stop": "はるみ小学校前",
    "passTime": "21:05",
    "vehicleType": "南海バス(車椅子・ベビーカー・ノンステップ)",
    "updateTime": "2026/07/20 21:05"
  },
  {
    "vehicleNum": "081037",
    "vehicleCd": "236",
    "vehicleCorpCd": "1",
    "running": true,
    "lat": 34.495389,
    "lon": 135.507583,
    "route": "泉ヶ丘駅→泉北２号線→津久野駅前",
    "stop": "泉ヶ丘駅（北側）",
    "passTime": "21:03",
    "vehicleType": "南海バス(車椅子・ベビーカー・ノンステップ)",
    "updateTime": "2026/07/20 21:05"
  },
  {
    "vehicleNum": "081044",
    "vehicleCd": "132",
    "vehicleCorpCd": "1",
    "running": true,
    "lat": 34.497972,
    "lon": 135.543889,
    "route": "金剛駅前→狭山ニュータウンセンター→泉ヶ丘駅",
    "stop": "狭山西小学校前",
    "passTime": "21:04",
    "vehicleType": "南海バス(車椅子・ベビーカー・ノンステップ)",
    "updateTime": "2026/07/20 21:05"
  },
  {
    "vehicleNum": "090103",
    "vehicleCd": "49",
    "vehicleCorpCd": "2",
    "running": true,
    "lat": 34.461694,
    "lon": 135.393389,
    "route": "道の駅愛彩ランド→岸和田警察署前→岸和田駅前",
    "stop": "下松（市民病院南）",
    "passTime": "21:04",
    "vehicleType": "南海ウイングバス(車椅子・ベビーカー・ワンステップ)",
    "updateTime": "2026/07/20 21:05"
  },
  {
    "vehicleNum": "090144",
    "vehicleCd": "82",
    "vehicleCorpCd": "2",
    "running": true,
    "lat": 34.416083,
    "lon": 135.411583,
    "route": "岸和田駅前→岸和田警察署前→河合→白原車庫",
    "stop": "宮の台",
    "passTime": "21:05",
    "vehicleType": "南海ウイングバス(車椅子・ベビーカー・ワンステップ)",
    "updateTime": "2026/07/20 21:05"
  },
  {
    "vehicleNum": "090160",
    "vehicleCd": "72",
    "vehicleCorpCd": "2",
    "running": true,
    "lat": 34.4665,
    "lon": 135.407278,
    "route": "和泉中央駅→荒木町→岸和田駅前",
    "stop": "久米田駅前",
    "passTime": "21:04",
    "vehicleType": "南海ウイングバス(車椅子・ワンステップ)",
    "updateTime": "2026/07/20 21:05"
  },
  {
    "vehicleNum": "091052",
    "vehicleCd": "490",
    "vehicleCorpCd": "1",
    "running": true,
    "lat": 34.432278,
    "lon": 135.234389,
    "route": "第２ターミナル(国内線・国際線)→エアロプラザ",
    "stop": "第2ターミナル国際線",
    "passTime": "21:01",
    "vehicleType": "南海バス",
    "updateTime": "2026/07/20 21:05"
  },
  {
    "vehicleNum": "091600",
    "vehicleCd": "201",
    "vehicleCorpCd": "1",
    "running": true,
    "lat": 34.427889,
    "lon": 135.229694,
    "route": "空港駅→ＦｅｄＥｘ→給油地区",
    "stop": "大阪国際郵便局前",
    "passTime": "21:05",
    "vehicleType": "南海バス(車椅子・ノンステップ)",
    "updateTime": "2026/07/20 21:05"
  },
  {
    "vehicleNum": "091837",
    "vehicleCd": "209",
    "vehicleCorpCd": "1",
    "running": true,
    "lat": 34.580583,
    "lon": 135.464583,
    "route": "堺東駅前→フェリー→ＡＴＣ→海遊館→堺東駅前",
    "stop": "海遊館",
    "passTime": "20:50",
    "vehicleType": "南海バス",
    "updateTime": "2026/07/20 21:05"
  },
  {
    "vehicleNum": "092205",
    "vehicleCd": "25",
    "vehicleCorpCd": "1",
    "running": true,
    "lat": 34.436694,
    "lon": 135.569778,
    "route": "三日市町駅前→清見台１丁目",
    "stop": "三日市町駅前",
    "passTime": "21:04",
    "vehicleType": "南海バス(車椅子・ベビーカー・ノンステップ)",
    "updateTime": "2026/07/20 21:05"
  },
  {
    "vehicleNum": "092372",
    "vehicleCd": "159",
    "vehicleCorpCd": "1",
    "running": true,
    "lat": 34.532083,
    "lon": 135.463083,
    "route": "栂・美木多駅→鳳駅前→堺東駅前",
    "stop": "西堺警察署前",
    "passTime": "21:05",
    "vehicleType": "南海バス(車椅子・ベビーカー・ノンステップ)",
    "updateTime": "2026/07/20 21:05"
  },
  {
    "vehicleNum": "092468",
    "vehicleCd": "51",
    "vehicleCorpCd": "1",
    "running": true,
    "lat": 34.436583,
    "lon": 135.57,
    "route": "三日市町駅前→南花台１丁目北→南ヶ丘",
    "stop": "三日市町駅前",
    "passTime": "21:04",
    "vehicleType": "南海バス(車椅子・ベビーカー・ノンステップ)",
    "updateTime": "2026/07/20 21:05"
  },
  {
    "vehicleNum": "092655",
    "vehicleCd": "168",
    "vehicleCorpCd": "1",
    "running": true,
    "lat": 34.435194,
    "lon": 135.540583,
    "route": "長野→天野山→旭",
    "stop": "広野",
    "passTime": "21:05",
    "vehicleType": "南海バス(車椅子・ベビーカー・ノンステップ)",
    "updateTime": "2026/07/20 21:05"
  },
  {
    "vehicleNum": "092762",
    "vehicleCd": "570",
    "vehicleCorpCd": "1",
    "running": true,
    "lat": 34.458583,
    "lon": 135.489389,
    "route": "光明池駅→城山台５丁→光明池車庫",
    "stop": "城山台四丁",
    "passTime": "21:04",
    "vehicleType": "南海バス(車椅子・ベビーカー・ノンステップ)",
    "updateTime": "2026/07/20 21:05"
  },
  {
    "vehicleNum": "092795",
    "vehicleCd": "592",
    "vehicleCorpCd": "1",
    "running": true,
    "lat": 34.492889,
    "lon": 135.413972,
    "route": "泉大津駅前→和泉府中駅前→和泉中央駅",
    "stop": "池浦",
    "passTime": "21:03",
    "vehicleType": "南海バス(車椅子・ベビーカー・ノンステップ)",
    "updateTime": "2026/07/20 21:05"
  },
  {
    "vehicleNum": "092829",
    "vehicleCd": "488",
    "vehicleCorpCd": "1",
    "running": true,
    "lat": 34.461389,
    "lon": 135.457583,
    "route": "泉大津駅前→和泉中央駅→和泉青葉台",
    "stop": "上中村",
    "passTime": "21:03",
    "vehicleType": "南海バス(車椅子・ベビーカー・ノンステップ)",
    "updateTime": "2026/07/20 21:05"
  },
  {
    "vehicleNum": "092913",
    "vehicleCd": "154",
    "vehicleCorpCd": "1",
    "running": true,
    "lat": 34.531972,
    "lon": 135.459472,
    "route": "堺東駅前→鳳駅前→栂・美木多駅",
    "stop": "鳳駅前",
    "passTime": "21:04",
    "vehicleType": "南海バス(車椅子・ベビーカー・ノンステップ)",
    "updateTime": "2026/07/20 21:05"
  },
  {
    "vehicleNum": "092914",
    "vehicleCd": "75",
    "vehicleCorpCd": "1",
    "running": true,
    "lat": 34.455889,
    "lon": 135.447194,
    "route": "和泉中央駅→直行→ららぽーと和泉前",
    "stop": "唐国南",
    "passTime": "21:04",
    "vehicleType": "南海バス(車椅子・ベビーカー・ノンステップ)",
    "updateTime": "2026/07/20 21:05"
  },
  {
    "vehicleNum": "092951",
    "vehicleCd": "340",
    "vehicleCorpCd": "1",
    "running": true,
    "lat": 34.489889,
    "lon": 135.466278,
    "route": "堺東駅前→鳳駅前→光明池駅",
    "stop": "檜尾山北",
    "passTime": "21:05",
    "vehicleType": "南海バス(車椅子・ベビーカー・ノンステップ)",
    "updateTime": "2026/07/20 21:05"
  },
  {
    "vehicleNum": "092952",
    "vehicleCd": "113",
    "vehicleCorpCd": "1",
    "running": true,
    "lat": 34.476583,
    "lon": 135.434694,
    "route": "和泉府中駅前→いぶき野→和泉中央駅",
    "stop": "寺門町一丁目",
    "passTime": "21:04",
    "vehicleType": "南海バス(車椅子・ベビーカー・ノンステップ)",
    "updateTime": "2026/07/20 21:05"
  },
  {
    "vehicleNum": "092948",
    "vehicleCd": "606",
    "vehicleCorpCd": "1",
    "running": true,
    "lat": 34.463194,
    "lon": 135.455583,
    "route": "和泉中央駅→いぶき野→和泉府中駅前",
    "stop": "和泉中央駅",
    "passTime": "21:03",
    "vehicleType": "南海バス(車椅子・ベビーカー・ノンステップ)",
    "updateTime": "2026/07/20 21:05"
  },
  {
    "vehicleNum": "092974",
    "vehicleCd": "260",
    "vehicleCorpCd": "1",
    "running": true,
    "lat": 34.499694,
    "lon": 135.410083,
    "route": "和泉中央駅→寺田→泉大津駅前",
    "stop": "旭町",
    "passTime": "21:04",
    "vehicleType": "南海バス(車椅子・ベビーカー・ノンステップ)",
    "updateTime": "2026/07/20 21:05"
  },
  {
    "vehicleNum": "092977",
    "vehicleCd": "608",
    "vehicleCorpCd": "1",
    "running": true,
    "lat": 34.484,
    "lon": 135.425694,
    "route": "和泉中央駅→阪本→泉大津駅前",
    "stop": "府中町南",
    "passTime": "21:03",
    "vehicleType": "南海バス(車椅子・ベビーカー・ノンステップ)",
    "updateTime": "2026/07/20 21:05"
  },
  {
    "vehicleNum": "092976",
    "vehicleCd": "138",
    "vehicleCorpCd": "1",
    "running": true,
    "lat": 34.485194,
    "lon": 135.424889,
    "route": "泉大津駅前→和泉府中駅前→和泉中央駅",
    "stop": "和泉府中駅前",
    "passTime": "21:03",
    "vehicleType": "南海バス(車椅子・ベビーカー・ノンステップ)",
    "updateTime": "2026/07/20 21:05"
  },
  {
    "vehicleNum": "092978",
    "vehicleCd": "325",
    "vehicleCorpCd": "1",
    "running": true,
    "lat": 34.518778,
    "lon": 135.463,
    "route": "光明池駅→山田→堺東駅前",
    "stop": "石橋",
    "passTime": "21:05",
    "vehicleType": "南海バス(車椅子・ベビーカー・ノンステップ)",
    "updateTime": "2026/07/20 21:05"
  },
  {
    "vehicleNum": "093032",
    "vehicleCd": "231",
    "vehicleCorpCd": "1",
    "running": true,
    "lat": 34.437583,
    "lon": 135.231278,
    "route": "エアロプラザ→第２ターミナル(国内線・国際線)→エアロプラザ",
    "stop": "エアロプラザ",
    "passTime": "21:00",
    "vehicleType": "南海バス",
    "updateTime": "2026/07/20 21:05"
  },
  {
    "vehicleNum": "093035",
    "vehicleCd": "609",
    "vehicleCorpCd": "1",
    "running": true,
    "lat": 34.438889,
    "lon": 135.244694,
    "route": "エアロプラザ→第２ターミナル(国内線・国際線)→エアロプラザ",
    "stop": "第2ターミナル国際線",
    "passTime": "21:02",
    "vehicleType": "南海バス",
    "updateTime": "2026/07/20 21:05"
  }
]