[
  {
    "vehicleNum": "070103",
    "vehicleCd": "425",
    "vehicleCorpCd": "1",
    "running": true,
    "lat": 34.484083,
    "lon": 135.545083,
    "route": "金剛駅前→狭山ニュータウンセンター→泉ヶ丘駅",
    "stop": "狭山ニュータウンセンター",
    "passTime": "21:09",
    "vehicleType": "泉北コミュニティバス(車椅子・ベビーカー・ノンステップ)",
    "updateTime": "2026/07/23 21:09"
  },
  {
    "vehicleNum": "070101",
    "vehicleCd": "400",
    "vehicleCorpCd": "1",
    "running": true,
    "lat": 34.485583,
    "lon": 135.524278,
    "route": "泉ヶ丘駅→近畿大学病院前→泉ヶ丘駅",
    "stop": "茶山台南口",
    "passTime": "21:08",
    "vehicleType": "泉北コミュニティバス(車椅子・ベビーカー・ノンステップ)",
    "updateTime": "2026/07/23 21:09"
  },
  {
    "vehicleNum": "070107",
    "vehicleCd": "405",
    "vehicleCorpCd": "1",
    "running": true,
    "lat": 34.475694,
    "lon": 135.543778,
    "route": "泉ヶ丘駅→狭山ニュータウンセンター→金剛駅前",
    "stop": "南第二小学校前",
    "passTime": "21:07",
    "vehicleType": "泉北コミュニティバス(車椅子・ベビーカー・ノンステップ)",
    "updateTime": "2026/07/23 21:09"
  },
  {
    "vehicleNum": "080020",
    "vehicleCd": "374",
    "vehicleCorpCd": "1",
    "running": true,
    "lat": 34.497583,
    "lon": 135.582583,
    "route": "金剛駅前→高辺台小学校前→金剛駅前",
    "stop": "小金台２丁目",
    "passTime": "21:09",
    "vehicleType": "南海バス(車椅子・ベビーカー・ワンステップ)",
    "updateTime": "2026/07/23 21:09"
  },
  {
    "vehicleNum": "080105",
    "vehicleCd": "127",
    "vehicleCorpCd": "2",
    "running": true,
    "lat": 34.392083,
    "lon": 135.348,
    "route": "大阪体育大学前→熊取駅前",
    "stop": "山原",
    "passTime": "21:09",
    "vehicleType": "南海ウイングバス(車椅子・ベビーカー・ワンステップ)",
    "updateTime": "2026/07/23 21:09"
  },
  {
    "vehicleNum": "080322",
    "vehicleCd": "116",
    "vehicleCorpCd": "2",
    "running": true,
    "lat": 34.448083,
    "lon": 135.384278,
    "route": "岸和田駅前→天神山・一の宮循環　左回り→岸和田駅前",
    "stop": "土生",
    "passTime": "21:06",
    "vehicleType": "南海ウイングバス(車椅子・ワンステップ)",
    "updateTime": "2026/07/23 21:09"
  },
  {
    "vehicleNum": "080345",
    "vehicleCd": "121",
    "vehicleCorpCd": "2",
    "running": true,
    "lat": 34.403278,
    "lon": 135.362889,
    "route": "熊取駅前→熊取ニュータウン(フリー乗降)",
    "stop": "希望が丘中",
    "passTime": "21:09",
    "vehicleType": "南海ウイングバス",
    "updateTime": "2026/07/23 21:09"
  },
  {
    "vehicleNum": "080381",
    "vehicleCd": "88",
    "vehicleCorpCd": "1",
    "running": true,
    "lat": 34.631583,
    "lon": 135.429694,
    "route": "堺東駅前→フェリー→ＡＴＣ",
    "stop": "ポートタウン東",
    "passTime": "21:09",
    "vehicleType": "南海バス(車椅子・ワンステップ)",
    "updateTime": "2026/07/23 21:09"
  },
  {
    "vehicleNum": "080388",
    "vehicleCd": "52",
    "vehicleCorpCd": "2",
    "running": true,
    "lat": 34.398083,
    "lon": 135.368389,
    "route": "泉佐野駅前→泉陽ヶ丘→熊取駅前→山の手台→小谷→野田中央",
    "stop": "小谷",
    "passTime": "21:06",
    "vehicleType": "南海ウイングバス(車椅子・ベビーカー・ワンステップ)",
    "updateTime": "2026/07/23 21:09"
  },
  {
    "vehicleNum": "080628",
    "vehicleCd": "445",
    "vehicleCorpCd": "1",
    "running": true,
    "lat": 34.548,
    "lon": 135.542,
    "route": "地下鉄新金岡駅前→野遠→美原区役所",
    "stop": "菩提",
    "passTime": "21:09",
    "vehicleType": "南海バス(車椅子・ベビーカー・ノンステップ)",
    "updateTime": "2026/07/23 21:09"
  },
  {
    "vehicleNum": "080629",
    "vehicleCd": "447",
    "vehicleCorpCd": "1",
    "running": true,
    "lat": 34.558278,
    "lon": 135.533083,
    "route": "美原区役所→野遠→地下鉄新金岡駅前",
    "stop": "八下中学校前",
    "passTime": "21:08",
    "vehicleType": "南海バス(車椅子・ベビーカー・ノンステップ)",
    "updateTime": "2026/07/23 21:09"
  },
  {
    "vehicleNum": "080651",
    "vehicleCd": "455",
    "vehicleCorpCd": "1",
    "running": true,
    "lat": 34.544194,
    "lon": 135.533778,
    "route": "美原区役所→初芝駅前→美原区役所",
    "stop": "初芝東",
    "passTime": "21:09",
    "vehicleType": "南海バス",
    "updateTime": "2026/07/23 21:09"
  },
  {
    "vehicleNum": "080671",
    "vehicleCd": "465",
    "vehicleCorpCd": "1",
    "running": true,
    "lat": 34.585194,
    "lon": 135.492778,
    "route": "河内天美駅前→天美我堂→堺東駅前",
    "stop": "香ヶ丘",
    "passTime": "21:09",
    "vehicleType": "南海バス(車椅子・ベビーカー・ノンステップ)",
    "updateTime": "2026/07/23 21:09"
  },
  {
    "vehicleNum": "080670",
    "vehicleCd": "507",
    "vehicleCorpCd": "1",
    "running": true,
    "lat": 34.602389,
    "lon": 135.451778,
    "route": "堺東駅前→錦綾町→堺駅西口",
    "stop": "松屋大和川通",
    "passTime": "21:07",
    "vehicleType": "南海バス(車椅子・ベビーカー・ノンステップ)",
    "updateTime": "2026/07/23 21:09"
  },
  {
    "vehicleNum": "080652",
    "vehicleCd": "456",
    "vehicleCorpCd": "1",
    "running": true,
    "lat": 34.5285,
    "lon": 135.537083,
    "route": "北野田駅前→多治井北（循環）→北野田駅前",
    "stop": "登美丘東小学校前",
    "passTime": "21:08",
    "vehicleType": "南海バス",
    "updateTime": "2026/07/23 21:09"
  },
  {
    "vehicleNum": "080698",
    "vehicleCd": "531",
    "vehicleCorpCd": "1",
    "running": true,
    "lat": 34.551194,
    "lon": 135.516889,
    "route": "堺東駅前→白鷺駅前→堺東駅前（循環）",
    "stop": "金田新田",
    "passTime": "21:09",
    "vehicleType": "南海バス",
    "updateTime": "2026/07/23 21:09"
  },
  {
    "vehicleNum": "080706",
    "vehicleCd": "543",
    "vehicleCorpCd": "1",
    "running": true,
    "lat": 34.602389,
    "lon": 135.458889,
    "route": "匠町→住之江公園駅前→匠町",
    "stop": "松屋大和川通",
    "passTime": "21:08",
    "vehicleType": "南海バス(車椅子・ベビーカー・ノンステップ)",
    "updateTime": "2026/07/23 21:09"
  },
  {
    "vehicleNum": "080710",
    "vehicleCd": "18",
    "vehicleCorpCd": "2",
    "running": true,
    "lat": 34.461083,
    "lon": 135.392389,
    "route": "道の駅愛彩ランド→岸和田警察署前→岸和田駅前",
    "stop": "下松（市民病院南）",
    "passTime": "21:07",
    "vehicleType": "南海ウイングバス(車椅子・ベビーカー・ノンステップ)",
    "updateTime": "2026/07/23 21:09"
  },
  {
    "vehicleNum": "080708",
    "vehicleCd": "537",
    "vehicleCorpCd": "1",
    "running": true,
    "lat": 34.489389,
    "lon": 135.525778,
    "route": "泉ヶ丘駅→晴美台右回り→泉ヶ丘駅",
    "stop": "晴美台２丁",
    "passTime": "21:09",
    "vehicleType": "南海バス(車椅子・ベビーカー・ノンステップ)",
    "updateTime": "2026/07/23 21:09"
  },
  {
    "vehicleNum": "080744",
    "vehicleCd": "550",
    "vehicleCorpCd": "1",
    "running": true,
    "lat": 34.527083,
    "lon": 135.488472,
    "route": "泉ヶ丘駅→深阪→津久野駅前",
    "stop": "八田荘団地",
    "passTime": "21:09",
    "vehicleType": "南海バス(車椅子・ベビーカー・ノンステップ)",
    "updateTime": "2026/07/23 21:09"
  },
  {
    "vehicleNum": "080753",
    "vehicleCd": "552",
    "vehicleCorpCd": "1",
    "running": true,
    "lat": 34.4955,
    "lon": 135.560278,
    "route": "金剛駅前→向陽・藤沢回り→金剛駅前",
    "stop": "金剛駅前（東側）",
    "passTime": "21:09",
    "vehicleType": "南海バス(車椅子・ベビーカー・ノンステップ)",
    "updateTime": "2026/07/23 21:09"
  },
  {
    "vehicleNum": "080756",
    "vehicleCd": "315",
    "vehicleCorpCd": "1",
    "running": true,
    "lat": 34.519778,
    "lon": 135.4775,
    "route": "泉ヶ丘駅→泉北２号線→津久野駅前",
    "stop": "八田西団地",
    "passTime": "21:11",
    "vehicleType": "南海バス(車椅子・ベビーカー・ノンステップ)",
    "updateTime": "2026/07/23 21:09"
  },
  {
    "vehicleNum": "080764",
    "vehicleCd": "563",
    "vehicleCorpCd": "1",
    "running": true,
    "lat": 34.555583,
    "lon": 135.497194,
    "route": "北野田駅前→福町→堺駅南口",
    "stop": "中もず町",
    "passTime": "21:08",
    "vehicleType": "南海バス(車椅子・ベビーカー・ノンステップ)",
    "updateTime": "2026/07/23 21:09"
  },
  {
    "vehicleNum": "080765",
    "vehicleCd": "564",
    "vehicleCorpCd": "1",
    "running": true,
    "lat": 34.5245,
    "lon": 135.533083,
    "route": "北野田駅前→西口園→堺駅南口",
    "stop": "中大美野",
    "passTime": "21:09",
    "vehicleType": "南海バス(車椅子・ベビーカー・ノンステップ)",
    "updateTime": "2026/07/23 21:09"
  },
  {
    "vehicleNum": "080792",
    "vehicleCd": "302",
    "vehicleCorpCd": "1",
    "running": true,
    "lat": 34.575,
    "lon": 135.545694,
    "route": "河内松原駅前→阪和堺市駅前→堺駅前",
    "stop": "高見の里駅前",
    "passTime": "21:08",
    "vehicleType": "南海バス(車椅子・ベビーカー・ノンステップ)",
    "updateTime": "2026/07/23 21:09"
  },
  {
    "vehicleNum": "080796",
    "vehicleCd": "108",
    "vehicleCorpCd": "1",
    "running": true,
    "lat": 34.594889,
    "lon": 135.458583,
    "route": "【急行】海浜匠町→堺東駅前→阪和堺市駅前",
    "stop": "海浜匠町",
    "passTime": "21:00",
    "vehicleType": "南海バス(車椅子・ベビーカー・ノンステップ)",
    "updateTime": "2026/07/23 21:09"
  },
  {
    "vehicleNum": "080798",
    "vehicleCd": "107",
    "vehicleCorpCd": "1",
    "running": true,
    "lat": 34.567,
    "lon": 135.494389,
    "route": "堺駅南口→地下鉄新金岡駅前",
    "stop": "細池橋",
    "passTime": "21:06",
    "vehicleType": "南海バス(車椅子・ベビーカー・ノンステップ)",
    "updateTime": "2026/07/23 21:09"
  },
  {
    "vehicleNum": "080806",
    "vehicleCd": "307",
    "vehicleCorpCd": "1",
    "running": true,
    "lat": 34.574694,
    "lon": 135.5015,
    "route": "堺駅前→堺東駅前→河内松原駅前",
    "stop": "長尾町",
    "passTime": "21:09",
    "vehicleType": "南海バス(車椅子・ベビーカー・ノンステップ)",
    "updateTime": "2026/07/23 21:09"
  },
  {
    "vehicleNum": "080851",
    "vehicleCd": "439",
    "vehicleCorpCd": "1",
    "running": true,
    "lat": 34.495389,
    "lon": 135.559889,
    "route": "金剛駅前→寺池台小学校前→金剛駅前",
    "stop": "金剛駅前（東側）",
    "passTime": "21:09",
    "vehicleType": "南海バス(車椅子・ベビーカー・ノンステップ)",
    "updateTime": "2026/07/23 21:09"
  },
  {
    "vehicleNum": "080854",
    "vehicleCd": "17",
    "vehicleCorpCd": "1",
    "running": true,
    "lat": 34.575778,
    "lon": 135.479083,
    "route": "堺駅前→大小路→堺東駅前",
    "stop": "熊野小学校前",
    "passTime": "21:09",
    "vehicleType": "南海バス(車椅子・ベビーカー・ノンステップ)",
    "updateTime": "2026/07/23 21:09"
  },
  {
    "vehicleNum": "080857",
    "vehicleCd": "226",
    "vehicleCorpCd": "1",
    "running": true,
    "lat": 34.574278,
    "lon": 135.483,
    "route": "匠町→堺駅西口→堺東駅前→阪和堺市駅前",
    "stop": "堺東駅前",
    "passTime": "21:07",
    "vehicleType": "南海バス(車椅子・ベビーカー・ノンステップ)",
    "updateTime": "2026/07/23 21:09"
  },
  {
    "vehicleNum": "080856",
    "vehicleCd": "358",
    "vehicleCorpCd": "1",
    "running": true,
    "lat": 34.506278,
    "lon": 135.581694,
    "route": "金剛駅前→向陽・藤沢回り→金剛駅前",
    "stop": "向陽台２丁目",
    "passTime": "21:08",
    "vehicleType": "南海バス(車椅子・ベビーカー・ワンステップ)",
    "updateTime": "2026/07/23 21:09"
  },
  {
    "vehicleNum": "080855",
    "vehicleCd": "16",
    "vehicleCorpCd": "1",
    "running": true,
    "lat": 34.51,
    "lon": 135.497694,
    "route": "泉ヶ丘駅→宮山台左回り→泉ヶ丘駅",
    "stop": "宮山台４丁",
    "passTime": "21:09",
    "vehicleType": "南海バス(車椅子・ベビーカー・ノンステップ)",
    "updateTime": "2026/07/23 21:09"
  },
  {
    "vehicleNum": "080858",
    "vehicleCd": "225",
    "vehicleCorpCd": "1",
    "running": true,
    "lat": 34.567389,
    "lon": 135.478889,
    "route": "鳳駅前→堺東駅前",
    "stop": "大仙中町",
    "passTime": "21:08",
    "vehicleType": "南海バス(車椅子・ベビーカー・ノンステップ)",
    "updateTime": "2026/07/23 21:09"
  },
  {
    "vehicleNum": "080876",
    "vehicleCd": "390",
    "vehicleCorpCd": "1",
    "running": true,
    "lat": 34.521083,
    "lon": 135.511694,
    "route": "深井駅→東山車庫前→北野田駅前",
    "stop": "高山",
    "passTime": "21:09",
    "vehicleType": "南海バス(車椅子・ベビーカー・ノンステップ)",
    "updateTime": "2026/07/23 21:09"
  },
  {
    "vehicleNum": "080883",
    "vehicleCd": "361",
    "vehicleCorpCd": "1",
    "running": true,
    "lat": 34.516194,
    "lon": 135.4925,
    "route": "津久野駅前→堺市立総合医療センター前→八田荘団地→泉ヶ丘駅",
    "stop": "天の橋",
    "passTime": "21:07",
    "vehicleType": "南海バス(車椅子・ベビーカー・ノンステップ)",
    "updateTime": "2026/07/23 21:09"
  },
  {
    "vehicleNum": "080900",
    "vehicleCd": "386",
    "vehicleCorpCd": "1",
    "running": true,
    "lat": 34.589694,
    "lon": 135.4395,
    "route": "【急行】海浜匠町→堺駅西口",
    "stop": "海浜匠町",
    "passTime": "21:05",
    "vehicleType": "南海バス(車椅子・ベビーカー・ワンステップ)",
    "updateTime": "2026/07/23 21:09"
  },
  {
    "vehicleNum": "080911",
    "vehicleCd": "240",
    "vehicleCorpCd": "1",
    "running": true,
    "lat": 34.574694,
    "lon": 135.480694,
    "route": "【急行】海浜匠町→堺東駅前→阪和堺市駅前",
    "stop": "堺東駅前",
    "passTime": "21:10",
    "vehicleType": "南海バス(車椅子・ベビーカー・ノンステップ)",
    "updateTime": "2026/07/23 21:09"
  },
  {
    "vehicleNum": "080912",
    "vehicleCd": "372",
    "vehicleCorpCd": "1",
    "running": true,
    "lat": 34.576778,
    "lon": 135.495194,
    "route": "河内松原駅前→阪和堺市駅前→堺東駅前",
    "stop": "阪和堺市駅前",
    "passTime": "21:07",
    "vehicleType": "南海バス(車椅子・ベビーカー・ノンステップ)",
    "updateTime": "2026/07/23 21:09"
  },
  {
    "vehicleNum": "080920",
    "vehicleCd": "327",
    "vehicleCorpCd": "1",
    "running": true,
    "lat": 34.499,
    "lon": 135.5255,
    "route": "泉ヶ丘駅→スマ・エコタウン晴美台→高倉台左回り→泉ヶ丘駅",
    "stop": "三原台中学校前",
    "passTime": "21:09",
    "vehicleType": "南海バス(車椅子・ベビーカー・ノンステップ)",
    "updateTime": "2026/07/23 21:09"
  },
  {
    "vehicleNum": "080921",
    "vehicleCd": "143",
    "vehicleCorpCd": "1",
    "running": true,
    "lat": 34.502694,
    "lon": 135.498583,
    "route": "津久野駅前→堺市立総合医療センター前→泉北２号線→泉ヶ丘駅",
    "stop": "宮山台２丁",
    "passTime": "21:09",
    "vehicleType": "南海バス(車椅子・ベビーカー・ノンステップ)",
    "updateTime": "2026/07/23 21:09"
  },
  {
    "vehicleNum": "080927",
    "vehicleCd": "79",
    "vehicleCorpCd": "1",
    "running": true,
    "lat": 34.463083,
    "lon": 135.506389,
    "route": "栂・美木多駅→御池台回り→栂・美木多駅",
    "stop": "御池台４丁",
    "passTime": "21:09",
    "vehicleType": "南海バス(車椅子・ベビーカー・ノンステップ)",
    "updateTime": "2026/07/23 21:09"
  },
  {
    "vehicleNum": "080936",
    "vehicleCd": "22",
    "vehicleCorpCd": "1",
    "running": true,
    "lat": 34.477194,
    "lon": 135.491778,
    "route": "栂・美木多駅→御池台３丁",
    "stop": "原山台３丁",
    "passTime": "21:09",
    "vehicleType": "南海バス(車椅子・ベビーカー・ノンステップ)",
    "updateTime": "2026/07/23 21:09"
  },
  {
    "vehicleNum": "080958",
    "vehicleCd": "603",
    "vehicleCorpCd": "1",
    "running": true,
    "lat": 34.580083,
    "lon": 135.472278,
    "route": "ＡＴＣ→堺東駅前",
    "stop": "堺駅前",
    "passTime": "21:11",
    "vehicleType": "南海バス",
    "updateTime": "2026/07/23 21:09"
  },
  {
    "vehicleNum": "080999",
    "vehicleCd": "493",
    "vehicleCorpCd": "1",
    "running": true,
    "lat": 34.538083,
    "lon": 135.5435,
    "route": "初芝駅前→平尾・美原区役所前→中もず駅前",
    "stop": "北余部",
    "passTime": "21:08",
    "vehicleType": "南海バス(車椅子・ベビーカー・ノンステップ)",
    "updateTime": "2026/07/23 21:09"
  },
  {
    "vehicleNum": "081003",
    "vehicleCd": "610",
    "vehicleCorpCd": "1",
    "running": true,
    "lat": 34.569889,
    "lon": 135.480889,
    "route": "泉ヶ丘駅→宮山台中学校前→堺東駅前",
    "stop": "一条通",
    "passTime": "21:09",
    "vehicleType": "南海バス(車椅子・ベビーカー・ノンステップ)",
    "updateTime": "2026/07/23 21:09"
  },
  {
    "vehicleNum": "081004",
    "vehicleCd": "271",
    "vehicleCorpCd": "1",
    "running": true,
    "lat": 34.566389,
    "lon": 135.490889,
    "route": "堺駅南口→三国ヶ丘駅前→北野田駅前",
    "stop": "永山園",
    "passTime": "21:08",
    "vehicleType": "南海バス(車椅子・ベビーカー・ノンステップ)",
    "updateTime": "2026/07/23 21:09"
  },
  {
    "vehicleNum": "081005",
    "vehicleCd": "272",
    "vehicleCorpCd": "1",
    "running": true,
    "lat": 34.529694,
    "lon": 135.493889,
    "route": "津久野駅前→鈴の宮団地センター→深井駅",
    "stop": "八田荘団地",
    "passTime": "21:08",
    "vehicleType": "南海バス(車椅子・ベビーカー・ノンステップ)",
    "updateTime": "2026/07/23 21:09"
  },
  {
    "vehicleNum": "081013",
    "vehicleCd": "554",
    "vehicleCorpCd": "1",
    "running": true,
    "lat": 34.5085,
    "lon": 135.52,
    "route": "深井駅→田園→あみだ池",
    "stop": "辻之",
    "passTime": "21:08",
    "vehicleType": "南海バス(車椅子・ベビーカー・ノンステップ)",
    "updateTime": "2026/07/23 21:09"
  },
  {
    "vehicleNum": "081018",
    "vehicleCd": "263",
    "vehicleCorpCd": "1",
    "running": true,
    "lat": 34.53,
    "lon": 135.499389,
    "route": "北野田駅前→福町→深井駅",
    "stop": "畑山",
    "passTime": "21:07",
    "vehicleType": "南海バス(車椅子・ベビーカー・ノンステップ)",
    "updateTime": "2026/07/23 21:09"
  },
  {
    "vehicleNum": "081019",
    "vehicleCd": "267",
    "vehicleCorpCd": "1",
    "running": true,
    "lat": 34.5295,
    "lon": 135.500778,
    "route": "泉ヶ丘駅→田園→深井駅",
    "stop": "畑山",
    "passTime": "21:07",
    "vehicleType": "南海バス(車椅子・ベビーカー・ノンステップ)",
    "updateTime": "2026/07/23 21:09"
  },
  {
    "vehicleNum": "081021",
    "vehicleCd": "243",
    "vehicleCorpCd": "1",
    "running": true,
    "lat": 34.539083,
    "lon": 135.514694,
    "route": "堺駅南口→福町→北野田駅前",
    "stop": "新家町",
    "passTime": "21:09",
    "vehicleType": "南海バス(車椅子・ベビーカー・ノンステップ)",
    "updateTime": "2026/07/23 21:09"
  },
  {
    "vehicleNum": "081023",
    "vehicleCd": "264",
    "vehicleCorpCd": "1",
    "running": true,
    "lat": 34.534278,
    "lon": 135.563694,
    "route": "中もず駅前→初芝駅前→平尾",
    "stop": "船戸下",
    "passTime": "21:06",
    "vehicleType": "南海バス(車椅子・ベビーカー・ノンステップ)",
    "updateTime": "2026/07/23 21:09"
  },
  {
    "vehicleNum": "081037",
    "vehicleCd": "236",
    "vehicleCorpCd": "1",
    "running": true,
    "lat": 34.484583,
    "lon": 135.527194,
    "route": "泉ヶ丘駅→槙塚台左回り→泉ヶ丘駅",
    "stop": "槙塚台センター",
    "passTime": "21:08",
    "vehicleType": "南海バス(車椅子・ベビーカー・ノンステップ)",
    "updateTime": "2026/07/23 21:09"
  },
  {
    "vehicleNum": "081043",
    "vehicleCd": "612",
    "vehicleCorpCd": "1",
    "running": true,
    "lat": 34.485778,
    "lon": 135.496278,
    "route": "栂・美木多駅→原山台回り→栂・美木多駅",
    "stop": "原山台口",
    "passTime": "21:09",
    "vehicleType": "南海バス(車椅子・ベビーカー・ノンステップ)",
    "updateTime": "2026/07/23 21:10"
  },
  {
    "vehicleNum": "091107",
    "vehicleCd": "23",
    "vehicleCorpCd": "2",
    "running": true,
    "lat": 34.471583,
    "lon": 135.393694,
    "route": "和泉中央駅→荒木町→岸和田駅前",
    "stop": "荒木西",
    "passTime": "21:08",
    "vehicleType": "南海ウイングバス(車椅子・ワンステップ)",
    "updateTime": "2026/07/23 21:10"
  },
  {
    "vehicleNum": "091378",
    "vehicleCd": "135",
    "vehicleCorpCd": "2",
    "running": true,
    "lat": 34.326389,
    "lon": 135.217972,
    "route": "箱作駅前→桃の木台回り→箱作駅前",
    "stop": "桃の木台６丁目",
    "passTime": "21:09",
    "vehicleType": "南海ウイングバス(車椅子・ベビーカー・ノンステップ)",
    "updateTime": "2026/07/23 21:10"
  },
  {
    "vehicleNum": "091737",
    "vehicleCd": "48",
    "vehicleCorpCd": "2",
    "running": true,
    "lat": 34.410583,
    "lon": 135.3035,
    "route": "イオンモール→ポート→イオンモールりんくう泉南",
    "stop": "ゲートタワービル",
    "passTime": "21:05",
    "vehicleType": "南海ウイングバス(車椅子・ベビーカー・ワンステップ)",
    "updateTime": "2026/07/23 21:10"
  },
  {
    "vehicleNum": "091791",
    "vehicleCd": "206",
    "vehicleCorpCd": "1",
    "running": true,
    "lat": 34.434083,
    "lon": 135.232583,
    "route": "エアロプラザ→第２ターミナル(国内線・国際線)→エアロプラザ",
    "stop": "エアロプラザ",
    "passTime": "21:07",
    "vehicleType": "南海バス(車椅子・ノンステップ)",
    "updateTime": "2026/07/23 21:10"
  },
  {
    "vehicleNum": "092205",
    "vehicleCd": "25",
    "vehicleCorpCd": "1",
    "running": true,
    "lat": 34.441778,
    "lon": 135.577583,
    "route": "河内長野駅前→河合寺→小吹台",
    "stop": "大師町",
    "passTime": "21:09",
    "vehicleType": "南海バス(車椅子・ベビーカー・ノンステップ)",
    "updateTime": "2026/07/23 21:10"
  },
  {
    "vehicleNum": "092382",
    "vehicleCd": "556",
    "vehicleCorpCd": "1",
    "running": true,
    "lat": 34.460889,
    "lon": 135.456194,
    "route": "泉大津駅前→和泉中央駅→和泉青葉台",
    "stop": "和泉中央駅",
    "passTime": "21:10",
    "vehicleType": "南海バス(車椅子・ベビーカー・ノンステップ)",
    "updateTime": "2026/07/23 21:10"
  },
  {
    "vehicleNum": "092467",
    "vehicleCd": "50",
    "vehicleCorpCd": "1",
    "running": true,
    "lat": 34.434694,
    "lon": 135.579194,
    "route": "三日市町駅前→清見台回り→三日市町駅前",
    "stop": "近隣センター前",
    "passTime": "21:09",
    "vehicleType": "南海バス(車椅子・ベビーカー・ノンステップ)",
    "updateTime": "2026/07/23 21:10"
  },
  {
    "vehicleNum": "092482",
    "vehicleCd": "528",
    "vehicleCorpCd": "1",
    "running": true,
    "lat": 34.431583,
    "lon": 135.536694,
    "route": "長野→天野山→旭",
    "stop": "天野山",
    "passTime": "21:06",
    "vehicleType": "南海バス(車椅子・ベビーカー・ノンステップ)",
    "updateTime": "2026/07/23 21:10"
  },
  {
    "vehicleNum": "092483",
    "vehicleCd": "110",
    "vehicleCorpCd": "1",
    "running": true,
    "lat": 34.433278,
    "lon": 135.561278,
    "route": "三日市町駅前→南花台１丁目北→南ヶ丘",
    "stop": "南花台１丁目北",
    "passTime": "21:09",
    "vehicleType": "南海バス(車椅子・ベビーカー・ノンステップ)",
    "updateTime": "2026/07/23 21:10"
  },
  {
    "vehicleNum": "092534",
    "vehicleCd": "265",
    "vehicleCorpCd": "1",
    "running": true,
    "lat": 34.4735,
    "lon": 135.4775,
    "route": "光明池駅→城山台５丁→光明池車庫",
    "stop": "光明池駅",
    "passTime": "21:08",
    "vehicleType": "南海バス(車椅子・ベビーカー・ノンステップ)",
    "updateTime": "2026/07/23 21:10"
  },
  {
    "vehicleNum": "092578",
    "vehicleCd": "147",
    "vehicleCorpCd": "1",
    "running": true,
    "lat": 34.467389,
    "lon": 135.559083,
    "route": "千代田駅前→貴望ヶ丘",
    "stop": "南貴望ヶ丘",
    "passTime": "21:09",
    "vehicleType": "南海バス(車椅子・ベビーカー・ノンステップ)",
    "updateTime": "2026/07/23 21:10"
  },
  {
    "vehicleNum": "092620",
    "vehicleCd": "311",
    "vehicleCorpCd": "1",
    "running": true,
    "lat": 34.451083,
    "lon": 135.571583,
    "route": "河内長野市役所前→河内長野駅前",
    "stop": "ラブリーホール前",
    "passTime": "21:07",
    "vehicleType": "南海バス(車椅子・ベビーカー・ノンステップ)",
    "updateTime": "2026/07/23 21:10"
  },
  {
    "vehicleNum": "092711",
    "vehicleCd": "355",
    "vehicleCorpCd": "1",
    "running": true,
    "lat": 34.505889,
    "lon": 135.466278,
    "route": "堺東駅前→鳳駅前→光明池駅",
    "stop": "南山田",
    "passTime": "21:09",
    "vehicleType": "南海バス(車椅子・ベビーカー・ノンステップ)",
    "updateTime": "2026/07/23 21:10"
  },
  {
    "vehicleNum": "092696",
    "vehicleCd": "589",
    "vehicleCorpCd": "1",
    "running": true,
    "lat": 34.443778,
    "lon": 135.466694,
    "route": "和泉中央駅→和泉青葉台",
    "stop": "和泉青葉台中",
    "passTime": "21:09",
    "vehicleType": "南海バス(車椅子・ベビーカー・ノンステップ)",
    "updateTime": "2026/07/23 21:10"
  },
  {
    "vehicleNum": "092758",
    "vehicleCd": "363",
    "vehicleCorpCd": "1",
    "running": true,
    "lat": 34.414389,
    "lon": 135.5585,
    "route": "三日市町駅前→南花台１丁目北→大矢船西町",
    "stop": "大矢船南町",
    "passTime": "21:07",
    "vehicleType": "南海バス(車椅子・ベビーカー・ノンステップ)",
    "updateTime": "2026/07/23 21:10"
  },
  {
    "vehicleNum": "092762",
    "vehicleCd": "570",
    "vehicleCorpCd": "1",
    "running": true,
    "lat": 34.451389,
    "lon": 135.492083,
    "route": "光明池駅→城山台５丁→みずき台２丁目西",
    "stop": "光明台三丁目",
    "passTime": "21:09",
    "vehicleType": "南海バス(車椅子・ベビーカー・ノンステップ)",
    "updateTime": "2026/07/23 21:10"
  },
  {
    "vehicleNum": "092763",
    "vehicleCd": "520",
    "vehicleCorpCd": "1",
    "running": true,
    "lat": 34.4795,
    "lon": 135.423,
    "route": "泉大津駅前→和泉府中駅前→和泉中央駅",
    "stop": "柳田",
    "passTime": "21:09",
    "vehicleType": "南海バス(車椅子・ベビーカー・ノンステップ)",
    "updateTime": "2026/07/23 21:10"
  },
  {
    "vehicleNum": "092859",
    "vehicleCd": "32",
    "vehicleCorpCd": "1",
    "running": true,
    "lat": 34.457694,
    "lon": 135.5595,
    "route": "千代田駅前→赤峯→荘園町",
    "stop": "赤峰",
    "passTime": "21:10",
    "vehicleType": "南海バス(車椅子・ベビーカー・ノンステップ)",
    "updateTime": "2026/07/23 21:10"
  },
  {
    "vehicleNum": "092872",
    "vehicleCd": "500",
    "vehicleCorpCd": "1",
    "running": true,
    "lat": 34.533194,
    "lon": 135.463,
    "route": "栂・美木多駅→鳳駅前→堺東駅前",
    "stop": "鳳駅前",
    "passTime": "21:08",
    "vehicleType": "南海バス(車椅子・ベビーカー・ノンステップ)",
    "updateTime": "2026/07/23 21:10"
  },
  {
    "vehicleNum": "092915",
    "vehicleCd": "346",
    "vehicleCorpCd": "1",
    "running": true,
    "lat": 34.457889,
    "lon": 135.559583,
    "route": "千代田駅前→赤峯→緑ヶ丘北町",
    "stop": "赤峰",
    "passTime": "21:10",
    "vehicleType": "南海バス(車椅子・ベビーカー・ノンステップ)",
    "updateTime": "2026/07/23 21:10"
  },
  {
    "vehicleNum": "092918",
    "vehicleCd": "114",
    "vehicleCorpCd": "1",
    "running": true,
    "lat": 34.501083,
    "lon": 135.408278,
    "route": "光明池駅→光明池車庫→和泉中央駅→泉大津駅前",
    "stop": "旭町",
    "passTime": "21:09",
    "vehicleType": "南海バス(車椅子・ベビーカー・ノンステップ)",
    "updateTime": "2026/07/23 21:10"
  },
  {
    "vehicleNum": "092936",
    "vehicleCd": "322",
    "vehicleCorpCd": "1",
    "running": true,
    "lat": 34.426778,
    "lon": 135.230694,
    "route": "給油地区→空港駅",
    "stop": "第1輸出ビル前",
    "passTime": "21:09",
    "vehicleType": "南海バス(車椅子・ベビーカー・ノンステップ)",
    "updateTime": "2026/07/23 21:10"
  },
  {
    "vehicleNum": "092948",
    "vehicleCd": "606",
    "vehicleCorpCd": "1",
    "running": true,
    "lat": 34.493,
    "lon": 135.413778,
    "route": "泉大津駅前→和泉府中駅前→和泉中央駅",
    "stop": "池浦",
    "passTime": "21:08",
    "vehicleType": "南海バス(車椅子・ベビーカー・ノンステップ)",
    "updateTime": "2026/07/23 21:10"
  },
  {
    "vehicleNum": "092950",
    "vehicleCd": "257",
    "vehicleCorpCd": "1",
    "running": true,
    "lat": 34.446,
    "lon": 135.462194,
    "route": "和泉中央駅→はつが野六丁目→和泉中央駅",
    "stop": "はつが野二丁目",
    "passTime": "21:09",
    "vehicleType": "南海バス(車椅子・ベビーカー・ノンステップ)",
    "updateTime": "2026/07/23 21:10"
  },
  {
    "vehicleNum": "092952",
    "vehicleCd": "113",
    "vehicleCorpCd": "1",
    "running": true,
    "lat": 34.443778,
    "lon": 135.444889,
    "route": "和泉中央駅→テクノステージセンター前→直行→和泉中央駅",
    "stop": "大阪技術研前",
    "passTime": "21:09",
    "vehicleType": "南海バス(車椅子・ベビーカー・ノンステップ)",
    "updateTime": "2026/07/23 21:10"
  },
  {
    "vehicleNum": "092975",
    "vehicleCd": "115",
    "vehicleCorpCd": "1",
    "running": true,
    "lat": 34.529694,
    "lon": 135.462694,
    "route": "光明池駅→山田→堺東駅前",
    "stop": "長承寺",
    "passTime": "21:10",
    "vehicleType": "南海バス(車椅子・ベビーカー・ノンステップ)",
    "updateTime": "2026/07/23 21:10"
  },
  {
    "vehicleNum": "092977",
    "vehicleCd": "608",
    "vehicleCorpCd": "1",
    "running": true,
    "lat": 34.451778,
    "lon": 135.458889,
    "route": "和泉中央駅→のぞみ野南→美術館",
    "stop": "のぞみ野南",
    "passTime": "21:10",
    "vehicleType": "南海バス(車椅子・ベビーカー・ノンステップ)",
    "updateTime": "2026/07/23 21:10"
  },
  {
    "vehicleNum": "093032",
    "vehicleCd": "231",
    "vehicleCorpCd": "1",
    "running": true,
    "lat": 34.432889,
    "lon": 135.231583,
    "route": "エアロプラザ→第２ターミナル(国内線・国際線)→エアロプラザ",
    "stop": "第2ターミナル国際線",
    "passTime": "21:07",
    "vehicleType": "南海バス",
    "updateTime": "2026/07/23 21:10"
  },
  {
    "vehicleNum": "093046",
    "vehicleCd": "246",
    "vehicleCorpCd": "1",
    "running": true,
    "lat": 34.467583,
    "lon": 135.462278,
    "route": "和泉中央駅→阪本→泉大津駅前",
    "stop": "上中村",
    "passTime": "21:09",
    "vehicleType": "南海バス(車椅子・ベビーカー・ノンステップ)",
    "updateTime": "2026/07/23 21:10"
  },
  {
    "vehicleNum": "093114",
    "vehicleCd": "262",
    "vehicleCorpCd": "1",
    "running": true,
    "lat": 34.535694,
    "lon": 135.463389,
    "route": "堺東駅前→鳳駅前→栂・美木多駅",
    "stop": "鳳北口",
    "passTime": "21:09",
    "vehicleType": "南海バス(車椅子・ベビーカー・ノンステップ)",
    "updateTime": "2026/07/23 21:10"
  }
]