[
  {
    "vehicleNum": "070101",
    "vehicleCd": "400",
    "vehicleCorpCd": "1",
    "running": true,
    "lat": 34.485278,
    "lon": 135.530583,
    "route": "泉ヶ丘駅→狭山ニュータウンセンター→金剛駅前",
    "stop": "槙塚台３丁",
    "passTime": "09:44",
    "vehicleType": "泉北コミュニティバス(車椅子・ベビーカー・ノンステップ)",
    "updateTime": "2026/07/21 09:45"
  },
  {
    "vehicleNum": "070107",
    "vehicleCd": "405",
    "vehicleCorpCd": "1",
    "running": true,
    "lat": 34.498583,
    "lon": 135.553583,
    "route": "金剛駅前→泉ヶ丘駅→近大キャンパス前→金剛駅前",
    "stop": "近大おおさかメディカルキャンパス前",
    "passTime": "09:35",
    "vehicleType": "泉北コミュニティバス(車椅子・ベビーカー・ノンステップ)",
    "updateTime": "2026/07/21 09:45"
  },
  {
    "vehicleNum": "071604",
    "vehicleCd": "217",
    "vehicleCorpCd": "1",
    "running": true,
    "lat": 34.578083,
    "lon": 135.475389,
    "route": "堺駅前→大小路→堺東駅前",
    "stop": "大小路",
    "passTime": "09:43",
    "vehicleType": "堺シャトル(車椅子・ベビーカー・ノンステップ)",
    "updateTime": "2026/07/21 09:45"
  },
  {
    "vehicleNum": "071605",
    "vehicleCd": "412",
    "vehicleCorpCd": "1",
    "running": true,
    "lat": 34.581083,
    "lon": 135.470472,
    "route": "堺東駅前→大小路→堺駅前",
    "stop": "市小学校前",
    "passTime": "09:44",
    "vehicleType": "堺シャトル(車椅子・ベビーカー・ノンステップ)",
    "updateTime": "2026/07/21 09:45"
  },
  {
    "vehicleNum": "080134",
    "vehicleCd": "118",
    "vehicleCorpCd": "2",
    "running": true,
    "lat": 34.402889,
    "lon": 135.351583,
    "route": "熊取駅前→熊取ニュータウン(フリー乗降)",
    "stop": "北紺屋",
    "passTime": "09:42",
    "vehicleType": "南海ウイングバス(車椅子・ベビーカー・ワンステップ)",
    "updateTime": "2026/07/21 09:45"
  },
  {
    "vehicleNum": "080159",
    "vehicleCd": "145",
    "vehicleCorpCd": "1",
    "running": true,
    "lat": 34.541778,
    "lon": 135.476583,
    "route": "堺東駅前→堀上緑町１丁→堺東駅前",
    "stop": "神野",
    "passTime": "09:43",
    "vehicleType": "南海バス(車椅子・ベビーカー・ワンステップ)",
    "updateTime": "2026/07/21 09:45"
  },
  {
    "vehicleNum": "080187",
    "vehicleCd": "66",
    "vehicleCorpCd": "1",
    "running": true,
    "lat": 34.577389,
    "lon": 135.4975,
    "route": "河内松原駅前→阪和堺市駅前→堺東駅前",
    "stop": "阪和堺市駅筋",
    "passTime": "09:39",
    "vehicleType": "南海バス(車椅子・ベビーカー・ノンステップ)",
    "updateTime": "2026/07/21 09:45"
  },
  {
    "vehicleNum": "080191",
    "vehicleCd": "68",
    "vehicleCorpCd": "1",
    "running": true,
    "lat": 34.566389,
    "lon": 135.5015,
    "route": "堺駅南口→労災病院前→地下鉄新金岡駅前",
    "stop": "黒土口",
    "passTime": "09:44",
    "vehicleType": "南海バス(車椅子・ベビーカー・ワンステップ)",
    "updateTime": "2026/07/21 09:45"
  },
  {
    "vehicleNum": "080268",
    "vehicleCd": "114",
    "vehicleCorpCd": "2",
    "running": true,
    "lat": 34.407583,
    "lon": 135.326889,
    "route": "つばさが丘北口→大阪体育大学前→熊取駅前→ダンバラ公園前→泉佐野駅前",
    "stop": "泉佐野市役所前",
    "passTime": "09:43",
    "vehicleType": "南海ウイングバス(車椅子・ベビーカー・ノンステップ)",
    "updateTime": "2026/07/21 09:45"
  },
  {
    "vehicleNum": "080270",
    "vehicleCd": "86",
    "vehicleCorpCd": "2",
    "running": true,
    "lat": 34.337278,
    "lon": 135.217,
    "route": "箱作駅前→桃の木台回り→箱作駅前",
    "stop": "桃の木台１丁目",
    "passTime": "09:43",
    "vehicleType": "南海バス(車椅子・ワンステップ)",
    "updateTime": "2026/07/21 09:45"
  },
  {
    "vehicleNum": "080318",
    "vehicleCd": "83",
    "vehicleCorpCd": "1",
    "running": true,
    "lat": 34.601389,
    "lon": 135.462083,
    "route": "住之江公園駅前→匠町",
    "stop": "松屋大和川通",
    "passTime": "09:43",
    "vehicleType": "南海バス(車椅子・ベビーカー・ワンステップ)",
    "updateTime": "2026/07/21 09:45"
  },
  {
    "vehicleNum": "080315",
    "vehicleCd": "80",
    "vehicleCorpCd": "1",
    "running": true,
    "lat": 34.575583,
    "lon": 135.484194,
    "route": "海浜匠町→匠町→堺駅西口→堺東駅前→阪和堺市駅前",
    "stop": "堺東駅前",
    "passTime": "09:47",
    "vehicleType": "南海バス(車椅子・ベビーカー・ワンステップ)",
    "updateTime": "2026/07/21 09:45"
  },
  {
    "vehicleNum": "080381",
    "vehicleCd": "88",
    "vehicleCorpCd": "1",
    "running": true,
    "lat": 34.580083,
    "lon": 135.472278,
    "route": "堺東駅前→ＡＴＣ／フェリー→堺東駅前",
    "stop": "堺駅前",
    "passTime": "09:42",
    "vehicleType": "南海バス(車椅子・ワンステップ)",
    "updateTime": "2026/07/21 09:45"
  },
  {
    "vehicleNum": "080345",
    "vehicleCd": "121",
    "vehicleCorpCd": "2",
    "running": true,
    "lat": 34.4025,
    "lon": 135.352389,
    "route": "熊取ニュータウン→熊取駅前→上瓦屋町→泉佐野駅前（フリー乗降）",
    "stop": "熊取役場前",
    "passTime": "09:43",
    "vehicleType": "南海ウイングバス",
    "updateTime": "2026/07/21 09:45"
  },
  {
    "vehicleNum": "080483",
    "vehicleCd": "157",
    "vehicleCorpCd": "1",
    "running": true,
    "lat": 34.538083,
    "lon": 135.451778,
    "route": "堺市立総合医療センター前→鳳駅前→石津川駅前",
    "stop": "浜寺元町",
    "passTime": "09:44",
    "vehicleType": "南海バス(車椅子・ベビーカー・ノンステップ)",
    "updateTime": "2026/07/21 09:45"
  },
  {
    "vehicleNum": "080594",
    "vehicleCd": "437",
    "vehicleCorpCd": "1",
    "running": true,
    "lat": 34.554389,
    "lon": 135.541778,
    "route": "美原区役所→野遠→地下鉄新金岡駅前",
    "stop": "石原",
    "passTime": "09:43",
    "vehicleType": "南海バス(車椅子・ベビーカー・ノンステップ)",
    "updateTime": "2026/07/21 09:45"
  },
  {
    "vehicleNum": "080629",
    "vehicleCd": "447",
    "vehicleCorpCd": "1",
    "running": true,
    "lat": 34.559083,
    "lon": 135.529889,
    "route": "地下鉄新金岡駅前→野遠→美原区役所",
    "stop": "大泉緑地前",
    "passTime": "09:43",
    "vehicleType": "南海バス(車椅子・ベビーカー・ノンステップ)",
    "updateTime": "2026/07/21 09:45"
  },
  {
    "vehicleNum": "080644",
    "vehicleCd": "452",
    "vehicleCorpCd": "1",
    "running": true,
    "lat": 34.556278,
    "lon": 135.507583,
    "route": "初芝駅前→一条通→堺駅南口",
    "stop": "蟻ヶ池",
    "passTime": "09:41",
    "vehicleType": "南海バス(車椅子・ベビーカー・ノンステップ)",
    "updateTime": "2026/07/21 09:45"
  },
  {
    "vehicleNum": "080652",
    "vehicleCd": "456",
    "vehicleCorpCd": "1",
    "running": true,
    "lat": 34.545472,
    "lon": 135.555194,
    "route": "美原区役所→初芝駅前→美原区役所",
    "stop": "美原区役所前",
    "passTime": "09:38",
    "vehicleType": "南海バス",
    "updateTime": "2026/07/21 09:45"
  },
  {
    "vehicleNum": "080651",
    "vehicleCd": "455",
    "vehicleCorpCd": "1",
    "running": true,
    "lat": 34.556083,
    "lon": 135.541778,
    "route": "北野田駅前→菩提→地下鉄新金岡駅前",
    "stop": "石原",
    "passTime": "09:39",
    "vehicleType": "南海バス",
    "updateTime": "2026/07/21 09:45"
  },
  {
    "vehicleNum": "080671",
    "vehicleCd": "465",
    "vehicleCorpCd": "1",
    "running": true,
    "lat": 34.584389,
    "lon": 135.471778,
    "route": "阪和堺市駅前→堺東駅前→堺駅西口→匠町",
    "stop": "花田口",
    "passTime": "09:43",
    "vehicleType": "南海バス(車椅子・ベビーカー・ノンステップ)",
    "updateTime": "2026/07/21 09:45"
  },
  {
    "vehicleNum": "080670",
    "vehicleCd": "507",
    "vehicleCorpCd": "1",
    "running": true,
    "lat": 34.574889,
    "lon": 135.514972,
    "route": "阪和堺市駅前→労災病院前→近畿中央呼吸器センター前→堺駅南口",
    "stop": "蔵前西",
    "passTime": "09:41",
    "vehicleType": "南海バス(車椅子・ベビーカー・ノンステップ)",
    "updateTime": "2026/07/21 09:45"
  },
  {
    "vehicleNum": "080697",
    "vehicleCd": "461",
    "vehicleCorpCd": "1",
    "running": true,
    "lat": 34.585,
    "lon": 135.493778,
    "route": "河内天美駅前→天美我堂→堺東駅前",
    "stop": "愛泉学園前",
    "passTime": "09:43",
    "vehicleType": "南海バス",
    "updateTime": "2026/07/21 09:45"
  },
  {
    "vehicleNum": "080698",
    "vehicleCd": "531",
    "vehicleCorpCd": "1",
    "running": true,
    "lat": 34.599389,
    "lon": 135.468889,
    "route": "匠町→住之江公園駅前→匠町",
    "stop": "松屋大和川通３丁",
    "passTime": "09:44",
    "vehicleType": "南海バス",
    "updateTime": "2026/07/21 09:45"
  },
  {
    "vehicleNum": "080703",
    "vehicleCd": "219",
    "vehicleCorpCd": "1",
    "running": true,
    "lat": 34.584694,
    "lon": 135.496278,
    "route": "堺東駅前→錦綾町→河内天美駅前",
    "stop": "愛泉学園前",
    "passTime": "09:44",
    "vehicleType": "南海バス(車椅子・ベビーカー・ノンステップ)",
    "updateTime": "2026/07/21 09:45"
  },
  {
    "vehicleNum": "080706",
    "vehicleCd": "543",
    "vehicleCorpCd": "1",
    "running": true,
    "lat": 34.574889,
    "lon": 135.540083,
    "route": "河内松原駅前→阪和堺市駅前→堺駅前",
    "stop": "布忍駅筋",
    "passTime": "09:45",
    "vehicleType": "南海バス(車椅子・ベビーカー・ノンステップ)",
    "updateTime": "2026/07/21 09:45"
  },
  {
    "vehicleNum": "080707",
    "vehicleCd": "544",
    "vehicleCorpCd": "1",
    "running": true,
    "lat": 34.555889,
    "lon": 135.519278,
    "route": "堺東駅前→労災病院前→白鷺駅前（循環）",
    "stop": "金岡神社前",
    "passTime": "09:43",
    "vehicleType": "南海バス(車椅子・ベビーカー・ノンステップ)",
    "updateTime": "2026/07/21 09:45"
  },
  {
    "vehicleNum": "080741",
    "vehicleCd": "549",
    "vehicleCorpCd": "1",
    "running": true,
    "lat": 34.575194,
    "lon": 135.473194,
    "route": "堺駅南口→福町→北野田駅前",
    "stop": "大寺南門山之口前",
    "passTime": "09:43",
    "vehicleType": "南海バス(車椅子・ベビーカー・ノンステップ)",
    "updateTime": "2026/07/21 09:45"
  },
  {
    "vehicleNum": "080744",
    "vehicleCd": "550",
    "vehicleCorpCd": "1",
    "running": true,
    "lat": 34.475694,
    "lon": 135.492694,
    "route": "栂・美木多駅→庭代台右回り→泉ヶ丘駅",
    "stop": "原山台３丁",
    "passTime": "09:43",
    "vehicleType": "南海バス(車椅子・ベビーカー・ノンステップ)",
    "updateTime": "2026/07/21 09:45"
  },
  {
    "vehicleNum": "080745",
    "vehicleCd": "57",
    "vehicleCorpCd": "1",
    "running": true,
    "lat": 34.506278,
    "lon": 135.581889,
    "route": "金剛駅前→向陽・藤沢回り→金剛駅前",
    "stop": "向陽台２丁目",
    "passTime": "09:45",
    "vehicleType": "南海バス(車椅子・ベビーカー・ノンステップ)",
    "updateTime": "2026/07/21 09:45"
  },
  {
    "vehicleNum": "080747",
    "vehicleCd": "161",
    "vehicleCorpCd": "1",
    "running": true,
    "lat": 34.583,
    "lon": 135.515278,
    "route": "地下鉄北花田駅前→蔵前西→ＪＲ堺市駅前→地下鉄北花田駅前",
    "stop": "地下鉄北花田駅前",
    "passTime": "09:45",
    "vehicleType": "南海バス(車椅子・ベビーカー・ノンステップ)",
    "updateTime": "2026/07/21 09:45"
  },
  {
    "vehicleNum": "080751",
    "vehicleCd": "551",
    "vehicleCorpCd": "1",
    "running": true,
    "lat": 34.538278,
    "lon": 135.560778,
    "route": "美原区役所前→船戸下→初芝駅前→中もず駅前",
    "stop": "美原区役所前",
    "passTime": "09:43",
    "vehicleType": "南海バス(車椅子・ベビーカー・ノンステップ)",
    "updateTime": "2026/07/21 09:45"
  },
  {
    "vehicleNum": "080753",
    "vehicleCd": "552",
    "vehicleCorpCd": "1",
    "running": true,
    "lat": 34.485583,
    "lon": 135.503194,
    "route": "泉ヶ丘駅→鉢ヶ峯→泉ヶ丘駅",
    "stop": "南片蔵",
    "passTime": "09:44",
    "vehicleType": "南海バス(車椅子・ベビーカー・ノンステップ)",
    "updateTime": "2026/07/21 09:45"
  },
  {
    "vehicleNum": "080758",
    "vehicleCd": "511",
    "vehicleCorpCd": "1",
    "running": true,
    "lat": 34.485083,
    "lon": 135.524889,
    "route": "泉ヶ丘駅→晴美台右回り→泉ヶ丘駅",
    "stop": "槙塚台１丁",
    "passTime": "09:45",
    "vehicleType": "南海バス(車椅子・ベビーカー・ノンステップ)",
    "updateTime": "2026/07/21 09:45"
  },
  {
    "vehicleNum": "080763",
    "vehicleCd": "562",
    "vehicleCorpCd": "1",
    "running": true,
    "lat": 34.544889,
    "lon": 135.489278,
    "route": "中もず駅前→北条→深井駅→中老人福祉センター",
    "stop": "もず陵南町西",
    "passTime": "09:42",
    "vehicleType": "南海バス(車椅子・ベビーカー・ノンステップ)",
    "updateTime": "2026/07/21 09:45"
  },
  {
    "vehicleNum": "080762",
    "vehicleCd": "561",
    "vehicleCorpCd": "1",
    "running": true,
    "lat": 34.574778,
    "lon": 135.480694,
    "route": "河内松原駅前→阪和堺市駅前→堺駅前",
    "stop": "瓦町公園前",
    "passTime": "09:43",
    "vehicleType": "南海バス(車椅子・ベビーカー・ノンステップ)",
    "updateTime": "2026/07/21 09:45"
  },
  {
    "vehicleNum": "080767",
    "vehicleCd": "566",
    "vehicleCorpCd": "1",
    "running": true,
    "lat": 34.530083,
    "lon": 135.497583,
    "route": "北野田駅前→福町→深井駅→鳳駅前",
    "stop": "深井駅",
    "passTime": "09:44",
    "vehicleType": "南海バス(車椅子・ベビーカー・ノンステップ)",
    "updateTime": "2026/07/21 09:45"
  },
  {
    "vehicleNum": "080788",
    "vehicleCd": "299",
    "vehicleCorpCd": "1",
    "running": true,
    "lat": 34.574583,
    "lon": 135.484194,
    "route": "堺東駅前→錦綾町→堺駅西口",
    "stop": "堺東駅前",
    "passTime": "09:45",
    "vehicleType": "南海バス(車椅子・ベビーカー・ノンステップ)",
    "updateTime": "2026/07/21 09:45"
  },
  {
    "vehicleNum": "080791",
    "vehicleCd": "61",
    "vehicleCorpCd": "1",
    "running": true,
    "lat": 34.597194,
    "lon": 135.425278,
    "route": "海浜匠町→匠町→堺駅西口→堺東駅前→阪和堺市駅前",
    "stop": "海浜匠町",
    "passTime": "09:43",
    "vehicleType": "南海バス(車椅子・ベビーカー・ノンステップ)",
    "updateTime": "2026/07/21 09:45"
  },
  {
    "vehicleNum": "080794",
    "vehicleCd": "344",
    "vehicleCorpCd": "1",
    "running": true,
    "lat": 34.574194,
    "lon": 135.479083,
    "route": "堺駅前→堺駅南口",
    "stop": "堺東駅前",
    "passTime": "09:42",
    "vehicleType": "南海バス(車椅子・ベビーカー・ノンステップ)",
    "updateTime": "2026/07/21 09:45"
  },
  {
    "vehicleNum": "080793",
    "vehicleCd": "112",
    "vehicleCorpCd": "1",
    "running": true,
    "lat": 34.566889,
    "lon": 135.494472,
    "route": "地下鉄新金岡駅前→労災病院前→近畿中央呼吸器センター前→堺駅南口",
    "stop": "三国ヶ丘駅前",
    "passTime": "09:44",
    "vehicleType": "南海バス(車椅子・ベビーカー・ノンステップ)",
    "updateTime": "2026/07/21 09:45"
  },
  {
    "vehicleNum": "080795",
    "vehicleCd": "43",
    "vehicleCorpCd": "1",
    "running": true,
    "lat": 34.601778,
    "lon": 135.482278,
    "route": "堺東→住之江公園→堺東",
    "stop": "イオンモール堺鉄砲町",
    "passTime": "09:38",
    "vehicleType": "南海バス(車椅子・ベビーカー・ノンステップ)",
    "updateTime": "2026/07/21 09:45"
  },
  {
    "vehicleNum": "080796",
    "vehicleCd": "108",
    "vehicleCorpCd": "1",
    "running": true,
    "lat": 34.537972,
    "lon": 135.543778,
    "route": "美原区役所前→船戸下→初芝駅前→中もず駅前",
    "stop": "北余部",
    "passTime": "09:42",
    "vehicleType": "南海バス(車椅子・ベビーカー・ノンステップ)",
    "updateTime": "2026/07/21 09:45"
  },
  {
    "vehicleNum": "080799",
    "vehicleCd": "339",
    "vehicleCorpCd": "1",
    "running": true,
    "lat": 34.573778,
    "lon": 135.469694,
    "route": "堺駅南口→堺駅前",
    "stop": "寺地町",
    "passTime": "09:45",
    "vehicleType": "南海バス(車椅子・ベビーカー・ノンステップ)",
    "updateTime": "2026/07/21 09:45"
  },
  {
    "vehicleNum": "080815",
    "vehicleCd": "575",
    "vehicleCorpCd": "1",
    "running": true,
    "lat": 34.490778,
    "lon": 135.512389,
    "route": "泉ヶ丘駅→若松台左回り→泉ヶ丘駅",
    "stop": "茶山台",
    "passTime": "09:45",
    "vehicleType": "南海バス(車椅子・ベビーカー・ノンステップ)",
    "updateTime": "2026/07/21 09:45"
  },
  {
    "vehicleNum": "080825",
    "vehicleCd": "261",
    "vehicleCorpCd": "1",
    "running": true,
    "lat": 34.508,
    "lon": 135.513083,
    "route": "深井駅→田園→泉ヶ丘駅",
    "stop": "田園",
    "passTime": "09:43",
    "vehicleType": "南海バス(車椅子・ベビーカー・ノンステップ)",
    "updateTime": "2026/07/21 09:45"
  },
  {
    "vehicleNum": "080826",
    "vehicleCd": "152",
    "vehicleCorpCd": "1",
    "running": true,
    "lat": 34.509389,
    "lon": 135.532,
    "route": "堺東駅前→もず駅前→深井駅→あみだ池",
    "stop": "見野山",
    "passTime": "09:43",
    "vehicleType": "南海バス(車椅子・ベビーカー・ノンステップ)",
    "updateTime": "2026/07/21 09:45"
  },
  {
    "vehicleNum": "080822",
    "vehicleCd": "576",
    "vehicleCorpCd": "1",
    "running": true,
    "lat": 34.520389,
    "lon": 135.489278,
    "route": "堺東駅前→上野芝→泉ヶ丘駅",
    "stop": "小阪",
    "passTime": "09:44",
    "vehicleType": "南海バス(車椅子・ベビーカー・ノンステップ)",
    "updateTime": "2026/07/21 09:45"
  },
  {
    "vehicleNum": "080827",
    "vehicleCd": "317",
    "vehicleCorpCd": "1",
    "running": true,
    "lat": 34.554389,
    "lon": 135.5115,
    "route": "美原区役所前→船戸下→初芝駅前→中もず駅前",
    "stop": "蟻ヶ池",
    "passTime": "09:44",
    "vehicleType": "南海バス(車椅子・ベビーカー・ノンステップ)",
    "updateTime": "2026/07/21 09:45"
  },
  {
    "vehicleNum": "080836",
    "vehicleCd": "268",
    "vehicleCorpCd": "1",
    "running": true,
    "lat": 34.579,
    "lon": 135.466889,
    "route": "堺駅前→堺駅南口",
    "stop": "堺駅南口",
    "passTime": "09:45",
    "vehicleType": "南海バス(車椅子・ベビーカー・ノンステップ)",
    "updateTime": "2026/07/21 09:45"
  },
  {
    "vehicleNum": "080847",
    "vehicleCd": "583",
    "vehicleCorpCd": "1",
    "running": true,
    "lat": 34.536778,
    "lon": 135.470694,
    "route": "泉ヶ丘駅→泉北２号線→堺市立総合医療センター前→津久野駅前",
    "stop": "平岡西口",
    "passTime": "09:43",
    "vehicleType": "南海バス(車椅子・ベビーカー・ノンステップ)",
    "updateTime": "2026/07/21 09:45"
  },
  {
    "vehicleNum": "080851",
    "vehicleCd": "439",
    "vehicleCorpCd": "1",
    "running": true,
    "lat": 34.485583,
    "lon": 135.533194,
    "route": "金剛駅前→狭山ニュータウンセンター→泉ヶ丘駅",
    "stop": "槙塚台東",
    "passTime": "09:45",
    "vehicleType": "南海バス(車椅子・ベビーカー・ノンステップ)",
    "updateTime": "2026/07/21 09:45"
  },
  {
    "vehicleNum": "080850",
    "vehicleCd": "24",
    "vehicleCorpCd": "1",
    "running": true,
    "lat": 34.498194,
    "lon": 135.548,
    "route": "金剛駅前→帝塚山学院泉ヶ丘校前→泉ヶ丘駅前",
    "stop": "亀の甲",
    "passTime": "09:44",
    "vehicleType": "南海バス(車椅子・ベビーカー・ノンステップ)",
    "updateTime": "2026/07/21 09:45"
  },
  {
    "vehicleNum": "080852",
    "vehicleCd": "584",
    "vehicleCorpCd": "1",
    "running": true,
    "lat": 34.499694,
    "lon": 135.564278,
    "route": "金剛駅前→高辺台小学校前→金剛駅前",
    "stop": "久野喜台小学校前",
    "passTime": "09:45",
    "vehicleType": "南海バス(車椅子・ベビーカー・ノンステップ)",
    "updateTime": "2026/07/21 09:45"
  },
  {
    "vehicleNum": "080857",
    "vehicleCd": "226",
    "vehicleCorpCd": "1",
    "running": true,
    "lat": 34.575083,
    "lon": 135.528583,
    "route": "堺東駅前→河内松原駅前",
    "stop": "南花田町東",
    "passTime": "09:45",
    "vehicleType": "南海バス(車椅子・ベビーカー・ノンステップ)",
    "updateTime": "2026/07/21 09:45"
  },
  {
    "vehicleNum": "080859",
    "vehicleCd": "227",
    "vehicleCorpCd": "1",
    "running": true,
    "lat": 34.587278,
    "lon": 135.535778,
    "route": "河内天美駅前→天美我堂→堺東駅前",
    "stop": "河内天美駅前",
    "passTime": "09:45",
    "vehicleType": "南海バス(車椅子・ベビーカー・ノンステップ)",
    "updateTime": "2026/07/21 09:45"
  },
  {
    "vehicleNum": "080858",
    "vehicleCd": "225",
    "vehicleCorpCd": "1",
    "running": true,
    "lat": 34.548472,
    "lon": 135.520889,
    "route": "中もず駅前→初芝駅前→船戸下→美原区役所前",
    "stop": "金田新田",
    "passTime": "09:43",
    "vehicleType": "南海バス(車椅子・ベビーカー・ノンステップ)",
    "updateTime": "2026/07/21 09:45"
  },
  {
    "vehicleNum": "080867",
    "vehicleCd": "364",
    "vehicleCorpCd": "1",
    "running": true,
    "lat": 34.5005,
    "lon": 135.530278,
    "route": "泉ヶ丘駅→スマ・エコタウン晴美台→高倉台右回り→泉ヶ丘駅",
    "stop": "三原台４丁",
    "passTime": "09:43",
    "vehicleType": "南海バス(車椅子・ベビーカー・ノンステップ)",
    "updateTime": "2026/07/21 09:45"
  },
  {
    "vehicleNum": "080865",
    "vehicleCd": "504",
    "vehicleCorpCd": "1",
    "running": true,
    "lat": 34.578083,
    "lon": 135.4815,
    "route": "堺駅前→堺東駅前→河内松原駅前",
    "stop": "瓦町公園前",
    "passTime": "09:43",
    "vehicleType": "南海バス(車椅子・ベビーカー・ノンステップ)",
    "updateTime": "2026/07/21 09:45"
  },
  {
    "vehicleNum": "080870",
    "vehicleCd": "153",
    "vehicleCorpCd": "1",
    "running": true,
    "lat": 34.566583,
    "lon": 135.5015,
    "route": "堺東駅前→労災病院前→白鷺駅前（循環）",
    "stop": "黒土町",
    "passTime": "09:42",
    "vehicleType": "南海バス(車椅子・ベビーカー・ノンステップ)",
    "updateTime": "2026/07/21 09:45"
  },
  {
    "vehicleNum": "080875",
    "vehicleCd": "485",
    "vehicleCorpCd": "1",
    "running": true,
    "lat": 34.463694,
    "lon": 135.501583,
    "route": "栂・美木多駅→御池台回り→泉ヶ丘駅",
    "stop": "御池台センター",
    "passTime": "09:45",
    "vehicleType": "南海バス(車椅子・ベビーカー・ノンステップ)",
    "updateTime": "2026/07/21 09:45"
  },
  {
    "vehicleNum": "080878",
    "vehicleCd": "368",
    "vehicleCorpCd": "1",
    "running": true,
    "lat": 34.524889,
    "lon": 135.525583,
    "route": "堺駅南口→福町→北野田駅前",
    "stop": "下出口",
    "passTime": "09:44",
    "vehicleType": "南海バス(車椅子・ベビーカー・ノンステップ)",
    "updateTime": "2026/07/21 09:45"
  },
  {
    "vehicleNum": "080894",
    "vehicleCd": "350",
    "vehicleCorpCd": "1",
    "running": true,
    "lat": 34.544194,
    "lon": 135.530389,
    "route": "美原区役所→初芝駅前→美原区役所",
    "stop": "初芝中",
    "passTime": "09:44",
    "vehicleType": "南海バス(車椅子・ベビーカー・ノンステップ)",
    "updateTime": "2026/07/21 09:45"
  },
  {
    "vehicleNum": "080895",
    "vehicleCd": "167",
    "vehicleCorpCd": "1",
    "running": true,
    "lat": 34.546278,
    "lon": 135.560083,
    "route": "北野田駅前→多治井北（循環）→北野田駅前",
    "stop": "黒姫山古墳前",
    "passTime": "09:44",
    "vehicleType": "南海バス(車椅子・ベビーカー・ノンステップ)",
    "updateTime": "2026/07/21 09:45"
  },
  {
    "vehicleNum": "080904",
    "vehicleCd": "362",
    "vehicleCorpCd": "1",
    "running": true,
    "lat": 34.549389,
    "lon": 135.479,
    "route": "東山車庫前→小阪→堺東駅前",
    "stop": "上野芝駅前",
    "passTime": "09:43",
    "vehicleType": "南海バス(車椅子・ベビーカー・ノンステップ)",
    "updateTime": "2026/07/21 09:45"
  },
  {
    "vehicleNum": "080907",
    "vehicleCd": "499",
    "vehicleCorpCd": "1",
    "running": true,
    "lat": 34.516389,
    "lon": 135.492278,
    "route": "津久野駅前→堺市立総合医療センター前→八田荘団地→泉ヶ丘駅",
    "stop": "天の橋",
    "passTime": "09:44",
    "vehicleType": "南海バス(車椅子・ベビーカー・ノンステップ)",
    "updateTime": "2026/07/21 09:45"
  },
  {
    "vehicleNum": "080913",
    "vehicleCd": "128",
    "vehicleCorpCd": "1",
    "running": true,
    "lat": 34.564583,
    "lon": 135.463889,
    "route": "堺駅南口→堺駅前",
    "stop": "東湊電停前",
    "passTime": "09:44",
    "vehicleType": "南海バス(車椅子・ベビーカー・ノンステップ)",
    "updateTime": "2026/07/21 09:45"
  },
  {
    "vehicleNum": "080920",
    "vehicleCd": "327",
    "vehicleCorpCd": "1",
    "running": true,
    "lat": 34.487389,
    "lon": 135.542778,
    "route": "泉ヶ丘駅→狭山ニュータウンセンター→金剛駅前",
    "stop": "南第一小学校前",
    "passTime": "09:44",
    "vehicleType": "南海バス(車椅子・ベビーカー・ノンステップ)",
    "updateTime": "2026/07/21 09:45"
  },
  {
    "vehicleNum": "080917",
    "vehicleCd": "70",
    "vehicleCorpCd": "1",
    "running": true,
    "lat": 34.484583,
    "lon": 135.491278,
    "route": "栂・美木多駅→御池台回り→栂・美木多駅",
    "stop": "栂・美木多駅",
    "passTime": "09:45",
    "vehicleType": "南海バス(車椅子・ベビーカー・ノンステップ)",
    "updateTime": "2026/07/21 09:45"
  },
  {
    "vehicleNum": "080921",
    "vehicleCd": "143",
    "vehicleCorpCd": "1",
    "running": true,
    "lat": 34.485194,
    "lon": 135.530194,
    "route": "泉ヶ丘駅→槙塚台右回り→泉ヶ丘駅",
    "stop": "槙塚台３丁",
    "passTime": "09:45",
    "vehicleType": "南海バス(車椅子・ベビーカー・ノンステップ)",
    "updateTime": "2026/07/21 09:45"
  },
  {
    "vehicleNum": "080934",
    "vehicleCd": "594",
    "vehicleCorpCd": "1",
    "running": true,
    "lat": 34.59,
    "lon": 135.479083,
    "route": "堺駅西口→錦綾町→堺東駅前",
    "stop": "内川橋",
    "passTime": "09:44",
    "vehicleType": "南海バス(車椅子・ベビーカー・ノンステップ)",
    "updateTime": "2026/07/21 09:45"
  },
  {
    "vehicleNum": "080937",
    "vehicleCd": "595",
    "vehicleCorpCd": "1",
    "running": true,
    "lat": 34.549389,
    "lon": 135.507083,
    "route": "堺駅南口→三国ヶ丘駅前→北野田駅前",
    "stop": "府立大学前",
    "passTime": "09:45",
    "vehicleType": "南海バス(車椅子・ベビーカー・ノンステップ)",
    "updateTime": "2026/07/21 09:45"
  },
  {
    "vehicleNum": "080957",
    "vehicleCd": "34",
    "vehicleCorpCd": "1",
    "running": true,
    "lat": 34.616889,
    "lon": 135.435889,
    "route": "堺東駅前→ＡＴＣ→堺東駅前",
    "stop": "ポートタウン東",
    "passTime": "09:40",
    "vehicleType": "南海バス",
    "updateTime": "2026/07/21 09:45"
  },
  {
    "vehicleNum": "080956",
    "vehicleCd": "71",
    "vehicleCorpCd": "1",
    "running": true,
    "lat": 34.611583,
    "lon": 135.439194,
    "route": "堺東駅前→ＡＴＣ→海遊館→堺東駅前",
    "stop": "堺駅前",
    "passTime": "09:33",
    "vehicleType": "南海バス",
    "updateTime": "2026/07/21 09:45"
  },
  {
    "vehicleNum": "080967",
    "vehicleCd": "605",
    "vehicleCorpCd": "1",
    "running": true,
    "lat": 34.537694,
    "lon": 135.544778,
    "route": "初芝駅前→平尾→初芝駅前",
    "stop": "北余部",
    "passTime": "09:44",
    "vehicleType": "南海バス(車椅子・ベビーカー・ノンステップ)",
    "updateTime": "2026/07/21 09:45"
  },
  {
    "vehicleNum": "080989",
    "vehicleCd": "259",
    "vehicleCorpCd": "1",
    "running": true,
    "lat": 34.573889,
    "lon": 135.483694,
    "route": "堺東駅前→堀上緑町１丁→堺東駅前",
    "stop": "一条通",
    "passTime": "09:43",
    "vehicleType": "南海バス(車椅子・ベビーカー・ノンステップ)",
    "updateTime": "2026/07/21 09:45"
  },
  {
    "vehicleNum": "080994",
    "vehicleCd": "130",
    "vehicleCorpCd": "1",
    "running": true,
    "lat": 34.516778,
    "lon": 135.482,
    "route": "津久野駅前→堺市立総合医療センター前→泉北２号線→泉ヶ丘駅",
    "stop": "八田西町",
    "passTime": "09:45",
    "vehicleType": "南海バス(車椅子・ベビーカー・ノンステップ)",
    "updateTime": "2026/07/21 09:45"
  },
  {
    "vehicleNum": "080996",
    "vehicleCd": "191",
    "vehicleCorpCd": "1",
    "running": true,
    "lat": 34.536083,
    "lon": 135.554083,
    "route": "初芝駅前→平尾→初芝駅前",
    "stop": "農芸高校前",
    "passTime": "09:43",
    "vehicleType": "南海バス(車椅子・ベビーカー・ノンステップ)",
    "updateTime": "2026/07/21 09:45"
  },
  {
    "vehicleNum": "080999",
    "vehicleCd": "493",
    "vehicleCorpCd": "1",
    "running": true,
    "lat": 34.565194,
    "lon": 135.492083,
    "route": "北野田駅前→西口園→堺駅南口",
    "stop": "三国ヶ丘駅前",
    "passTime": "09:44",
    "vehicleType": "南海バス(車椅子・ベビーカー・ノンステップ)",
    "updateTime": "2026/07/21 09:45"
  },
  {
    "vehicleNum": "081003",
    "vehicleCd": "610",
    "vehicleCorpCd": "1",
    "running": true,
    "lat": 34.552389,
    "lon": 135.503583,
    "route": "北野田駅前→福町→堺駅南口",
    "stop": "府立大学前",
    "passTime": "09:41",
    "vehicleType": "南海バス(車椅子・ベビーカー・ノンステップ)",
    "updateTime": "2026/07/21 09:45"
  },
  {
    "vehicleNum": "081005",
    "vehicleCd": "272",
    "vehicleCorpCd": "1",
    "running": true,
    "lat": 34.554583,
    "lon": 135.469389,
    "route": "堺東駅前→上野芝駅前→東山車庫前",
    "stop": "南陵通１丁",
    "passTime": "09:45",
    "vehicleType": "南海バス(車椅子・ベビーカー・ノンステップ)",
    "updateTime": "2026/07/21 09:45"
  },
  {
    "vehicleNum": "081006",
    "vehicleCd": "54",
    "vehicleCorpCd": "1",
    "running": true,
    "lat": 34.521278,
    "lon": 135.488889,
    "route": "泉ヶ丘駅→宮山台中学校前→堺東駅前",
    "stop": "小阪",
    "passTime": "09:44",
    "vehicleType": "南海バス(車椅子・ベビーカー・ノンステップ)",
    "updateTime": "2026/07/21 09:45"
  },
  {
    "vehicleNum": "081008",
    "vehicleCd": "47",
    "vehicleCorpCd": "1",
    "running": true,
    "lat": 34.523,
    "lon": 135.5375,
    "route": "北野田駅前→西口園→堺駅南口",
    "stop": "大美野噴水前",
    "passTime": "09:44",
    "vehicleType": "南海バス(車椅子・ベビーカー・ノンステップ)",
    "updateTime": "2026/07/21 09:45"
  },
  {
    "vehicleNum": "081013",
    "vehicleCd": "554",
    "vehicleCorpCd": "1",
    "running": true,
    "lat": 34.522694,
    "lon": 135.542889,
    "route": "北野田駅前→福町→深井駅",
    "stop": "北野田駅前",
    "passTime": "09:45",
    "vehicleType": "南海バス(車椅子・ベビーカー・ノンステップ)",
    "updateTime": "2026/07/21 09:45"
  },
  {
    "vehicleNum": "081014",
    "vehicleCd": "229",
    "vehicleCorpCd": "1",
    "running": true,
    "lat": 34.541778,
    "lon": 135.468389,
    "route": "深井駅→鈴の宮団地→堺市立総合医療センター前→津久野駅前",
    "stop": "堺市立総合医療センター前",
    "passTime": "09:42",
    "vehicleType": "南海バス(車椅子・ベビーカー・ノンステップ)",
    "updateTime": "2026/07/21 09:45"
  },
  {
    "vehicleNum": "081017",
    "vehicleCd": "135",
    "vehicleCorpCd": "1",
    "running": true,
    "lat": 34.482778,
    "lon": 135.496,
    "route": "栂・美木多駅→原山台回り→栂・美木多駅",
    "stop": "原山台中学校前",
    "passTime": "09:45",
    "vehicleType": "南海バス(車椅子・ベビーカー・ノンステップ)",
    "updateTime": "2026/07/21 09:45"
  },
  {
    "vehicleNum": "081020",
    "vehicleCd": "163",
    "vehicleCorpCd": "1",
    "running": true,
    "lat": 34.505778,
    "lon": 135.513778,
    "route": "泉ヶ丘駅→田園→深井駅",
    "stop": "三原台北",
    "passTime": "09:43",
    "vehicleType": "南海バス(車椅子・ベビーカー・ノンステップ)",
    "updateTime": "2026/07/21 09:45"
  },
  {
    "vehicleNum": "081018",
    "vehicleCd": "263",
    "vehicleCorpCd": "1",
    "running": true,
    "lat": 34.567778,
    "lon": 135.479194,
    "route": "あみだ池→深井駅→もず駅前→堺東駅前",
    "stop": "賑町",
    "passTime": "09:45",
    "vehicleType": "南海バス(車椅子・ベビーカー・ノンステップ)",
    "updateTime": "2026/07/21 09:45"
  },
  {
    "vehicleNum": "081034",
    "vehicleCd": "120",
    "vehicleCorpCd": "1",
    "running": true,
    "lat": 34.492583,
    "lon": 135.543583,
    "route": "金剛駅前→狭山ニュータウンセンター→泉ヶ丘駅",
    "stop": "今熊",
    "passTime": "09:45",
    "vehicleType": "南海バス(車椅子・ベビーカー・ノンステップ)",
    "updateTime": "2026/07/21 09:45"
  },
  {
    "vehicleNum": "081035",
    "vehicleCd": "491",
    "vehicleCorpCd": "1",
    "running": true,
    "lat": 34.518,
    "lon": 135.491,
    "route": "泉ヶ丘駅→八田荘団地→堺市立総合医療センター前→津久野駅前",
    "stop": "天の橋",
    "passTime": "09:43",
    "vehicleType": "南海バス(車椅子・ベビーカー・ノンステップ)",
    "updateTime": "2026/07/21 09:45"
  },
  {
    "vehicleNum": "081041",
    "vehicleCd": "611",
    "vehicleCorpCd": "1",
    "running": true,
    "lat": 34.485583,
    "lon": 135.532083,
    "route": "泉ヶ丘駅→帝塚山学院泉ヶ丘校前→金剛駅前",
    "stop": "槙塚台３丁",
    "passTime": "09:43",
    "vehicleType": "南海バス(車椅子・ベビーカー・ノンステップ)",
    "updateTime": "2026/07/21 09:45"
  },
  {
    "vehicleNum": "081044",
    "vehicleCd": "132",
    "vehicleCorpCd": "1",
    "running": true,
    "lat": 34.541583,
    "lon": 135.469,
    "route": "津久野駅前→堺市立総合医療センター前→八田荘団地→泉ヶ丘駅",
    "stop": "津久野駅前",
    "passTime": "09:45",
    "vehicleType": "南海バス(車椅子・ベビーカー・ノンステップ)",
    "updateTime": "2026/07/21 09:45"
  },
  {
    "vehicleNum": "090103",
    "vehicleCd": "49",
    "vehicleCorpCd": "2",
    "running": true,
    "lat": 34.462,
    "lon": 135.444083,
    "route": "和泉中央駅→市民病院前→岸和田駅前",
    "stop": "箕形",
    "passTime": "09:45",
    "vehicleType": "南海ウイングバス(車椅子・ベビーカー・ワンステップ)",
    "updateTime": "2026/07/21 09:45"
  },
  {
    "vehicleNum": "090144",
    "vehicleCd": "82",
    "vehicleCorpCd": "2",
    "running": true,
    "lat": 34.456278,
    "lon": 135.398583,
    "route": "道の駅愛彩ランド→下松駅前",
    "stop": "桜ヶ丘",
    "passTime": "09:43",
    "vehicleType": "南海ウイングバス(車椅子・ベビーカー・ワンステップ)",
    "updateTime": "2026/07/21 09:45"
  },
  {
    "vehicleNum": "090176",
    "vehicleCd": "101",
    "vehicleCorpCd": "2",
    "running": true,
    "lat": 34.411194,
    "lon": 135.300389,
    "route": "関西エアポートワシントンホテル→イオンりんくう",
    "stop": "ゲートタワービル",
    "passTime": "09:45",
    "vehicleType": "南海ウイングバス",
    "updateTime": "2026/07/21 09:45"
  },
  {
    "vehicleNum": "090170",
    "vehicleCd": "117",
    "vehicleCorpCd": "2",
    "running": true,
    "lat": 34.467778,
    "lon": 135.381194,
    "route": "岸和田駅前→徳洲会病院→和泉中央駅",
    "stop": "和泉大宮駅前通",
    "passTime": "09:45",
    "vehicleType": "南海ウイングバス",
    "updateTime": "2026/07/21 09:45"
  },
  {
    "vehicleNum": "090331",
    "vehicleCd": "197",
    "vehicleCorpCd": "1",
    "running": true,
    "lat": 34.425389,
    "lon": 135.228694,
    "route": "給油地区→空港駅",
    "stop": "第2代理店ビル前",
    "passTime": "09:45",
    "vehicleType": "南海バス(車椅子・ベビーカー・ワンステップ)",
    "updateTime": "2026/07/21 09:45"
  },
  {
    "vehicleNum": "090279",
    "vehicleCd": "16",
    "vehicleCorpCd": "2",
    "running": true,
    "lat": 34.403278,
    "lon": 135.344083,
    "route": "熊取町　青葉台方面循環コース",
    "stop": "青年会場前",
    "passTime": "09:43",
    "vehicleType": "南海ウイングバス(車椅子)",
    "updateTime": "2026/07/21 09:45"
  },
  {
    "vehicleNum": "090766",
    "vehicleCd": "137",
    "vehicleCorpCd": "2",
    "running": true,
    "lat": 34.394194,
    "lon": 135.346889,
    "route": "泉佐野駅前→ダンバラ公園前→熊取駅前→大阪体育大学前→つばさが丘北口",
    "stop": "中ノ池北",
    "passTime": "09:45",
    "vehicleType": "南海ウイングバス(車椅子・ワンステップ)",
    "updateTime": "2026/07/21 09:45"
  },
  {
    "vehicleNum": "091147",
    "vehicleCd": "255",
    "vehicleCorpCd": "1",
    "running": true,
    "lat": 34.505278,
    "lon": 135.449,
    "route": "北信太駅筋→鶴山台団地→北信太駅筋",
    "stop": "信太中学校前",
    "passTime": "09:44",
    "vehicleType": "南海バス(車椅子・ベビーカー・ワンステップ)",
    "updateTime": "2026/07/21 09:45"
  },
  {
    "vehicleNum": "091186",
    "vehicleCd": "106",
    "vehicleCorpCd": "2",
    "running": true,
    "lat": 34.458778,
    "lon": 135.419194,
    "route": "岸和田駅前→内畑→白原車庫",
    "stop": "田治米",
    "passTime": "09:44",
    "vehicleType": "南海ウイングバス(車椅子・ベビーカー・ワンステップ)",
    "updateTime": "2026/07/21 09:45"
  },
  {
    "vehicleNum": "091445",
    "vehicleCd": "426",
    "vehicleCorpCd": "1",
    "running": true,
    "lat": 34.447,
    "lon": 135.549278,
    "route": "千代→緑→小山田→千代",
    "stop": "東峯口",
    "passTime": "09:45",
    "vehicleType": "南海バス(車椅子・ベビーカー・ノンステップ)",
    "updateTime": "2026/07/21 09:45"
  },
  {
    "vehicleNum": "091580",
    "vehicleCd": "85",
    "vehicleCorpCd": "2",
    "running": true,
    "lat": 34.346389,
    "lon": 135.285583,
    "route": "泉南市コミュニティバス 山回り",
    "stop": "中六尾",
    "passTime": "09:45",
    "vehicleType": "南海ウイングバス(車椅子・ベビーカー・ノンステップ)",
    "updateTime": "2026/07/21 09:45"
  },
  {
    "vehicleNum": "091581",
    "vehicleCd": "198",
    "vehicleCorpCd": "1",
    "running": true,
    "lat": 34.425194,
    "lon": 135.230694,
    "route": "空港駅→ＦｅｄＥｘ→給油地区",
    "stop": "JAL輸出ビル前",
    "passTime": "09:45",
    "vehicleType": "南海バス(車椅子・ノンステップ)",
    "updateTime": "2026/07/21 09:45"
  },
  {
    "vehicleNum": "091595",
    "vehicleCd": "199",
    "vehicleCorpCd": "1",
    "running": true,
    "lat": 34.436,
    "lon": 135.244778,
    "route": "ポートターミナル→第２ターミナル",
    "stop": "ポートターミナル",
    "passTime": "09:39",
    "vehicleType": "南海バス(車椅子・ノンステップ)",
    "updateTime": "2026/07/21 09:45"
  },
  {
    "vehicleNum": "091736",
    "vehicleCd": "65",
    "vehicleCorpCd": "2",
    "running": true,
    "lat": 34.395389,
    "lon": 135.360083,
    "route": "泉佐野駅前→泉陽ヶ丘→熊取駅前→山の手台→小谷→熊取駅前→泉陽ヶ丘→泉佐野駅前",
    "stop": "山の手台口",
    "passTime": "09:45",
    "vehicleType": "南海ウイングバス(車椅子・ワンステップ)",
    "updateTime": "2026/07/21 09:45"
  },
  {
    "vehicleNum": "091744",
    "vehicleCd": "148",
    "vehicleCorpCd": "2",
    "running": true,
    "lat": 34.448694,
    "lon": 135.385694,
    "route": "岸和田駅前→天神山・一の宮循環　左回り→岸和田駅前",
    "stop": "東岸和田駅前",
    "passTime": "09:45",
    "vehicleType": "南海ウイングバス(車椅子・ベビーカー・ワンステップ)",
    "updateTime": "2026/07/21 09:45"
  },
  {
    "vehicleNum": "091785",
    "vehicleCd": "120",
    "vehicleCorpCd": "2",
    "running": true,
    "lat": 34.390194,
    "lon": 135.372694,
    "route": "熊取町　つばさが丘循環コース",
    "stop": "ひまわりドーム前",
    "passTime": "09:44",
    "vehicleType": "熊取町コミュニティバス(メジーナちゃん号)",
    "updateTime": "2026/07/21 09:45"
  },
  {
    "vehicleNum": "091739",
    "vehicleCd": "147",
    "vehicleCorpCd": "2",
    "running": true,
    "lat": 34.424583,
    "lon": 135.438778,
    "route": "白原車庫→内畑→岸和田駅前",
    "stop": "下出口",
    "passTime": "09:44",
    "vehicleType": "南海ウイングバス(車椅子・ベビーカー・ワンステップ)",
    "updateTime": "2026/07/21 09:45"
  },
  {
    "vehicleNum": "091895",
    "vehicleCd": "4",
    "vehicleCorpCd": "2",
    "running": true,
    "lat": 34.363,
    "lon": 135.277389,
    "route": "泉南市コミュニティバス 一丘Ａ回り",
    "stop": "砂川駅前通り",
    "passTime": "09:45",
    "vehicleType": "泉南市コミュニティバス(ピンク)",
    "updateTime": "2026/07/21 09:45"
  },
  {
    "vehicleNum": "091894",
    "vehicleCd": "3",
    "vehicleCorpCd": "2",
    "running": true,
    "lat": 34.3605,
    "lon": 135.302778,
    "route": "泉南市コミュニティバス 新家回り",
    "stop": "新家上村",
    "passTime": "09:43",
    "vehicleType": "泉南市コミュニティバス(紫)",
    "updateTime": "2026/07/21 09:45"
  },
  {
    "vehicleNum": "092045",
    "vehicleCd": "463",
    "vehicleCorpCd": "1",
    "running": true,
    "lat": 34.451889,
    "lon": 135.569583,
    "route": "ﾓｯｸﾙ 美加～木戸東町～美加",
    "stop": "ラブリーホール前",
    "passTime": "09:43",
    "vehicleType": "南海バス(車椅子・ベビーカー・ノンステップ)",
    "updateTime": "2026/07/21 09:45"
  },
  {
    "vehicleNum": "092046",
    "vehicleCd": "464",
    "vehicleCorpCd": "1",
    "running": true,
    "lat": 34.454278,
    "lon": 135.562889,
    "route": "ﾓｯｸﾙ 美加～木戸東町～美加",
    "stop": "河内長野警察署前",
    "passTime": "09:43",
    "vehicleType": "南海バス(車椅子・ベビーカー・ノンステップ)",
    "updateTime": "2026/07/21 09:45"
  },
  {
    "vehicleNum": "092135",
    "vehicleCd": "525",
    "vehicleCorpCd": "1",
    "running": true,
    "lat": 34.432472,
    "lon": 135.232,
    "route": "エアロプラザ→第２ターミナル(国内線・国際線)→エアロプラザ",
    "stop": "第2ターミナル国際線",
    "passTime": "09:43",
    "vehicleType": "南海バス",
    "updateTime": "2026/07/21 09:45"
  },
  {
    "vehicleNum": "092141",
    "vehicleCd": "527",
    "vehicleCorpCd": "1",
    "running": true,
    "lat": 34.638694,
    "lon": 135.415583,
    "route": "堺東駅前→ＡＴＣ→堺東駅前",
    "stop": "コスモタワー",
    "passTime": "09:44",
    "vehicleType": "南海バス",
    "updateTime": "2026/07/21 09:45"
  },
  {
    "vehicleNum": "092153",
    "vehicleCd": "529",
    "vehicleCorpCd": "1",
    "running": true,
    "lat": 34.434583,
    "lon": 135.238778,
    "route": "エアロプラザ→第２ターミナル(国内線・国際線)→エアロプラザ",
    "stop": "エアロプラザ",
    "passTime": "09:44",
    "vehicleType": "南海バス",
    "updateTime": "2026/07/21 09:45"
  },
  {
    "vehicleNum": "092382",
    "vehicleCd": "556",
    "vehicleCorpCd": "1",
    "running": true,
    "lat": 34.466389,
    "lon": 135.448583,
    "route": "和泉府中駅前→玄関→和泉中央駅→ららぽｰと和泉前",
    "stop": "いぶき野一丁目",
    "passTime": "09:45",
    "vehicleType": "南海バス(車椅子・ベビーカー・ノンステップ)",
    "updateTime": "2026/07/21 09:45"
  },
  {
    "vehicleNum": "092384",
    "vehicleCd": "558",
    "vehicleCorpCd": "1",
    "running": true,
    "lat": 34.5495,
    "lon": 135.464083,
    "route": "堺東駅前→鳳駅前→光明池駅",
    "stop": "神石市之町",
    "passTime": "09:44",
    "vehicleType": "南海バス(車椅子・ベビーカー・ノンステップ)",
    "updateTime": "2026/07/21 09:45"
  },
  {
    "vehicleNum": "092454",
    "vehicleCd": "125",
    "vehicleCorpCd": "2",
    "running": true,
    "lat": 34.388583,
    "lon": 135.279694,
    "route": "泉南市コミュニティバス 岡田A回り",
    "stop": "北出渚前",
    "passTime": "09:45",
    "vehicleType": "泉南市コミュニティバス(橙)",
    "updateTime": "2026/07/21 09:45"
  },
  {
    "vehicleNum": "092470",
    "vehicleCd": "105",
    "vehicleCorpCd": "1",
    "running": true,
    "lat": 34.407889,
    "lon": 135.658694,
    "route": "金剛山ﾛｰﾌﾟｳｪｲ前→日東町東口→河内長野駅前",
    "stop": "金剛山（伏見峠口）",
    "passTime": "09:44",
    "vehicleType": "南海バス(車椅子・ベビーカー・ノンステップ)",
    "updateTime": "2026/07/21 09:45"
  },
  {
    "vehicleNum": "092482",
    "vehicleCd": "528",
    "vehicleCorpCd": "1",
    "running": true,
    "lat": 34.4165,
    "lon": 135.568583,
    "route": "三日市町駅前→南青葉台→三日市町駅前",
    "stop": "南青葉台口",
    "passTime": "09:45",
    "vehicleType": "南海バス(車椅子・ベビーカー・ノンステップ)",
    "updateTime": "2026/07/21 09:45"
  },
  {
    "vehicleNum": "092483",
    "vehicleCd": "110",
    "vehicleCorpCd": "1",
    "running": true,
    "lat": 34.450778,
    "lon": 135.572389,
    "route": "旭→天野山→長野",
    "stop": "西代町南",
    "passTime": "09:29",
    "vehicleType": "南海バス(車椅子・ベビーカー・ノンステップ)",
    "updateTime": "2026/07/21 09:45"
  },
  {
    "vehicleNum": "092503",
    "vehicleCd": "146",
    "vehicleCorpCd": "2",
    "running": true,
    "lat": 34.461694,
    "lon": 135.395194,
    "route": "ローズバス　右回り",
    "stop": "市民病院前",
    "passTime": "09:44",
    "vehicleType": "岸和田市コミュニティバス(ローズバス)",
    "updateTime": "2026/07/21 09:45"
  },
  {
    "vehicleNum": "092561",
    "vehicleCd": "74",
    "vehicleCorpCd": "1",
    "running": true,
    "lat": 34.500889,
    "lon": 135.581694,
    "route": "PL病院→金剛駅前（東側）→寺池台3丁目→PL病院",
    "stop": "中央センター前",
    "passTime": "09:43",
    "vehicleType": "南海バス(車椅子・ベビーカー・ノンステップ)",
    "updateTime": "2026/07/21 09:45"
  },
  {
    "vehicleNum": "092570",
    "vehicleCd": "577",
    "vehicleCorpCd": "1",
    "running": true,
    "lat": 34.487194,
    "lon": 135.421278,
    "route": "和泉中央駅→寺田→泉大津駅前",
    "stop": "和泉府中駅前",
    "passTime": "09:35",
    "vehicleType": "南海バス(車椅子・ベビーカー・ノンステップ)",
    "updateTime": "2026/07/21 09:45"
  },
  {
    "vehicleNum": "092572",
    "vehicleCd": "313",
    "vehicleCorpCd": "1",
    "running": true,
    "lat": 34.492694,
    "lon": 135.473083,
    "route": "光明池駅→新檜尾台センター→光明池駅",
    "stop": "赤坂台六丁",
    "passTime": "09:43",
    "vehicleType": "南海バス(車椅子・ベビーカー・ノンステップ)",
    "updateTime": "2026/07/21 09:45"
  },
  {
    "vehicleNum": "092577",
    "vehicleCd": "578",
    "vehicleCorpCd": "1",
    "running": true,
    "lat": 34.4495,
    "lon": 135.557583,
    "route": "長野→天野山→旭",
    "stop": "野作",
    "passTime": "09:43",
    "vehicleType": "南海バス(車椅子・ベビーカー・ノンステップ)",
    "updateTime": "2026/07/21 09:45"
  },
  {
    "vehicleNum": "092579",
    "vehicleCd": "579",
    "vehicleCorpCd": "1",
    "running": true,
    "lat": 34.430194,
    "lon": 135.556694,
    "route": "南ヶ丘→南花台４丁目→三日市町駅前",
    "stop": "南花台３丁目南",
    "passTime": "09:44",
    "vehicleType": "南海バス(車椅子・ベビーカー・ノンステップ)",
    "updateTime": "2026/07/21 09:45"
  },
  {
    "vehicleNum": "092623",
    "vehicleCd": "15",
    "vehicleCorpCd": "1",
    "running": true,
    "lat": 34.461889,
    "lon": 135.456694,
    "route": "泉大津駅前→和泉府中駅前→和泉中央駅→光明池駅",
    "stop": "和泉中央駅",
    "passTime": "09:41",
    "vehicleType": "南海バス(車椅子・ベビーカー・ノンステップ)",
    "updateTime": "2026/07/21 09:45"
  },
  {
    "vehicleNum": "092647",
    "vehicleCd": "587",
    "vehicleCorpCd": "1",
    "running": true,
    "lat": 34.445,
    "lon": 135.552889,
    "route": "旭ヶ丘→水落→河内長野駅前",
    "stop": "水落",
    "passTime": "09:44",
    "vehicleType": "南海バス(車椅子・ベビーカー・ノンステップ)",
    "updateTime": "2026/07/21 09:45"
  },
  {
    "vehicleNum": "092711",
    "vehicleCd": "355",
    "vehicleCorpCd": "1",
    "running": true,
    "lat": 34.569889,
    "lon": 135.480889,
    "route": "栂・美木多駅→鳳駅前→堺東駅前",
    "stop": "一条通",
    "passTime": "09:44",
    "vehicleType": "南海バス(車椅子・ベビーカー・ノンステップ)",
    "updateTime": "2026/07/21 09:45"
  },
  {
    "vehicleNum": "092761",
    "vehicleCd": "23",
    "vehicleCorpCd": "1",
    "running": true,
    "lat": 34.427278,
    "lon": 135.589,
    "route": "美加の台駅前→美加の台口→美加の台駅前",
    "stop": "神ヶ丘口",
    "passTime": "09:45",
    "vehicleType": "南海バス(車椅子・ベビーカー・ノンステップ)",
    "updateTime": "2026/07/21 09:45"
  },
  {
    "vehicleNum": "092734",
    "vehicleCd": "289",
    "vehicleCorpCd": "1",
    "running": true,
    "lat": 34.4345,
    "lon": 135.568278,
    "route": "三日市町駅前→南花台１丁目北→南ヶ丘",
    "stop": "三日市町駅前",
    "passTime": "09:42",
    "vehicleType": "南海バス(車椅子・ベビーカー・ノンステップ)",
    "updateTime": "2026/07/21 09:45"
  },
  {
    "vehicleNum": "092763",
    "vehicleCd": "520",
    "vehicleCorpCd": "1",
    "running": true,
    "lat": 34.455194,
    "lon": 135.491194,
    "route": "光明池駅→城山台５丁→光明池車庫",
    "stop": "光明台二丁目",
    "passTime": "09:45",
    "vehicleType": "南海バス(車椅子・ベビーカー・ノンステップ)",
    "updateTime": "2026/07/21 09:45"
  },
  {
    "vehicleNum": "092856",
    "vehicleCd": "601",
    "vehicleCorpCd": "1",
    "running": true,
    "lat": 34.454083,
    "lon": 135.460083,
    "route": "美術館前→のぞみ野南→和泉中央駅",
    "stop": "のぞみ野中央",
    "passTime": "09:44",
    "vehicleType": "南海バス(車椅子・ベビーカー・ノンステップ)",
    "updateTime": "2026/07/21 09:45"
  },
  {
    "vehicleNum": "092829",
    "vehicleCd": "488",
    "vehicleCorpCd": "1",
    "running": true,
    "lat": 34.505778,
    "lon": 135.466278,
    "route": "堺東駅前→鳳駅前→光明池駅",
    "stop": "南山田",
    "passTime": "09:45",
    "vehicleType": "南海バス(車椅子・ベビーカー・ノンステップ)",
    "updateTime": "2026/07/21 09:45"
  },
  {
    "vehicleNum": "092859",
    "vehicleCd": "32",
    "vehicleCorpCd": "1",
    "running": true,
    "lat": 34.457278,
    "lon": 135.558389,
    "route": "千代田駅前→赤峯→荘園町",
    "stop": "小山田口",
    "passTime": "09:44",
    "vehicleType": "南海バス(車椅子・ベビーカー・ノンステップ)",
    "updateTime": "2026/07/21 09:45"
  },
  {
    "vehicleNum": "092860",
    "vehicleCd": "379",
    "vehicleCorpCd": "1",
    "running": true,
    "lat": 34.3865,
    "lon": 135.525778,
    "route": "河内長野駅前→奥河内くろまろの郷→滝畑ダム",
    "stop": "滝畑ふるさと文化財の森ｾﾝﾀｰ前",
    "passTime": "09:45",
    "vehicleType": "南海バス(車椅子・ベビーカー・ノンステップ)",
    "updateTime": "2026/07/21 09:45"
  },
  {
    "vehicleNum": "092871",
    "vehicleCd": "33",
    "vehicleCorpCd": "1",
    "running": true,
    "lat": 34.449083,
    "lon": 135.490194,
    "route": "みずき台２丁目西→光明池駅",
    "stop": "みずき台一丁目",
    "passTime": "09:44",
    "vehicleType": "南海バス(車椅子・ベビーカー・ノンステップ)",
    "updateTime": "2026/07/21 09:45"
  },
  {
    "vehicleNum": "092900",
    "vehicleCd": "604",
    "vehicleCorpCd": "1",
    "running": true,
    "lat": 34.485083,
    "lon": 135.424194,
    "route": "泉大津駅前→和泉府中駅前→和泉中央駅",
    "stop": "泉大津急性期メディカルセンター前",
    "passTime": "09:43",
    "vehicleType": "南海バス(車椅子・ベビーカー・ノンステップ)",
    "updateTime": "2026/07/21 09:45"
  },
  {
    "vehicleNum": "092915",
    "vehicleCd": "346",
    "vehicleCorpCd": "1",
    "running": true,
    "lat": 34.452194,
    "lon": 135.589,
    "route": "こんごう福祉→長野",
    "stop": "河合寺",
    "passTime": "09:42",
    "vehicleType": "南海バス(車椅子・ベビーカー・ノンステップ)",
    "updateTime": "2026/07/21 09:45"
  },
  {
    "vehicleNum": "092901",
    "vehicleCd": "356",
    "vehicleCorpCd": "1",
    "running": true,
    "lat": 34.421889,
    "lon": 135.454,
    "route": "和泉中央駅→テクノステージセンター前→グリーンポリス前→和泉中央駅",
    "stop": "和泉商工会議所前",
    "passTime": "09:45",
    "vehicleType": "南海バス(車椅子・ベビーカー・ノンステップ)",
    "updateTime": "2026/07/21 09:45"
  },
  {
    "vehicleNum": "092913",
    "vehicleCd": "154",
    "vehicleCorpCd": "1",
    "running": true,
    "lat": 34.562194,
    "lon": 135.4745,
    "route": "光明池駅→山田→堺東駅前",
    "stop": "旭ヶ丘北町",
    "passTime": "09:45",
    "vehicleType": "南海バス(車椅子・ベビーカー・ノンステップ)",
    "updateTime": "2026/07/21 09:45"
  },
  {
    "vehicleNum": "092918",
    "vehicleCd": "114",
    "vehicleCorpCd": "1",
    "running": true,
    "lat": 34.538194,
    "lon": 135.463389,
    "route": "堺東駅前→鳳駅前→光明池駅",
    "stop": "鳳北口",
    "passTime": "09:45",
    "vehicleType": "南海バス(車椅子・ベビーカー・ノンステップ)",
    "updateTime": "2026/07/21 09:45"
  },
  {
    "vehicleNum": "092953",
    "vehicleCd": "122",
    "vehicleCorpCd": "1",
    "running": true,
    "lat": 34.422778,
    "lon": 135.225278,
    "route": "給油地区→空港駅",
    "stop": "ANA車輌整備工場前",
    "passTime": "09:45",
    "vehicleType": "南海バス(車椅子・ベビーカー・ノンステップ)",
    "updateTime": "2026/07/21 09:45"
  },
  {
    "vehicleNum": "092974",
    "vehicleCd": "260",
    "vehicleCorpCd": "1",
    "running": true,
    "lat": 34.462083,
    "lon": 135.443972,
    "route": "和泉中央駅→寺田→泉大津駅前",
    "stop": "箕形",
    "passTime": "09:45",
    "vehicleType": "南海バス(車椅子・ベビーカー・ノンステップ)",
    "updateTime": "2026/07/21 09:45"
  },
  {
    "vehicleNum": "092976",
    "vehicleCd": "138",
    "vehicleCorpCd": "1",
    "running": true,
    "lat": 34.482889,
    "lon": 135.426694,
    "route": "和泉中央駅→医療センター玄関口→和泉府中駅前",
    "stop": "府中町南",
    "passTime": "09:44",
    "vehicleType": "南海バス(車椅子・ベビーカー・ノンステップ)",
    "updateTime": "2026/07/21 09:45"
  },
  {
    "vehicleNum": "092975",
    "vehicleCd": "115",
    "vehicleCorpCd": "1",
    "running": true,
    "lat": 34.483083,
    "lon": 135.424278,
    "route": "泉大津駅前→和泉府中駅前→和泉中央駅",
    "stop": "和泉市役所前",
    "passTime": "09:44",
    "vehicleType": "南海バス(車椅子・ベビーカー・ノンステップ)",
    "updateTime": "2026/07/21 09:45"
  },
  {
    "vehicleNum": "092977",
    "vehicleCd": "608",
    "vehicleCorpCd": "1",
    "running": true,
    "lat": 34.512778,
    "lon": 135.465389,
    "route": "光明池駅→山田→堺東駅前",
    "stop": "山田北",
    "passTime": "09:45",
    "vehicleType": "南海バス(車椅子・ベビーカー・ノンステップ)",
    "updateTime": "2026/07/21 09:45"
  },
  {
    "vehicleNum": "093003",
    "vehicleCd": "111",
    "vehicleCorpCd": "1",
    "running": true,
    "lat": 34.460694,
    "lon": 135.472389,
    "route": "和泉中央駅→はつが野→和泉青葉台→和泉中央駅（左回り）",
    "stop": "和泉和田",
    "passTime": "09:45",
    "vehicleType": "南海バス(車椅子・ベビーカー・ノンステップ)",
    "updateTime": "2026/07/21 09:45"
  },
  {
    "vehicleNum": "093032",
    "vehicleCd": "231",
    "vehicleCorpCd": "1",
    "running": true,
    "lat": 34.437194,
    "lon": 135.242083,
    "route": "エアロプラザ→第２ターミナル(国内線・国際線)→エアロプラザ",
    "stop": "第2ターミナル国際線",
    "passTime": "09:40",
    "vehicleType": "南海バス",
    "updateTime": "2026/07/21 09:45"
  },
  {
    "vehicleNum": "093035",
    "vehicleCd": "609",
    "vehicleCorpCd": "1",
    "running": true,
    "lat": 34.437583,
    "lon": 135.231278,
    "route": "エアロプラザ→第２ターミナル(国内線・国際線)→エアロプラザ",
    "stop": "エアロプラザ",
    "passTime": "09:40",
    "vehicleType": "南海バス",
    "updateTime": "2026/07/21 09:45"
  },
  {
    "vehicleNum": "093046",
    "vehicleCd": "246",
    "vehicleCorpCd": "1",
    "running": true,
    "lat": 34.569583,
    "lon": 135.480778,
    "route": "堺東駅前→鳳駅前→国分峠東",
    "stop": "一条通",
    "passTime": "09:45",
    "vehicleType": "南海バス(車椅子・ベビーカー・ノンステップ)",
    "updateTime": "2026/07/21 09:45"
  },
  {
    "vehicleNum": "093054",
    "vehicleCd": "396",
    "vehicleCorpCd": "1",
    "running": true,
    "lat": 34.5325,
    "lon": 135.459583,
    "route": "国分峠東→栂・美木多駅→堺東駅前",
    "stop": "西堺警察署前",
    "passTime": "09:41",
    "vehicleType": "南海バス(車椅子・ベビーカー・ノンステップ)",
    "updateTime": "2026/07/21 09:45"
  },
  {
    "vehicleNum": "093071",
    "vehicleCd": "274",
    "vehicleCorpCd": "1",
    "running": true,
    "lat": 34.485194,
    "lon": 135.424889,
    "route": "光明池駅→光明池車庫→和泉中央駅→泉大津駅前",
    "stop": "和泉府中駅前",
    "passTime": "09:40",
    "vehicleType": "南海バス(車椅子・ベビーカー・ノンステップ)",
    "updateTime": "2026/07/21 09:45"
  },
  {
    "vehicleNum": "093074",
    "vehicleCd": "247",
    "vehicleCorpCd": "1",
    "running": true,
    "lat": 34.4395,
    "lon": 135.467278,
    "route": "和泉中央駅→和泉青葉台→はつが野→和泉中央駅（右回り）",
    "stop": "はつが野六丁目",
    "passTime": "09:45",
    "vehicleType": "南海バス(車椅子・ベビーカー・ノンステップ)",
    "updateTime": "2026/07/21 09:45"
  },
  {
    "vehicleNum": "093114",
    "vehicleCd": "262",
    "vehicleCorpCd": "1",
    "running": true,
    "lat": 34.519194,
    "lon": 135.463,
    "route": "堺東駅前→鳳駅前→光明池駅",
    "stop": "石橋",
    "passTime": "09:45",
    "vehicleType": "南海バス(車椅子・ベビーカー・ノンステップ)",
    "updateTime": "2026/07/21 09:45"
  },
  {
    "vehicleNum": "093113",
    "vehicleCd": "133",
    "vehicleCorpCd": "1",
    "running": true,
    "lat": 34.5155,
    "lon": 135.473083,
    "route": "堺東駅前→鳳駅前→栂・美木多駅",
    "stop": "万崎",
    "passTime": "09:45",
    "vehicleType": "南海バス(車椅子・ベビーカー・ノンステップ)",
    "updateTime": "2026/07/21 09:45"
  }
]