[
  {
    "vehicleNum": "070106",
    "vehicleCd": "404",
    "vehicleCorpCd": "1",
    "running": true,
    "lat": 34.498583,
    "lon": 135.544278,
    "route": "狭山ニュータウンセンター→右回り→金剛駅前",
    "stop": "狭山西小学校前",
    "passTime": "05:45",
    "vehicleType": "泉北コミュニティバス(車椅子・ベビーカー・ノンステップ)",
    "updateTime": "2026/07/23 05:47"
  },
  {
    "vehicleNum": "071605",
    "vehicleCd": "412",
    "vehicleCorpCd": "1",
    "running": true,
    "lat": 34.579778,
    "lon": 135.472778,
    "route": "堺駅前→大小路→堺東駅前",
    "stop": "市小学校前",
    "passTime": "05:46",
    "vehicleType": "堺シャトル(車椅子・ベビーカー・ノンステップ)",
    "updateTime": "2026/07/23 05:47"
  },
  {
    "vehicleNum": "080754",
    "vehicleCd": "428",
    "vehicleCorpCd": "1",
    "running": true,
    "lat": 34.504778,
    "lon": 135.497194,
    "route": "泉ヶ丘駅→泉北２号線→津久野駅前",
    "stop": "宮山台小学校前",
    "passTime": "05:47",
    "vehicleType": "南海バス(車椅子・ベビーカー・ノンステップ)",
    "updateTime": "2026/07/23 05:47"
  },
  {
    "vehicleNum": "080755",
    "vehicleCd": "170",
    "vehicleCorpCd": "1",
    "running": true,
    "lat": 34.500278,
    "lon": 135.571194,
    "route": "中央センター前→向陽・藤沢回り→金剛駅前",
    "stop": "金剛高校前",
    "passTime": "05:46",
    "vehicleType": "南海バス(車椅子・ベビーカー・ノンステップ)",
    "updateTime": "2026/07/23 05:47"
  },
  {
    "vehicleNum": "080758",
    "vehicleCd": "511",
    "vehicleCorpCd": "1",
    "running": true,
    "lat": 34.494083,
    "lon": 135.529583,
    "route": "三原台中学校前→高倉台右回り→泉ヶ丘駅",
    "stop": "晴美台１丁",
    "passTime": "05:47",
    "vehicleType": "南海バス(車椅子・ベビーカー・ノンステップ)",
    "updateTime": "2026/07/23 05:47"
  },
  {
    "vehicleNum": "080815",
    "vehicleCd": "575",
    "vehicleCorpCd": "1",
    "running": true,
    "lat": 34.501278,
    "lon": 135.507583,
    "route": "泉ヶ丘駅→宮山台左回り→泉ヶ丘駅",
    "stop": "野田尾",
    "passTime": "05:47",
    "vehicleType": "南海バス(車椅子・ベビーカー・ノンステップ)",
    "updateTime": "2026/07/23 05:47"
  },
  {
    "vehicleNum": "080835",
    "vehicleCd": "310",
    "vehicleCorpCd": "1",
    "running": true,
    "lat": 34.500889,
    "lon": 135.579889,
    "route": "中央センター前→向陽・藤沢回り→金剛駅前",
    "stop": "中央センター前",
    "passTime": "05:47",
    "vehicleType": "南海バス(車椅子・ベビーカー・ノンステップ)",
    "updateTime": "2026/07/23 05:47"
  },
  {
    "vehicleNum": "080869",
    "vehicleCd": "316",
    "vehicleCorpCd": "1",
    "running": true,
    "lat": 34.493778,
    "lon": 135.531389,
    "route": "泉ヶ丘駅→晴美台右回り→泉ヶ丘駅",
    "stop": "晴美台センター",
    "passTime": "05:47",
    "vehicleType": "南海バス(車椅子・ベビーカー・ノンステップ)",
    "updateTime": "2026/07/23 05:47"
  },
  {
    "vehicleNum": "080936",
    "vehicleCd": "22",
    "vehicleCorpCd": "1",
    "running": true,
    "lat": 34.467278,
    "lon": 135.496389,
    "route": "御池台２丁→庭代台１丁→栂・美木多駅",
    "stop": "庭代台１丁南",
    "passTime": "05:47",
    "vehicleType": "南海バス(車椅子・ベビーカー・ノンステップ)",
    "updateTime": "2026/07/23 05:47"
  },
  {
    "vehicleNum": "080968",
    "vehicleCd": "424",
    "vehicleCorpCd": "1",
    "running": true,
    "lat": 34.521278,
    "lon": 135.508889,
    "route": "東山車庫前→北野田駅前",
    "stop": "東山車庫前",
    "passTime": "05:47",
    "vehicleType": "南海バス(車椅子・ベビーカー・ノンステップ)",
    "updateTime": "2026/07/23 05:47"
  },
  {
    "vehicleNum": "080977",
    "vehicleCd": "388",
    "vehicleCorpCd": "1",
    "running": true,
    "lat": 34.535194,
    "lon": 135.487583,
    "route": "東山車庫前→小阪→堺東駅前",
    "stop": "中深井北",
    "passTime": "05:47",
    "vehicleType": "南海バス(車椅子・ベビーカー・ノンステップ)",
    "updateTime": "2026/07/23 05:47"
  },
  {
    "vehicleNum": "080978",
    "vehicleCd": "431",
    "vehicleCorpCd": "1",
    "running": true,
    "lat": 34.528694,
    "lon": 135.523583,
    "route": "下出口→大の芝→堺駅南口",
    "stop": "中茶屋",
    "passTime": "05:47",
    "vehicleType": "南海バス(車椅子・ベビーカー・ノンステップ)",
    "updateTime": "2026/07/23 05:47"
  },
  {
    "vehicleNum": "080989",
    "vehicleCd": "259",
    "vehicleCorpCd": "1",
    "running": true,
    "lat": 34.5145,
    "lon": 135.511083,
    "route": "あみだ池→深井駅→もず駅前→堺東駅前",
    "stop": "田園北口",
    "passTime": "05:47",
    "vehicleType": "南海バス(車椅子・ベビーカー・ノンステップ)",
    "updateTime": "2026/07/23 05:47"
  },
  {
    "vehicleNum": "080996",
    "vehicleCd": "191",
    "vehicleCorpCd": "1",
    "running": true,
    "lat": 34.534889,
    "lon": 135.567083,
    "route": "平尾→初芝駅前→中もず駅前",
    "stop": "平尾",
    "passTime": "05:46",
    "vehicleType": "南海バス(車椅子・ベビーカー・ノンステップ)",
    "updateTime": "2026/07/23 05:47"
  },
  {
    "vehicleNum": "091791",
    "vehicleCd": "206",
    "vehicleCorpCd": "1",
    "running": true,
    "lat": 34.431389,
    "lon": 135.233,
    "route": "エアロプラザ→第２ターミナル(国内線・国際線)→エアロプラザ",
    "stop": "エアロプラザ",
    "passTime": "05:45",
    "vehicleType": "南海バス(車椅子・ノンステップ)",
    "updateTime": "2026/07/23 05:47"
  },
  {
    "vehicleNum": "092135",
    "vehicleCd": "525",
    "vehicleCorpCd": "1",
    "running": true,
    "lat": 34.436778,
    "lon": 135.2435,
    "route": "エアロプラザ→第２ターミナル(国内線・国際線)→エアロプラザ",
    "stop": "第2ターミナル国際線",
    "passTime": "05:42",
    "vehicleType": "南海バス",
    "updateTime": "2026/07/23 05:47"
  },
  {
    "vehicleNum": "091792",
    "vehicleCd": "59",
    "vehicleCorpCd": "1",
    "running": true,
    "lat": 34.425083,
    "lon": 135.229,
    "route": "空港駅→給油地区",
    "stop": "第2代理店ビル前",
    "passTime": "05:47",
    "vehicleType": "南海バス(車椅子・ノンステップ)",
    "updateTime": "2026/07/23 05:47"
  },
  {
    "vehicleNum": "092233",
    "vehicleCd": "533",
    "vehicleCorpCd": "1",
    "running": true,
    "lat": 34.470083,
    "lon": 135.476778,
    "route": "みずき台２丁目西→光明池駅",
    "stop": "東室堂",
    "passTime": "05:47",
    "vehicleType": "南海バス(車椅子・ベビーカー・ノンステップ)",
    "updateTime": "2026/07/23 05:47"
  },
  {
    "vehicleNum": "092234",
    "vehicleCd": "534",
    "vehicleCorpCd": "1",
    "running": true,
    "lat": 34.454,
    "lon": 135.463389,
    "route": "はつが野六丁目→和泉中央駅",
    "stop": "のぞみ野東",
    "passTime": "05:47",
    "vehicleType": "南海バス(車椅子・ベビーカー・ノンステップ)",
    "updateTime": "2026/07/23 05:48"
  },
  {
    "vehicleNum": "092372",
    "vehicleCd": "159",
    "vehicleCorpCd": "1",
    "running": true,
    "lat": 34.545583,
    "lon": 135.463389,
    "route": "光明池駅→山田→堺東駅前",
    "stop": "下田",
    "passTime": "05:47",
    "vehicleType": "南海バス(車椅子・ベビーカー・ノンステップ)",
    "updateTime": "2026/07/23 05:48"
  },
  {
    "vehicleNum": "092373",
    "vehicleCd": "553",
    "vehicleCorpCd": "1",
    "running": true,
    "lat": 34.506694,
    "lon": 135.466194,
    "route": "光明池駅→山田→鳳駅前",
    "stop": "山田",
    "passTime": "05:47",
    "vehicleType": "南海バス(車椅子・ベビーカー・ノンステップ)",
    "updateTime": "2026/07/23 05:48"
  },
  {
    "vehicleNum": "092382",
    "vehicleCd": "556",
    "vehicleCorpCd": "1",
    "running": true,
    "lat": 34.475278,
    "lon": 135.472278,
    "route": "光明池駅→新檜尾台センター→光明池駅",
    "stop": "光明池駅",
    "passTime": "05:46",
    "vehicleType": "南海バス(車椅子・ベビーカー・ノンステップ)",
    "updateTime": "2026/07/23 05:48"
  },
  {
    "vehicleNum": "092468",
    "vehicleCd": "51",
    "vehicleCorpCd": "1",
    "running": true,
    "lat": 34.428583,
    "lon": 135.555278,
    "route": "南ヶ丘→南花台４丁目→三日市町駅前（前乗り）",
    "stop": "南花台３丁目南",
    "passTime": "05:47",
    "vehicleType": "南海バス(車椅子・ベビーカー・ノンステップ)",
    "updateTime": "2026/07/23 05:48"
  },
  {
    "vehicleNum": "092469",
    "vehicleCd": "220",
    "vehicleCorpCd": "1",
    "running": true,
    "lat": 34.445389,
    "lon": 135.544194,
    "route": "緑ヶ丘北町→千代田駅前",
    "stop": "緑ヶ丘南町",
    "passTime": "05:47",
    "vehicleType": "南海バス(車椅子・ベビーカー・ノンステップ)",
    "updateTime": "2026/07/23 05:48"
  },
  {
    "vehicleNum": "092862",
    "vehicleCd": "602",
    "vehicleCorpCd": "1",
    "running": true,
    "lat": 34.450694,
    "lon": 135.504583,
    "route": "国分峠東→栂・美木多駅→堺東駅前",
    "stop": "上別所",
    "passTime": "05:46",
    "vehicleType": "南海バス(車椅子・ベビーカー・ノンステップ)",
    "updateTime": "2026/07/23 05:48"
  },
  {
    "vehicleNum": "092863",
    "vehicleCd": "371",
    "vehicleCorpCd": "1",
    "running": true,
    "lat": 34.4745,
    "lon": 135.467,
    "route": "光明池駅→山田→堺東駅前",
    "stop": "変電所前",
    "passTime": "05:46",
    "vehicleType": "南海バス(車椅子・ベビーカー・ノンステップ)",
    "updateTime": "2026/07/23 05:48"
  },
  {
    "vehicleNum": "092936",
    "vehicleCd": "322",
    "vehicleCorpCd": "1",
    "running": true,
    "lat": 34.439278,
    "lon": 135.245278,
    "route": "給油地区→空港駅",
    "stop": "機内食前",
    "passTime": "05:44",
    "vehicleType": "南海バス(車椅子・ベビーカー・ノンステップ)",
    "updateTime": "2026/07/23 05:48"
  },
  {
    "vehicleNum": "093032",
    "vehicleCd": "231",
    "vehicleCorpCd": "1",
    "running": true,
    "lat": 34.438,
    "lon": 135.232694,
    "route": "エアロプラザ→第２ターミナル(国内線・国際線)→エアロプラザ",
    "stop": "第2ターミナル国際線",
    "passTime": "05:47",
    "vehicleType": "南海バス",
    "updateTime": "2026/07/23 05:48"
  },
  {
    "vehicleNum": "093113",
    "vehicleCd": "133",
    "vehicleCorpCd": "1",
    "running": true,
    "lat": 34.526,
    "lon": 135.462083,
    "route": "光明池駅→山田→堺東駅前",
    "stop": "上北",
    "passTime": "05:47",
    "vehicleType": "南海バス(車椅子・ベビーカー・ノンステップ)",
    "updateTime": "2026/07/23 05:48"
  }
]