[
  {
    "vehicleNum": "070104",
    "vehicleCd": "402",
    "vehicleCorpCd": "1",
    "running": true,
    "lat": 34.485194,
    "lon": 135.536472,
    "route": "泉ヶ丘駅→狭山ニュータウンセンター→金剛駅前",
    "stop": "槙塚台東",
    "passTime": "18:01",
    "vehicleType": "泉北コミュニティバス(車椅子・ベビーカー・ノンステップ)",
    "updateTime": "2026/07/21 18:03"
  },
  {
    "vehicleNum": "070103",
    "vehicleCd": "425",
    "vehicleCorpCd": "1",
    "running": true,
    "lat": 34.498278,
    "lon": 135.549583,
    "route": "金剛駅前→狭山ニュータウンセンター→泉ヶ丘駅",
    "stop": "亀の甲",
    "passTime": "18:02",
    "vehicleType": "泉北コミュニティバス(車椅子・ベビーカー・ノンステップ)",
    "updateTime": "2026/07/21 18:03"
  },
  {
    "vehicleNum": "070108",
    "vehicleCd": "406",
    "vehicleCorpCd": "1",
    "running": true,
    "lat": 34.484278,
    "lon": 135.537778,
    "route": "金剛駅前→狭山ニュータウンセンター→泉ヶ丘駅",
    "stop": "西山台南",
    "passTime": "18:01",
    "vehicleType": "泉北コミュニティバス(車椅子・ベビーカー・ノンステップ)",
    "updateTime": "2026/07/21 18:03"
  },
  {
    "vehicleNum": "071605",
    "vehicleCd": "412",
    "vehicleCorpCd": "1",
    "running": true,
    "lat": 34.578583,
    "lon": 135.4745,
    "route": "堺東駅前→大小路→堺駅前",
    "stop": "大小路",
    "passTime": "18:01",
    "vehicleType": "堺シャトル(車椅子・ベビーカー・ノンステップ)",
    "updateTime": "2026/07/21 18:03"
  },
  {
    "vehicleNum": "071606",
    "vehicleCd": "413",
    "vehicleCorpCd": "1",
    "running": true,
    "lat": 34.5745,
    "lon": 135.483889,
    "route": "堺駅前→大小路→堺東駅前",
    "stop": "熊野小学校前",
    "passTime": "17:59",
    "vehicleType": "堺シャトル(車椅子・ベビーカー・ノンステップ)",
    "updateTime": "2026/07/21 18:03"
  },
  {
    "vehicleNum": "072502",
    "vehicleCd": "331",
    "vehicleCorpCd": "1",
    "running": true,
    "lat": 34.571,
    "lon": 135.480583,
    "route": "堺駅南口→地下鉄新金岡駅前",
    "stop": "一条通",
    "passTime": "18:03",
    "vehicleType": "南海バス(車椅子・ベビーカー・ノンステップ)",
    "updateTime": "2026/07/21 18:03"
  },
  {
    "vehicleNum": "080105",
    "vehicleCd": "127",
    "vehicleCorpCd": "2",
    "running": true,
    "lat": 34.447889,
    "lon": 135.384583,
    "route": "岸和田駅前→天神山・一の宮循環　左回り→岸和田駅前",
    "stop": "東岸和田駅前",
    "passTime": "17:59",
    "vehicleType": "南海ウイングバス(車椅子・ベビーカー・ワンステップ)",
    "updateTime": "2026/07/21 18:03"
  },
  {
    "vehicleNum": "080159",
    "vehicleCd": "145",
    "vehicleCorpCd": "1",
    "running": true,
    "lat": 34.572,
    "lon": 135.482778,
    "route": "堺東駅前→堀上緑町１丁→堺東駅前",
    "stop": "堺東駅前",
    "passTime": "18:00",
    "vehicleType": "南海バス(車椅子・ベビーカー・ワンステップ)",
    "updateTime": "2026/07/21 18:03"
  },
  {
    "vehicleNum": "080178",
    "vehicleCd": "56",
    "vehicleCorpCd": "2",
    "running": true,
    "lat": 34.381,
    "lon": 135.354583,
    "route": "大阪体育大学前→熊取駅前",
    "stop": "大阪体育大学口",
    "passTime": "18:03",
    "vehicleType": "南海ウイングバス(車椅子・ベビーカー・ワンステップ)",
    "updateTime": "2026/07/21 18:03"
  },
  {
    "vehicleNum": "080146",
    "vehicleCd": "6",
    "vehicleCorpCd": "2",
    "running": true,
    "lat": 34.377278,
    "lon": 135.338889,
    "route": "犬鳴山→日根野駅前→野々地蔵北→泉佐野駅前",
    "stop": "東上",
    "passTime": "18:02",
    "vehicleType": "南海ウイングバス(車椅子・ワンステップ)",
    "updateTime": "2026/07/21 18:03"
  },
  {
    "vehicleNum": "080171",
    "vehicleCd": "40",
    "vehicleCorpCd": "2",
    "running": true,
    "lat": 34.463,
    "lon": 135.408778,
    "route": "白原車庫→内畑→岸和田駅前",
    "stop": "池尻",
    "passTime": "17:59",
    "vehicleType": "南海ウイングバス(車椅子・ベビーカー・ワンステップ)",
    "updateTime": "2026/07/21 18:03"
  },
  {
    "vehicleNum": "080180",
    "vehicleCd": "68",
    "vehicleCorpCd": "2",
    "running": true,
    "lat": 34.456583,
    "lon": 135.448583,
    "route": "和泉中央駅→東ヶ丘町",
    "stop": "唐国南",
    "passTime": "18:02",
    "vehicleType": "南海ウイングバス(車椅子・ベビーカー・ワンステップ)",
    "updateTime": "2026/07/21 18:03"
  },
  {
    "vehicleNum": "080270",
    "vehicleCd": "86",
    "vehicleCorpCd": "2",
    "running": true,
    "lat": 34.409889,
    "lon": 135.320278,
    "route": "つばさが丘北口→大阪体育大学前→熊取駅前→ダンバラ公園前→泉佐野駅前",
    "stop": "上町１丁目",
    "passTime": "18:01",
    "vehicleType": "南海バス(車椅子・ワンステップ)",
    "updateTime": "2026/07/21 18:03"
  },
  {
    "vehicleNum": "080315",
    "vehicleCd": "80",
    "vehicleCorpCd": "1",
    "running": true,
    "lat": 34.575194,
    "lon": 135.556972,
    "route": "堺東駅前→河内松原駅前",
    "stop": "高見の里駅前",
    "passTime": "17:58",
    "vehicleType": "南海バス(車椅子・ベビーカー・ワンステップ)",
    "updateTime": "2026/07/21 18:03"
  },
  {
    "vehicleNum": "080318",
    "vehicleCd": "83",
    "vehicleCorpCd": "1",
    "running": true,
    "lat": 34.602583,
    "lon": 135.458472,
    "route": "匠町→住之江公園駅前",
    "stop": "堺浜北",
    "passTime": "18:01",
    "vehicleType": "南海バス(車椅子・ベビーカー・ワンステップ)",
    "updateTime": "2026/07/21 18:03"
  },
  {
    "vehicleNum": "080321",
    "vehicleCd": "14",
    "vehicleCorpCd": "2",
    "running": true,
    "lat": 34.406389,
    "lon": 135.336972,
    "route": "泉佐野駅前→泉陽ヶ丘→熊取駅前→山の手台→小谷→熊取駅前",
    "stop": "中之庄南口",
    "passTime": "17:56",
    "vehicleType": "南海ウイングバス(車椅子・ワンステップ)",
    "updateTime": "2026/07/21 18:03"
  },
  {
    "vehicleNum": "080323",
    "vehicleCd": "59",
    "vehicleCorpCd": "2",
    "running": true,
    "lat": 34.454583,
    "lon": 135.4025,
    "route": "道の駅愛彩ランド→岸和田警察署前→岸和田駅前",
    "stop": "桜台中学校前",
    "passTime": "18:02",
    "vehicleType": "南海ウイングバス(車椅子・ワンステップ)",
    "updateTime": "2026/07/21 18:03"
  },
  {
    "vehicleNum": "080381",
    "vehicleCd": "88",
    "vehicleCorpCd": "1",
    "running": true,
    "lat": 34.631389,
    "lon": 135.430083,
    "route": "ＡＴＣ→堺東駅前",
    "stop": "インテックス大阪東",
    "passTime": "17:58",
    "vehicleType": "南海バス(車椅子・ワンステップ)",
    "updateTime": "2026/07/21 18:03"
  },
  {
    "vehicleNum": "080483",
    "vehicleCd": "157",
    "vehicleCorpCd": "1",
    "running": true,
    "lat": 34.545194,
    "lon": 135.489778,
    "route": "堺市立総合医療センター前→北条→中もず駅前",
    "stop": "もず陵南町西",
    "passTime": "18:02",
    "vehicleType": "南海バス(車椅子・ベビーカー・ノンステップ)",
    "updateTime": "2026/07/21 18:03"
  },
  {
    "vehicleNum": "080594",
    "vehicleCd": "437",
    "vehicleCorpCd": "1",
    "running": true,
    "lat": 34.5585,
    "lon": 135.540583,
    "route": "地下鉄新金岡駅前→野遠→美原区役所",
    "stop": "野遠",
    "passTime": "18:02",
    "vehicleType": "南海バス(車椅子・ベビーカー・ノンステップ)",
    "updateTime": "2026/07/21 18:03"
  },
  {
    "vehicleNum": "080640",
    "vehicleCd": "133",
    "vehicleCorpCd": "2",
    "running": true,
    "lat": 34.404083,
    "lon": 135.345278,
    "route": "泉佐野駅前→上瓦屋町→熊取駅前→熊取ニュータウン（フリー乗降）",
    "stop": "熊取駅筋",
    "passTime": "17:59",
    "vehicleType": "南海ウイングバス(車椅子・ベビーカー・ノンステップ)",
    "updateTime": "2026/07/21 18:03"
  },
  {
    "vehicleNum": "080643",
    "vehicleCd": "94",
    "vehicleCorpCd": "1",
    "running": true,
    "lat": 34.515,
    "lon": 135.473194,
    "route": "国分峠東→栂・美木多駅→堺東駅前",
    "stop": "菱木下",
    "passTime": "18:02",
    "vehicleType": "南海バス(車椅子・ベビーカー・ノンステップ)",
    "updateTime": "2026/07/21 18:03"
  },
  {
    "vehicleNum": "080644",
    "vehicleCd": "452",
    "vehicleCorpCd": "1",
    "running": true,
    "lat": 34.565278,
    "lon": 135.514778,
    "route": "堺駅南口→近畿中央呼吸器センター前→地下鉄新金岡駅前",
    "stop": "しもつ池",
    "passTime": "18:02",
    "vehicleType": "南海バス(車椅子・ベビーカー・ノンステップ)",
    "updateTime": "2026/07/21 18:03"
  },
  {
    "vehicleNum": "080652",
    "vehicleCd": "456",
    "vehicleCorpCd": "1",
    "running": true,
    "lat": 34.549083,
    "lon": 135.554083,
    "route": "美原区役所→初芝駅前→美原区役所",
    "stop": "広国神社前",
    "passTime": "18:01",
    "vehicleType": "南海バス",
    "updateTime": "2026/07/21 18:03"
  },
  {
    "vehicleNum": "080670",
    "vehicleCd": "507",
    "vehicleCorpCd": "1",
    "running": true,
    "lat": 34.574583,
    "lon": 135.506194,
    "route": "河内松原駅前→阪和堺市駅前→堺駅前",
    "stop": "警察学校前（堺市）",
    "passTime": "18:03",
    "vehicleType": "南海バス(車椅子・ベビーカー・ノンステップ)",
    "updateTime": "2026/07/21 18:03"
  },
  {
    "vehicleNum": "080671",
    "vehicleCd": "465",
    "vehicleCorpCd": "1",
    "running": true,
    "lat": 34.577694,
    "lon": 135.481389,
    "route": "堺駅前→堺東駅前→河内松原駅前",
    "stop": "瓦町公園前",
    "passTime": "17:59",
    "vehicleType": "南海バス(車椅子・ベビーカー・ノンステップ)",
    "updateTime": "2026/07/21 18:03"
  },
  {
    "vehicleNum": "080698",
    "vehicleCd": "531",
    "vehicleCorpCd": "1",
    "running": true,
    "lat": 34.589083,
    "lon": 135.527389,
    "route": "堺東駅前→錦綾町→河内天美駅前",
    "stop": "天美我堂",
    "passTime": "18:00",
    "vehicleType": "南海バス",
    "updateTime": "2026/07/21 18:03"
  },
  {
    "vehicleNum": "080707",
    "vehicleCd": "544",
    "vehicleCorpCd": "1",
    "running": true,
    "lat": 34.574889,
    "lon": 135.483889,
    "route": "堺駅西口→南島町→堺東駅前",
    "stop": "堺市役所前",
    "passTime": "18:01",
    "vehicleType": "南海バス(車椅子・ベビーカー・ノンステップ)",
    "updateTime": "2026/07/21 18:03"
  },
  {
    "vehicleNum": "080709",
    "vehicleCd": "5",
    "vehicleCorpCd": "2",
    "running": true,
    "lat": 34.411083,
    "lon": 135.300389,
    "route": "イオンモール→ポート→イオンモールりんくう泉南",
    "stop": "りんくうタウン駅前（ウイングバス南部）",
    "passTime": "18:00",
    "vehicleType": "南海ウイングバス(車椅子・ベビーカー・ノンステップ)",
    "updateTime": "2026/07/21 18:03"
  },
  {
    "vehicleNum": "080710",
    "vehicleCd": "18",
    "vehicleCorpCd": "2",
    "running": true,
    "lat": 34.439278,
    "lon": 135.389778,
    "route": "岸和田駅前→天神山・一の宮循環　右回り→岸和田駅前",
    "stop": "極楽寺東口",
    "passTime": "18:03",
    "vehicleType": "南海ウイングバス(車椅子・ベビーカー・ノンステップ)",
    "updateTime": "2026/07/21 18:03"
  },
  {
    "vehicleNum": "080734",
    "vehicleCd": "415",
    "vehicleCorpCd": "1",
    "running": true,
    "lat": 34.544194,
    "lon": 135.533889,
    "route": "美原区役所→初芝駅前→美原区役所",
    "stop": "初芝東",
    "passTime": "18:03",
    "vehicleType": "南海バス",
    "updateTime": "2026/07/21 18:03"
  },
  {
    "vehicleNum": "080744",
    "vehicleCd": "550",
    "vehicleCorpCd": "1",
    "running": true,
    "lat": 34.502583,
    "lon": 135.519889,
    "route": "泉ヶ丘駅→三原台左回り→泉ヶ丘駅",
    "stop": "三原台センター",
    "passTime": "18:01",
    "vehicleType": "南海バス(車椅子・ベビーカー・ノンステップ)",
    "updateTime": "2026/07/21 18:03"
  },
  {
    "vehicleNum": "080746",
    "vehicleCd": "395",
    "vehicleCorpCd": "1",
    "running": true,
    "lat": 34.495194,
    "lon": 135.559889,
    "route": "金剛駅前→向陽・藤沢回り→金剛駅前",
    "stop": "久野喜台二丁目",
    "passTime": "18:01",
    "vehicleType": "南海バス(車椅子・ベビーカー・ノンステップ)",
    "updateTime": "2026/07/21 18:03"
  },
  {
    "vehicleNum": "080747",
    "vehicleCd": "161",
    "vehicleCorpCd": "1",
    "running": true,
    "lat": 34.579889,
    "lon": 135.464389,
    "route": "堺駅南口→堺駅前",
    "stop": "大浜中町",
    "passTime": "18:00",
    "vehicleType": "南海バス(車椅子・ベビーカー・ノンステップ)",
    "updateTime": "2026/07/21 18:03"
  },
  {
    "vehicleNum": "080750",
    "vehicleCd": "103",
    "vehicleCorpCd": "1",
    "running": true,
    "lat": 34.536194,
    "lon": 135.556583,
    "route": "美原区役所前→船戸下→初芝駅前→中もず駅前",
    "stop": "船戸下",
    "passTime": "18:01",
    "vehicleType": "南海バス(車椅子・ベビーカー・ノンステップ)",
    "updateTime": "2026/07/21 18:03"
  },
  {
    "vehicleNum": "080745",
    "vehicleCd": "57",
    "vehicleCorpCd": "1",
    "running": true,
    "lat": 34.500889,
    "lon": 135.576278,
    "route": "金剛駅前→向陽・藤沢回り→金剛駅前",
    "stop": "藤沢台１丁目",
    "passTime": "18:03",
    "vehicleType": "南海バス(車椅子・ベビーカー・ノンステップ)",
    "updateTime": "2026/07/21 18:03"
  },
  {
    "vehicleNum": "080751",
    "vehicleCd": "551",
    "vehicleCorpCd": "1",
    "running": true,
    "lat": 34.549694,
    "lon": 135.464083,
    "route": "鳳駅前→堺東駅前",
    "stop": "下田",
    "passTime": "18:02",
    "vehicleType": "南海バス(車椅子・ベビーカー・ノンステップ)",
    "updateTime": "2026/07/21 18:03"
  },
  {
    "vehicleNum": "080753",
    "vehicleCd": "552",
    "vehicleCorpCd": "1",
    "running": true,
    "lat": 34.490778,
    "lon": 135.542583,
    "route": "泉ヶ丘駅→狭山ニュータウンセンター→金剛駅前",
    "stop": "西山台北",
    "passTime": "18:03",
    "vehicleType": "南海バス(車椅子・ベビーカー・ノンステップ)",
    "updateTime": "2026/07/21 18:03"
  },
  {
    "vehicleNum": "080757",
    "vehicleCd": "182",
    "vehicleCorpCd": "1",
    "running": true,
    "lat": 34.506194,
    "lon": 135.5745,
    "route": "金剛駅前→向陽・藤沢回り→金剛駅前",
    "stop": "藤沢台６丁目",
    "passTime": "18:02",
    "vehicleType": "南海バス(車椅子・ベビーカー・ノンステップ)",
    "updateTime": "2026/07/21 18:03"
  },
  {
    "vehicleNum": "080758",
    "vehicleCd": "511",
    "vehicleCorpCd": "1",
    "running": true,
    "lat": 34.527389,
    "lon": 135.471,
    "route": "津久野駅前→堺市立総合医療センター前→泉北２号線→泉ヶ丘駅",
    "stop": "毛穴南",
    "passTime": "18:03",
    "vehicleType": "南海バス(車椅子・ベビーカー・ノンステップ)",
    "updateTime": "2026/07/21 18:03"
  },
  {
    "vehicleNum": "080763",
    "vehicleCd": "562",
    "vehicleCorpCd": "1",
    "running": true,
    "lat": 34.512083,
    "lon": 135.494778,
    "route": "伏尾→北条→中もず駅前",
    "stop": "伏尾",
    "passTime": "18:02",
    "vehicleType": "南海バス(車椅子・ベビーカー・ノンステップ)",
    "updateTime": "2026/07/21 18:03"
  },
  {
    "vehicleNum": "080764",
    "vehicleCd": "563",
    "vehicleCorpCd": "1",
    "running": true,
    "lat": 34.542472,
    "lon": 135.512472,
    "route": "堺駅南口→福町→北野田駅前",
    "stop": "下茶屋",
    "passTime": "18:02",
    "vehicleType": "南海バス(車椅子・ベビーカー・ノンステップ)",
    "updateTime": "2026/07/21 18:03"
  },
  {
    "vehicleNum": "080765",
    "vehicleCd": "564",
    "vehicleCorpCd": "1",
    "running": true,
    "lat": 34.530194,
    "lon": 135.497583,
    "route": "泉ヶ丘駅→田園→深井駅",
    "stop": "畑山",
    "passTime": "17:59",
    "vehicleType": "南海バス(車椅子・ベビーカー・ノンステップ)",
    "updateTime": "2026/07/21 18:03"
  },
  {
    "vehicleNum": "080787",
    "vehicleCd": "301",
    "vehicleCorpCd": "1",
    "running": true,
    "lat": 34.5835,
    "lon": 135.467778,
    "route": "匠町→堺駅西口→堺東駅前→阪和堺市駅前",
    "stop": "堺駅西口",
    "passTime": "18:00",
    "vehicleType": "南海バス(車椅子・ベビーカー・ノンステップ)",
    "updateTime": "2026/07/21 18:03"
  },
  {
    "vehicleNum": "080789",
    "vehicleCd": "300",
    "vehicleCorpCd": "1",
    "running": true,
    "lat": 34.5705,
    "lon": 135.466194,
    "route": "堺駅前→堺駅南口",
    "stop": "山ノ口橋",
    "passTime": "18:01",
    "vehicleType": "南海バス(車椅子・ベビーカー・ノンステップ)",
    "updateTime": "2026/07/21 18:03"
  },
  {
    "vehicleNum": "080788",
    "vehicleCd": "299",
    "vehicleCorpCd": "1",
    "running": true,
    "lat": 34.593389,
    "lon": 135.468583,
    "route": "匠町→堺駅西口→堺東駅前→阪和堺市駅前",
    "stop": "塩浜町",
    "passTime": "18:00",
    "vehicleType": "南海バス(車椅子・ベビーカー・ノンステップ)",
    "updateTime": "2026/07/21 18:03"
  },
  {
    "vehicleNum": "080791",
    "vehicleCd": "61",
    "vehicleCorpCd": "1",
    "running": true,
    "lat": 34.559889,
    "lon": 135.472583,
    "route": "堺駅前→堺駅南口",
    "stop": "塩穴通",
    "passTime": "18:03",
    "vehicleType": "南海バス(車椅子・ベビーカー・ノンステップ)",
    "updateTime": "2026/07/21 18:03"
  },
  {
    "vehicleNum": "080795",
    "vehicleCd": "43",
    "vehicleCorpCd": "1",
    "running": true,
    "lat": 34.551194,
    "lon": 135.516889,
    "route": "堺東駅前→白鷺駅前→堺東駅前（循環）",
    "stop": "金田新田",
    "passTime": "18:02",
    "vehicleType": "南海バス(車椅子・ベビーカー・ノンステップ)",
    "updateTime": "2026/07/21 18:03"
  },
  {
    "vehicleNum": "080793",
    "vehicleCd": "112",
    "vehicleCorpCd": "1",
    "running": true,
    "lat": 34.572389,
    "lon": 135.483083,
    "route": "堺駅南口→堺駅前",
    "stop": "堺東駅前",
    "passTime": "18:00",
    "vehicleType": "南海バス(車椅子・ベビーカー・ノンステップ)",
    "updateTime": "2026/07/21 18:03"
  },
  {
    "vehicleNum": "080796",
    "vehicleCd": "108",
    "vehicleCorpCd": "1",
    "running": true,
    "lat": 34.590083,
    "lon": 135.434694,
    "route": "【急行】海浜匠町→堺駅西口",
    "stop": "海浜匠町",
    "passTime": "18:00",
    "vehicleType": "南海バス(車椅子・ベビーカー・ノンステップ)",
    "updateTime": "2026/07/21 18:03"
  },
  {
    "vehicleNum": "080798",
    "vehicleCd": "107",
    "vehicleCorpCd": "1",
    "running": true,
    "lat": 34.566194,
    "lon": 135.494278,
    "route": "地下鉄新金岡駅前→堺駅南口",
    "stop": "三国ヶ丘駅前",
    "passTime": "17:57",
    "vehicleType": "南海バス(車椅子・ベビーカー・ノンステップ)",
    "updateTime": "2026/07/21 18:03"
  },
  {
    "vehicleNum": "080800",
    "vehicleCd": "304",
    "vehicleCorpCd": "1",
    "running": true,
    "lat": 34.590083,
    "lon": 135.434583,
    "route": "【急行】海浜匠町→阪和堺市駅前",
    "stop": "海浜匠町",
    "passTime": "18:00",
    "vehicleType": "南海バス(車椅子・ベビーカー・ノンステップ)",
    "updateTime": "2026/07/21 18:03"
  },
  {
    "vehicleNum": "080809",
    "vehicleCd": "215",
    "vehicleCorpCd": "1",
    "running": true,
    "lat": 34.589778,
    "lon": 135.4795,
    "route": "堺東駅前→錦綾町→堺駅西口",
    "stop": "内川橋",
    "passTime": "18:02",
    "vehicleType": "南海バス(車椅子・ベビーカー・ノンステップ)",
    "updateTime": "2026/07/21 18:03"
  },
  {
    "vehicleNum": "080807",
    "vehicleCd": "223",
    "vehicleCorpCd": "1",
    "running": true,
    "lat": 34.566083,
    "lon": 135.494278,
    "route": "堺東駅前→白鷺駅前→堺東駅前（循環）",
    "stop": "三国ヶ丘駅前",
    "passTime": "17:57",
    "vehicleType": "南海バス(車椅子・ベビーカー・ノンステップ)",
    "updateTime": "2026/07/21 18:03"
  },
  {
    "vehicleNum": "080813",
    "vehicleCd": "269",
    "vehicleCorpCd": "1",
    "running": true,
    "lat": 34.603278,
    "lon": 135.477889,
    "route": "匠町→住之江公園駅前→匠町",
    "stop": "松屋大和川通３丁",
    "passTime": "17:55",
    "vehicleType": "南海バス(車椅子・ベビーカー・ノンステップ)",
    "updateTime": "2026/07/21 18:03"
  },
  {
    "vehicleNum": "080815",
    "vehicleCd": "575",
    "vehicleCorpCd": "1",
    "running": true,
    "lat": 34.498694,
    "lon": 135.555389,
    "route": "泉ヶ丘駅→帝塚山学院泉ヶ丘校前→金剛駅前",
    "stop": "北村",
    "passTime": "18:01",
    "vehicleType": "南海バス(車椅子・ベビーカー・ノンステップ)",
    "updateTime": "2026/07/21 18:03"
  },
  {
    "vehicleNum": "080822",
    "vehicleCd": "576",
    "vehicleCorpCd": "1",
    "running": true,
    "lat": 34.521389,
    "lon": 135.524694,
    "route": "深井駅→東山車庫前→北野田駅前",
    "stop": "福田中",
    "passTime": "18:02",
    "vehicleType": "南海バス(車椅子・ベビーカー・ノンステップ)",
    "updateTime": "2026/07/21 18:03"
  },
  {
    "vehicleNum": "080827",
    "vehicleCd": "317",
    "vehicleCorpCd": "1",
    "running": true,
    "lat": 34.537278,
    "lon": 135.545778,
    "route": "中もず駅前→初芝駅前→船戸下→美原区役所前",
    "stop": "北余部",
    "passTime": "18:03",
    "vehicleType": "南海バス(車椅子・ベビーカー・ノンステップ)",
    "updateTime": "2026/07/21 18:03"
  },
  {
    "vehicleNum": "080825",
    "vehicleCd": "261",
    "vehicleCorpCd": "1",
    "running": true,
    "lat": 34.576389,
    "lon": 135.471278,
    "route": "堺駅南口→福町→北野田駅前",
    "stop": "宿院",
    "passTime": "18:02",
    "vehicleType": "南海バス(車椅子・ベビーカー・ノンステップ)",
    "updateTime": "2026/07/21 18:03"
  },
  {
    "vehicleNum": "080835",
    "vehicleCd": "310",
    "vehicleCorpCd": "1",
    "running": true,
    "lat": 34.492778,
    "lon": 135.543694,
    "route": "金剛駅前→狭山ニュータウンセンター→泉ヶ丘駅",
    "stop": "今熊",
    "passTime": "18:02",
    "vehicleType": "南海バス(車椅子・ベビーカー・ノンステップ)",
    "updateTime": "2026/07/21 18:03"
  },
  {
    "vehicleNum": "080836",
    "vehicleCd": "268",
    "vehicleCorpCd": "1",
    "running": true,
    "lat": 34.575194,
    "lon": 135.5265,
    "route": "堺駅前→堺東駅前→河内松原駅前",
    "stop": "南花田町",
    "passTime": "18:02",
    "vehicleType": "南海バス(車椅子・ベビーカー・ノンステップ)",
    "updateTime": "2026/07/21 18:03"
  },
  {
    "vehicleNum": "080837",
    "vehicleCd": "351",
    "vehicleCorpCd": "1",
    "running": true,
    "lat": 34.548583,
    "lon": 135.483778,
    "route": "泉ヶ丘駅→宮山台中学校前→堺東駅前",
    "stop": "向ヶ丘",
    "passTime": "18:01",
    "vehicleType": "南海バス(車椅子・ベビーカー・ノンステップ)",
    "updateTime": "2026/07/21 18:03"
  },
  {
    "vehicleNum": "080844",
    "vehicleCd": "581",
    "vehicleCorpCd": "1",
    "running": true,
    "lat": 34.492278,
    "lon": 135.5285,
    "route": "泉ヶ丘駅→スマ・エコタウン晴美台→高倉台左回り→泉ヶ丘駅",
    "stop": "高倉台４丁",
    "passTime": "18:02",
    "vehicleType": "南海バス(車椅子・ベビーカー・ノンステップ)",
    "updateTime": "2026/07/21 18:03"
  },
  {
    "vehicleNum": "080846",
    "vehicleCd": "224",
    "vehicleCorpCd": "1",
    "running": true,
    "lat": 34.489083,
    "lon": 135.570278,
    "route": "金剛駅前→寺池台小学校前→金剛駅前",
    "stop": "寺池台小学校前",
    "passTime": "18:02",
    "vehicleType": "南海バス(車椅子・ベビーカー・ノンステップ)",
    "updateTime": "2026/07/21 18:03"
  },
  {
    "vehicleNum": "080838",
    "vehicleCd": "129",
    "vehicleCorpCd": "1",
    "running": true,
    "lat": 34.577389,
    "lon": 135.497694,
    "route": "地下鉄北花田駅前→蔵前西→ＪＲ堺市駅前→地下鉄北花田駅前",
    "stop": "阪和堺市駅筋",
    "passTime": "17:59",
    "vehicleType": "南海バス(車椅子・ベビーカー・ノンステップ)",
    "updateTime": "2026/07/21 18:03"
  },
  {
    "vehicleNum": "080847",
    "vehicleCd": "583",
    "vehicleCorpCd": "1",
    "running": true,
    "lat": 34.523694,
    "lon": 135.472389,
    "route": "泉ヶ丘駅→泉北２号線→津久野駅前",
    "stop": "鈴の宮団地西口",
    "passTime": "18:02",
    "vehicleType": "南海バス(車椅子・ベビーカー・ノンステップ)",
    "updateTime": "2026/07/21 18:03"
  },
  {
    "vehicleNum": "080854",
    "vehicleCd": "17",
    "vehicleCorpCd": "1",
    "running": true,
    "lat": 34.574889,
    "lon": 135.484,
    "route": "【急行】海浜匠町→堺東駅前→阪和堺市駅前",
    "stop": "堺東駅前",
    "passTime": "18:01",
    "vehicleType": "南海バス(車椅子・ベビーカー・ノンステップ)",
    "updateTime": "2026/07/21 18:03"
  },
  {
    "vehicleNum": "080857",
    "vehicleCd": "226",
    "vehicleCorpCd": "1",
    "running": true,
    "lat": 34.599889,
    "lon": 135.446472,
    "route": "堺駅西口→錦綾町→堺東駅前",
    "stop": "堺浜",
    "passTime": "18:03",
    "vehicleType": "南海バス(車椅子・ベビーカー・ノンステップ)",
    "updateTime": "2026/07/21 18:03"
  },
  {
    "vehicleNum": "080863",
    "vehicleCd": "249",
    "vehicleCorpCd": "1",
    "running": true,
    "lat": 34.564694,
    "lon": 135.5175,
    "route": "阪和堺市駅前→堺駅南口",
    "stop": "北区役所前",
    "passTime": "18:01",
    "vehicleType": "南海バス(車椅子・ベビーカー・ノンステップ)",
    "updateTime": "2026/07/21 18:03"
  },
  {
    "vehicleNum": "080858",
    "vehicleCd": "225",
    "vehicleCorpCd": "1",
    "running": true,
    "lat": 34.582583,
    "lon": 135.469083,
    "route": "【急行】海浜匠町→堺駅西口",
    "stop": "海浜匠町",
    "passTime": "17:34",
    "vehicleType": "南海バス(車椅子・ベビーカー・ノンステップ)",
    "updateTime": "2026/07/21 18:03"
  },
  {
    "vehicleNum": "080864",
    "vehicleCd": "146",
    "vehicleCorpCd": "1",
    "running": true,
    "lat": 34.586278,
    "lon": 135.470083,
    "route": "匠町→堺駅西口→堺東駅前→阪和堺市駅前",
    "stop": "三宝公園前",
    "passTime": "18:01",
    "vehicleType": "南海バス(車椅子・ベビーカー・ノンステップ)",
    "updateTime": "2026/07/21 18:03"
  },
  {
    "vehicleNum": "080865",
    "vehicleCd": "504",
    "vehicleCorpCd": "1",
    "running": true,
    "lat": 34.590083,
    "lon": 135.434583,
    "route": "【急行】海浜匠町→堺東駅前→阪和堺市駅前",
    "stop": "海浜匠町",
    "passTime": "18:00",
    "vehicleType": "南海バス(車椅子・ベビーカー・ノンステップ)",
    "updateTime": "2026/07/21 18:03"
  },
  {
    "vehicleNum": "080866",
    "vehicleCd": "497",
    "vehicleCorpCd": "1",
    "running": true,
    "lat": 34.500583,
    "lon": 135.574694,
    "route": "金剛駅前→高辺台小学校前→金剛駅前",
    "stop": "高辺台小学校前",
    "passTime": "18:00",
    "vehicleType": "南海バス(車椅子・ベビーカー・ノンステップ)",
    "updateTime": "2026/07/21 18:03"
  },
  {
    "vehicleNum": "080868",
    "vehicleCd": "237",
    "vehicleCorpCd": "1",
    "running": true,
    "lat": 34.484778,
    "lon": 135.504583,
    "route": "畑→片蔵→泉ヶ丘駅",
    "stop": "桜井神社前",
    "passTime": "18:02",
    "vehicleType": "南海バス(車椅子・ベビーカー・ノンステップ)",
    "updateTime": "2026/07/21 18:03"
  },
  {
    "vehicleNum": "080873",
    "vehicleCd": "144",
    "vehicleCorpCd": "1",
    "running": true,
    "lat": 34.479694,
    "lon": 135.528083,
    "route": "泉ヶ丘駅→槙塚台左回り→泉ヶ丘駅",
    "stop": "逆瀬川口",
    "passTime": "18:02",
    "vehicleType": "南海バス(車椅子・ベビーカー・ノンステップ)",
    "updateTime": "2026/07/21 18:03"
  },
  {
    "vehicleNum": "080876",
    "vehicleCd": "390",
    "vehicleCorpCd": "1",
    "running": true,
    "lat": 34.520778,
    "lon": 135.491278,
    "route": "北野田駅前→福町→深井駅→鳳駅前",
    "stop": "小阪",
    "passTime": "18:02",
    "vehicleType": "南海バス(車椅子・ベビーカー・ノンステップ)",
    "updateTime": "2026/07/21 18:03"
  },
  {
    "vehicleNum": "080880",
    "vehicleCd": "360",
    "vehicleCorpCd": "1",
    "running": true,
    "lat": 34.560194,
    "lon": 135.452194,
    "route": "石津川駅前→臨港７区→臨港６区→石津川駅前",
    "stop": "石津西町",
    "passTime": "17:55",
    "vehicleType": "南海バス(車椅子・ベビーカー・ノンステップ)",
    "updateTime": "2026/07/21 18:03"
  },
  {
    "vehicleNum": "080877",
    "vehicleCd": "588",
    "vehicleCorpCd": "1",
    "running": true,
    "lat": 34.560889,
    "lon": 135.494,
    "route": "堺駅南口→三国ヶ丘駅前→北野田駅前",
    "stop": "梅北２丁",
    "passTime": "18:02",
    "vehicleType": "南海バス(車椅子・ベビーカー・ノンステップ)",
    "updateTime": "2026/07/21 18:03"
  },
  {
    "vehicleNum": "080882",
    "vehicleCd": "343",
    "vehicleCorpCd": "1",
    "running": true,
    "lat": 34.535083,
    "lon": 135.479778,
    "route": "津久野駅前→堺市立総合医療センター前→八田荘団地→泉ヶ丘駅",
    "stop": "平岡町",
    "passTime": "18:02",
    "vehicleType": "南海バス(車椅子・ベビーカー・ノンステップ)",
    "updateTime": "2026/07/21 18:03"
  },
  {
    "vehicleNum": "080884",
    "vehicleCd": "116",
    "vehicleCorpCd": "1",
    "running": true,
    "lat": 34.495083,
    "lon": 135.510694,
    "route": "泉ヶ丘駅→槙塚台左回り→泉ヶ丘駅",
    "stop": "茶山台",
    "passTime": "18:02",
    "vehicleType": "南海バス(車椅子・ベビーカー・ノンステップ)",
    "updateTime": "2026/07/21 18:03"
  },
  {
    "vehicleNum": "080895",
    "vehicleCd": "167",
    "vehicleCorpCd": "1",
    "running": true,
    "lat": 34.534389,
    "lon": 135.536194,
    "route": "北野田駅前→多治井北（循環）→北野田駅前",
    "stop": "高松北",
    "passTime": "18:03",
    "vehicleType": "南海バス(車椅子・ベビーカー・ノンステップ)",
    "updateTime": "2026/07/21 18:03"
  },
  {
    "vehicleNum": "080894",
    "vehicleCd": "350",
    "vehicleCorpCd": "1",
    "running": true,
    "lat": 34.563,
    "lon": 135.519583,
    "route": "美原区役所→野遠→地下鉄新金岡駅前",
    "stop": "大泉緑地前",
    "passTime": "18:02",
    "vehicleType": "南海バス(車椅子・ベビーカー・ノンステップ)",
    "updateTime": "2026/07/21 18:03"
  },
  {
    "vehicleNum": "080900",
    "vehicleCd": "386",
    "vehicleCorpCd": "1",
    "running": true,
    "lat": 34.585778,
    "lon": 135.470194,
    "route": "【急行】海浜匠町→堺駅西口",
    "stop": "海浜匠町",
    "passTime": "17:41",
    "vehicleType": "南海バス(車椅子・ベビーカー・ワンステップ)",
    "updateTime": "2026/07/21 18:03"
  },
  {
    "vehicleNum": "080902",
    "vehicleCd": "76",
    "vehicleCorpCd": "1",
    "running": true,
    "lat": 34.591694,
    "lon": 135.468389,
    "route": "【急行】海浜匠町→堺駅西口",
    "stop": "海浜匠町",
    "passTime": "17:48",
    "vehicleType": "南海バス(車椅子・ベビーカー・ワンステップ)",
    "updateTime": "2026/07/21 18:03"
  },
  {
    "vehicleNum": "080903",
    "vehicleCd": "354",
    "vehicleCorpCd": "1",
    "running": true,
    "lat": 34.589194,
    "lon": 135.480694,
    "route": "【急行】海浜匠町→堺東駅前→阪和堺市駅前",
    "stop": "海浜匠町",
    "passTime": "17:40",
    "vehicleType": "南海バス(車椅子・ベビーカー・ワンステップ)",
    "updateTime": "2026/07/21 18:03"
  },
  {
    "vehicleNum": "080912",
    "vehicleCd": "372",
    "vehicleCorpCd": "1",
    "running": true,
    "lat": 34.594194,
    "lon": 135.458278,
    "route": "【急行】海浜匠町→堺駅西口",
    "stop": "海浜匠町",
    "passTime": "17:55",
    "vehicleType": "南海バス(車椅子・ベビーカー・ノンステップ)",
    "updateTime": "2026/07/21 18:03"
  },
  {
    "vehicleNum": "080911",
    "vehicleCd": "240",
    "vehicleCorpCd": "1",
    "running": true,
    "lat": 34.585,
    "lon": 135.470083,
    "route": "匠町→堺駅西口→堺東駅前→阪和堺市駅前",
    "stop": "戎島",
    "passTime": "18:00",
    "vehicleType": "南海バス(車椅子・ベビーカー・ノンステップ)",
    "updateTime": "2026/07/21 18:03"
  },
  {
    "vehicleNum": "080917",
    "vehicleCd": "70",
    "vehicleCorpCd": "1",
    "running": true,
    "lat": 34.495778,
    "lon": 135.512,
    "route": "泉ヶ丘駅→若松台左回り→泉ヶ丘駅",
    "stop": "茶山台",
    "passTime": "18:01",
    "vehicleType": "南海バス(車椅子・ベビーカー・ノンステップ)",
    "updateTime": "2026/07/21 18:03"
  },
  {
    "vehicleNum": "080918",
    "vehicleCd": "419",
    "vehicleCorpCd": "1",
    "running": true,
    "lat": 34.582889,
    "lon": 135.509083,
    "route": "河内天美駅前→天美我堂→堺東駅前",
    "stop": "浅香山住宅前",
    "passTime": "18:03",
    "vehicleType": "南海バス(車椅子・ベビーカー・ノンステップ)",
    "updateTime": "2026/07/21 18:03"
  },
  {
    "vehicleNum": "080927",
    "vehicleCd": "79",
    "vehicleCorpCd": "1",
    "running": true,
    "lat": 34.498694,
    "lon": 135.555,
    "route": "泉ヶ丘駅→近大キャンパス前→金剛駅前",
    "stop": "近大おおさかメディカルキャンパス前",
    "passTime": "17:46",
    "vehicleType": "南海バス(車椅子・ベビーカー・ノンステップ)",
    "updateTime": "2026/07/21 18:03"
  },
  {
    "vehicleNum": "080920",
    "vehicleCd": "327",
    "vehicleCorpCd": "1",
    "running": true,
    "lat": 34.499,
    "lon": 135.530778,
    "route": "金剛駅前→帝塚山学院泉ヶ丘校前→泉ヶ丘駅前",
    "stop": "堺東高校前",
    "passTime": "18:03",
    "vehicleType": "南海バス(車椅子・ベビーカー・ノンステップ)",
    "updateTime": "2026/07/21 18:03"
  },
  {
    "vehicleNum": "080934",
    "vehicleCd": "594",
    "vehicleCorpCd": "1",
    "running": true,
    "lat": 34.593583,
    "lon": 135.467694,
    "route": "堺東駅前→材木町→堺駅西口",
    "stop": "塩浜町",
    "passTime": "18:00",
    "vehicleType": "南海バス(車椅子・ベビーカー・ノンステップ)",
    "updateTime": "2026/07/21 18:03"
  },
  {
    "vehicleNum": "080948",
    "vehicleCd": "276",
    "vehicleCorpCd": "1",
    "running": true,
    "lat": 34.600389,
    "lon": 135.449583,
    "route": "匠町→住之江公園駅前→匠町",
    "stop": "堺浜南",
    "passTime": "18:02",
    "vehicleType": "南海バス(車椅子・ベビーカー・ノンステップ)",
    "updateTime": "2026/07/21 18:03"
  },
  {
    "vehicleNum": "080950",
    "vehicleCd": "513",
    "vehicleCorpCd": "1",
    "running": true,
    "lat": 34.5935,
    "lon": 135.468194,
    "route": "【急行】海浜匠町→堺東駅前→阪和堺市駅前",
    "stop": "海浜匠町",
    "passTime": "17:50",
    "vehicleType": "南海バス(車椅子・ベビーカー・ノンステップ)",
    "updateTime": "2026/07/21 18:03"
  },
  {
    "vehicleNum": "080956",
    "vehicleCd": "71",
    "vehicleCorpCd": "1",
    "running": true,
    "lat": 34.581,
    "lon": 135.463389,
    "route": "ＡＴＣ→堺東駅前",
    "stop": "ポートタウン東",
    "passTime": "17:44",
    "vehicleType": "南海バス",
    "updateTime": "2026/07/21 18:03"
  },
  {
    "vehicleNum": "080951",
    "vehicleCd": "597",
    "vehicleCorpCd": "1",
    "running": true,
    "lat": 34.468583,
    "lon": 135.501694,
    "route": "栂・美木多駅→庭代台左回り→栂・美木多駅",
    "stop": "庭代台中学校前",
    "passTime": "18:03",
    "vehicleType": "南海バス(車椅子・ベビーカー・ノンステップ)",
    "updateTime": "2026/07/21 18:03"
  },
  {
    "vehicleNum": "080957",
    "vehicleCd": "34",
    "vehicleCorpCd": "1",
    "running": true,
    "lat": 34.578389,
    "lon": 135.467972,
    "route": "堺東駅前→ＡＴＣ",
    "stop": "堺駅前",
    "passTime": "18:01",
    "vehicleType": "南海バス",
    "updateTime": "2026/07/21 18:03"
  },
  {
    "vehicleNum": "080968",
    "vehicleCd": "424",
    "vehicleCorpCd": "1",
    "running": true,
    "lat": 34.552389,
    "lon": 135.4995,
    "route": "中もず駅前→北条→伏尾",
    "stop": "中もず駅前（南側）",
    "passTime": "18:00",
    "vehicleType": "南海バス(車椅子・ベビーカー・ノンステップ)",
    "updateTime": "2026/07/21 18:03"
  },
  {
    "vehicleNum": "080977",
    "vehicleCd": "388",
    "vehicleCorpCd": "1",
    "running": true,
    "lat": 34.543778,
    "lon": 135.485583,
    "route": "堺東駅前→上野芝→泉ヶ丘駅",
    "stop": "向ヶ丘",
    "passTime": "17:58",
    "vehicleType": "南海バス(車椅子・ベビーカー・ノンステップ)",
    "updateTime": "2026/07/21 18:03"
  },
  {
    "vehicleNum": "080978",
    "vehicleCd": "431",
    "vehicleCorpCd": "1",
    "running": true,
    "lat": 34.5265,
    "lon": 135.505583,
    "route": "堺東駅前→もず駅前→深井駅→あみだ池",
    "stop": "畑山",
    "passTime": "18:00",
    "vehicleType": "南海バス(車椅子・ベビーカー・ノンステップ)",
    "updateTime": "2026/07/21 18:03"
  },
  {
    "vehicleNum": "080994",
    "vehicleCd": "130",
    "vehicleCorpCd": "1",
    "running": true,
    "lat": 34.490472,
    "lon": 135.532194,
    "route": "泉ヶ丘駅→晴美台右回り→泉ヶ丘駅",
    "stop": "はるみ小学校前",
    "passTime": "18:03",
    "vehicleType": "南海バス(車椅子・ベビーカー・ノンステップ)",
    "updateTime": "2026/07/21 18:03"
  },
  {
    "vehicleNum": "080996",
    "vehicleCd": "191",
    "vehicleCorpCd": "1",
    "running": true,
    "lat": 34.537389,
    "lon": 135.470778,
    "route": "深井駅→八田荘団地→津久野駅前",
    "stop": "平岡西口",
    "passTime": "18:02",
    "vehicleType": "南海バス(車椅子・ベビーカー・ノンステップ)",
    "updateTime": "2026/07/21 18:03"
  },
  {
    "vehicleNum": "081004",
    "vehicleCd": "271",
    "vehicleCorpCd": "1",
    "running": true,
    "lat": 34.554583,
    "lon": 135.500194,
    "route": "北野田駅前→西口園→堺駅南口",
    "stop": "中もず町",
    "passTime": "18:03",
    "vehicleType": "南海バス(車椅子・ベビーカー・ノンステップ)",
    "updateTime": "2026/07/21 18:03"
  },
  {
    "vehicleNum": "081007",
    "vehicleCd": "127",
    "vehicleCorpCd": "1",
    "running": true,
    "lat": 34.553889,
    "lon": 135.470278,
    "route": "東山車庫前→小阪→堺東駅前",
    "stop": "南陵通１丁",
    "passTime": "18:03",
    "vehicleType": "南海バス(車椅子・ベビーカー・ノンステップ)",
    "updateTime": "2026/07/21 18:03"
  },
  {
    "vehicleNum": "081013",
    "vehicleCd": "554",
    "vehicleCorpCd": "1",
    "running": true,
    "lat": 34.536,
    "lon": 135.476778,
    "route": "堺東駅前→堀上緑町１丁→堺東駅前",
    "stop": "平岡町",
    "passTime": "18:03",
    "vehicleType": "南海バス(車椅子・ベビーカー・ノンステップ)",
    "updateTime": "2026/07/21 18:03"
  },
  {
    "vehicleNum": "081014",
    "vehicleCd": "229",
    "vehicleCorpCd": "1",
    "running": true,
    "lat": 34.575694,
    "lon": 135.471889,
    "route": "北野田駅前→福町→堺駅南口",
    "stop": "大寺南門山之口前",
    "passTime": "18:02",
    "vehicleType": "南海バス(車椅子・ベビーカー・ノンステップ)",
    "updateTime": "2026/07/21 18:03"
  },
  {
    "vehicleNum": "081016",
    "vehicleCd": "239",
    "vehicleCorpCd": "1",
    "running": true,
    "lat": 34.483889,
    "lon": 135.491694,
    "route": "栂・美木多駅→御池台回り→栂・美木多駅",
    "stop": "原山公園前",
    "passTime": "18:02",
    "vehicleType": "南海バス(車椅子・ベビーカー・ノンステップ)",
    "updateTime": "2026/07/21 18:03"
  },
  {
    "vehicleNum": "081018",
    "vehicleCd": "263",
    "vehicleCorpCd": "1",
    "running": true,
    "lat": 34.521278,
    "lon": 135.508889,
    "route": "北野田駅前→福町→深井駅",
    "stop": "東山車庫前",
    "passTime": "18:03",
    "vehicleType": "南海バス(車椅子・ベビーカー・ノンステップ)",
    "updateTime": "2026/07/21 18:03"
  },
  {
    "vehicleNum": "081021",
    "vehicleCd": "243",
    "vehicleCorpCd": "1",
    "running": true,
    "lat": 34.543194,
    "lon": 135.512,
    "route": "北野田駅前→福町→堺駅南口",
    "stop": "下茶屋",
    "passTime": "18:02",
    "vehicleType": "南海バス(車椅子・ベビーカー・ノンステップ)",
    "updateTime": "2026/07/21 18:03"
  },
  {
    "vehicleNum": "081035",
    "vehicleCd": "491",
    "vehicleCorpCd": "1",
    "running": true,
    "lat": 34.469889,
    "lon": 135.494583,
    "route": "栂・美木多駅→御池台回り→栂・美木多駅",
    "stop": "庭代台１丁",
    "passTime": "18:02",
    "vehicleType": "南海バス(車椅子・ベビーカー・ノンステップ)",
    "updateTime": "2026/07/21 18:03"
  },
  {
    "vehicleNum": "081044",
    "vehicleCd": "132",
    "vehicleCorpCd": "1",
    "running": true,
    "lat": 34.536583,
    "lon": 135.474278,
    "route": "泉ヶ丘駅→深阪→津久野駅前",
    "stop": "文珠前",
    "passTime": "18:03",
    "vehicleType": "南海バス(車椅子・ベビーカー・ノンステップ)",
    "updateTime": "2026/07/21 18:03"
  },
  {
    "vehicleNum": "090103",
    "vehicleCd": "49",
    "vehicleCorpCd": "2",
    "running": true,
    "lat": 34.468694,
    "lon": 135.418583,
    "route": "和泉中央駅→荒木町→岸和田駅前",
    "stop": "今木",
    "passTime": "18:02",
    "vehicleType": "南海ウイングバス(車椅子・ベビーカー・ワンステップ)",
    "updateTime": "2026/07/21 18:03"
  },
  {
    "vehicleNum": "090170",
    "vehicleCd": "117",
    "vehicleCorpCd": "2",
    "running": true,
    "lat": 34.454694,
    "lon": 135.385389,
    "route": "岸和田駅前→内畑→牛滝温泉",
    "stop": "岸和田警察署前",
    "passTime": "18:02",
    "vehicleType": "南海ウイングバス",
    "updateTime": "2026/07/21 18:03"
  },
  {
    "vehicleNum": "090331",
    "vehicleCd": "197",
    "vehicleCorpCd": "1",
    "running": true,
    "lat": 34.4255,
    "lon": 135.231083,
    "route": "給油地区→ＦｅｄＥｘ→空港駅",
    "stop": "JAL輸出ビル前",
    "passTime": "18:03",
    "vehicleType": "南海バス(車椅子・ベビーカー・ワンステップ)",
    "updateTime": "2026/07/21 18:03"
  },
  {
    "vehicleNum": "090766",
    "vehicleCd": "137",
    "vehicleCorpCd": "2",
    "running": true,
    "lat": 34.404194,
    "lon": 135.345083,
    "route": "熊取ニュータウン→熊取駅前→上瓦屋町→泉佐野駅前（フリー乗降）",
    "stop": "青年会場前",
    "passTime": "18:03",
    "vehicleType": "南海ウイングバス(車椅子・ワンステップ)",
    "updateTime": "2026/07/21 18:03"
  },
  {
    "vehicleNum": "091069",
    "vehicleCd": "245",
    "vehicleCorpCd": "1",
    "running": true,
    "lat": 34.503,
    "lon": 135.449889,
    "route": "北信太駅筋→鶴山台団地→北信太駅筋",
    "stop": "鶴山台センター",
    "passTime": "18:03",
    "vehicleType": "南海バス(車椅子・ベビーカー・ワンステップ)",
    "updateTime": "2026/07/21 18:03"
  },
  {
    "vehicleNum": "091243",
    "vehicleCd": "13",
    "vehicleCorpCd": "2",
    "running": true,
    "lat": 34.340694,
    "lon": 135.213083,
    "route": "箱作駅前→桃の木台回り→箱作駅前",
    "stop": "箱作駅前",
    "passTime": "18:02",
    "vehicleType": "南海ウイングバス(車椅子・ワンステップ)",
    "updateTime": "2026/07/21 18:03"
  },
  {
    "vehicleNum": "091381",
    "vehicleCd": "330",
    "vehicleCorpCd": "1",
    "running": true,
    "lat": 34.5325,
    "lon": 135.459889,
    "route": "堺東駅前→鳳駅前→光明池駅",
    "stop": "鳳駅前",
    "passTime": "18:02",
    "vehicleType": "南海バス(車椅子・ベビーカー・ワンステップ)",
    "updateTime": "2026/07/21 18:03"
  },
  {
    "vehicleNum": "091581",
    "vehicleCd": "198",
    "vehicleCorpCd": "1",
    "running": true,
    "lat": 34.432389,
    "lon": 135.234583,
    "route": "貨物合同庁舎前→空港駅",
    "stop": "機内食前",
    "passTime": "18:02",
    "vehicleType": "南海バス(車椅子・ノンステップ)",
    "updateTime": "2026/07/21 18:03"
  },
  {
    "vehicleNum": "091580",
    "vehicleCd": "85",
    "vehicleCorpCd": "2",
    "running": true,
    "lat": 34.362778,
    "lon": 135.2775,
    "route": "泉南市コミュニティバス 新家回り",
    "stop": "砂川駅前通り",
    "passTime": "18:02",
    "vehicleType": "南海ウイングバス(車椅子・ベビーカー・ノンステップ)",
    "updateTime": "2026/07/21 18:03"
  },
  {
    "vehicleNum": "091601",
    "vehicleCd": "202",
    "vehicleCorpCd": "1",
    "running": true,
    "lat": 34.427778,
    "lon": 135.228278,
    "route": "給油地区→直行→空港駅",
    "stop": "浄化センター前",
    "passTime": "18:02",
    "vehicleType": "南海バス(車椅子・ノンステップ)",
    "updateTime": "2026/07/21 18:03"
  },
  {
    "vehicleNum": "091659",
    "vehicleCd": "204",
    "vehicleCorpCd": "1",
    "running": true,
    "lat": 34.434194,
    "lon": 135.237694,
    "route": "空港駅→国際循環→空港駅",
    "stop": "機内食前",
    "passTime": "18:01",
    "vehicleType": "南海バス(車椅子・ノンステップ)",
    "updateTime": "2026/07/21 18:03"
  },
  {
    "vehicleNum": "091737",
    "vehicleCd": "48",
    "vehicleCorpCd": "2",
    "running": true,
    "lat": 34.468,
    "lon": 135.405083,
    "route": "岸和田駅前→荒木町→和泉中央駅",
    "stop": "下池田",
    "passTime": "18:02",
    "vehicleType": "南海ウイングバス(車椅子・ベビーカー・ワンステップ)",
    "updateTime": "2026/07/21 18:04"
  },
  {
    "vehicleNum": "091739",
    "vehicleCd": "147",
    "vehicleCorpCd": "2",
    "running": true,
    "lat": 34.460278,
    "lon": 135.453778,
    "route": "道の駅愛彩ランド→包近→和泉中央駅",
    "stop": "唐国南",
    "passTime": "18:02",
    "vehicleType": "南海ウイングバス(車椅子・ベビーカー・ワンステップ)",
    "updateTime": "2026/07/21 18:04"
  },
  {
    "vehicleNum": "091744",
    "vehicleCd": "148",
    "vehicleCorpCd": "2",
    "running": true,
    "lat": 34.455194,
    "lon": 135.384694,
    "route": "岸和田駅前→岸和田警察署前→塔原",
    "stop": "岸和田警察署前",
    "passTime": "18:03",
    "vehicleType": "南海ウイングバス(車椅子・ベビーカー・ワンステップ)",
    "updateTime": "2026/07/21 18:04"
  },
  {
    "vehicleNum": "091745",
    "vehicleCd": "103",
    "vehicleCorpCd": "2",
    "running": true,
    "lat": 34.429083,
    "lon": 135.429778,
    "route": "和泉中央駅→包近→道の駅愛彩ランド",
    "stop": "蜻蛉池公園東",
    "passTime": "18:03",
    "vehicleType": "南海ウイングバス",
    "updateTime": "2026/07/21 18:04"
  },
  {
    "vehicleNum": "091784",
    "vehicleCd": "119",
    "vehicleCorpCd": "2",
    "running": true,
    "lat": 34.399278,
    "lon": 135.356194,
    "route": "熊取町　青葉台方面循環コース",
    "stop": "朝和口",
    "passTime": "18:02",
    "vehicleType": "熊取町コミュニティバス(ジャンプ君号)",
    "updateTime": "2026/07/21 18:04"
  },
  {
    "vehicleNum": "091894",
    "vehicleCd": "3",
    "vehicleCorpCd": "2",
    "running": true,
    "lat": 34.365472,
    "lon": 135.2735,
    "route": "泉南市コミュニティバス 一丘Ａ回り",
    "stop": "泉南市役所前2",
    "passTime": "18:03",
    "vehicleType": "泉南市コミュニティバス(紫)",
    "updateTime": "2026/07/21 18:04"
  },
  {
    "vehicleNum": "091910",
    "vehicleCd": "441",
    "vehicleCorpCd": "1",
    "running": true,
    "lat": 34.437194,
    "lon": 135.234583,
    "route": "エアロプラザ→第２ターミナル(国内線・国際線)→エアロプラザ",
    "stop": "第2ターミナル国際線",
    "passTime": "18:03",
    "vehicleType": "南海バス(車椅子・ノンステップ)",
    "updateTime": "2026/07/21 18:04"
  },
  {
    "vehicleNum": "091895",
    "vehicleCd": "4",
    "vehicleCorpCd": "2",
    "running": true,
    "lat": 34.354583,
    "lon": 135.280778,
    "route": "泉南市コミュニティバス 山回り",
    "stop": "府立支援学校前（正門）",
    "passTime": "18:02",
    "vehicleType": "泉南市コミュニティバス(ピンク)",
    "updateTime": "2026/07/21 18:04"
  },
  {
    "vehicleNum": "092045",
    "vehicleCd": "463",
    "vehicleCorpCd": "1",
    "running": true,
    "lat": 34.435389,
    "lon": 135.568889,
    "route": "ﾓｯｸﾙ 美加～木戸東町～美加",
    "stop": "加賀田口",
    "passTime": "18:03",
    "vehicleType": "南海バス(車椅子・ベビーカー・ノンステップ)",
    "updateTime": "2026/07/21 18:04"
  },
  {
    "vehicleNum": "092153",
    "vehicleCd": "529",
    "vehicleCorpCd": "1",
    "running": true,
    "lat": 34.433083,
    "lon": 135.235583,
    "route": "エアロプラザ→第２ターミナル(国内線・国際線)→エアロプラザ",
    "stop": "第2ターミナル国際線",
    "passTime": "18:00",
    "vehicleType": "南海バス",
    "updateTime": "2026/07/21 18:04"
  },
  {
    "vehicleNum": "092046",
    "vehicleCd": "464",
    "vehicleCorpCd": "1",
    "running": true,
    "lat": 34.472,
    "lon": 135.571694,
    "route": "ﾓｯｸﾙ 美加～木戸東町～美加",
    "stop": "大阪南医療センター前",
    "passTime": "18:01",
    "vehicleType": "南海バス(車椅子・ベビーカー・ノンステップ)",
    "updateTime": "2026/07/21 18:04"
  },
  {
    "vehicleNum": "092204",
    "vehicleCd": "416",
    "vehicleCorpCd": "1",
    "running": true,
    "lat": 34.467278,
    "lon": 135.564083,
    "route": "千代田駅前→赤峯→荘園町",
    "stop": "南海西友前",
    "passTime": "18:03",
    "vehicleType": "南海バス",
    "updateTime": "2026/07/21 18:04"
  },
  {
    "vehicleNum": "092205",
    "vehicleCd": "25",
    "vehicleCorpCd": "1",
    "running": true,
    "lat": 34.433389,
    "lon": 135.565278,
    "route": "三日市町駅前→南花台１丁目北→大矢船西町",
    "stop": "三日市町駅前",
    "passTime": "17:58",
    "vehicleType": "南海バス(車椅子・ベビーカー・ノンステップ)",
    "updateTime": "2026/07/21 18:04"
  },
  {
    "vehicleNum": "092372",
    "vehicleCd": "159",
    "vehicleCorpCd": "1",
    "running": true,
    "lat": 34.4635,
    "lon": 135.486083,
    "route": "光明池駅→光明池車庫→和泉中央駅→泉大津駅前",
    "stop": "城山台四丁",
    "passTime": "18:03",
    "vehicleType": "南海バス(車椅子・ベビーカー・ノンステップ)",
    "updateTime": "2026/07/21 18:04"
  },
  {
    "vehicleNum": "092373",
    "vehicleCd": "553",
    "vehicleCorpCd": "1",
    "running": true,
    "lat": 34.460083,
    "lon": 135.455194,
    "route": "和泉中央駅→阪本→泉大津駅前",
    "stop": "和泉中央駅",
    "passTime": "18:01",
    "vehicleType": "南海バス(車椅子・ベビーカー・ノンステップ)",
    "updateTime": "2026/07/21 18:04"
  },
  {
    "vehicleNum": "092383",
    "vehicleCd": "44",
    "vehicleCorpCd": "1",
    "running": true,
    "lat": 34.470972,
    "lon": 135.434194,
    "route": "泉大津駅前→和泉府中駅前→和泉中央駅",
    "stop": "寺田住宅",
    "passTime": "18:02",
    "vehicleType": "南海バス(車椅子・ベビーカー・ワンステップ)",
    "updateTime": "2026/07/21 18:04"
  },
  {
    "vehicleNum": "092384",
    "vehicleCd": "558",
    "vehicleCorpCd": "1",
    "running": true,
    "lat": 34.5735,
    "lon": 135.483694,
    "route": "堺東駅前→鳳駅前→光明池駅",
    "stop": "堺東駅前",
    "passTime": "18:02",
    "vehicleType": "南海バス(車椅子・ベビーカー・ノンステップ)",
    "updateTime": "2026/07/21 18:04"
  },
  {
    "vehicleNum": "092454",
    "vehicleCd": "125",
    "vehicleCorpCd": "2",
    "running": true,
    "lat": 34.353694,
    "lon": 135.280083,
    "route": "泉南市コミュニティバス 南Ａ回り",
    "stop": "府立支援学校前（裏門）",
    "passTime": "18:02",
    "vehicleType": "泉南市コミュニティバス(橙)",
    "updateTime": "2026/07/21 18:04"
  },
  {
    "vehicleNum": "092482",
    "vehicleCd": "528",
    "vehicleCorpCd": "1",
    "running": true,
    "lat": 34.436778,
    "lon": 135.571083,
    "route": "三日市町駅前→清見台回り→三日市町駅前",
    "stop": "三日市町駅前",
    "passTime": "18:03",
    "vehicleType": "南海バス(車椅子・ベビーカー・ノンステップ)",
    "updateTime": "2026/07/21 18:04"
  },
  {
    "vehicleNum": "092498",
    "vehicleCd": "8",
    "vehicleCorpCd": "1",
    "running": true,
    "lat": 34.470389,
    "lon": 135.442889,
    "route": "和泉府中駅前→いぶき野→和泉中央駅",
    "stop": "弥生自治会館前",
    "passTime": "18:04",
    "vehicleType": "南海バス(車椅子・ベビーカー・ノンステップ)",
    "updateTime": "2026/07/21 18:04"
  },
  {
    "vehicleNum": "092503",
    "vehicleCd": "146",
    "vehicleCorpCd": "2",
    "running": true,
    "lat": 34.459278,
    "lon": 135.373583,
    "route": "ローズバス　左回り",
    "stop": "南町",
    "passTime": "17:52",
    "vehicleType": "岸和田市コミュニティバス(ローズバス)",
    "updateTime": "2026/07/21 18:04"
  },
  {
    "vehicleNum": "092533",
    "vehicleCd": "288",
    "vehicleCorpCd": "1",
    "running": true,
    "lat": 34.495194,
    "lon": 135.411583,
    "route": "泉大津駅前→和泉府中駅前→光明池駅",
    "stop": "池浦",
    "passTime": "18:03",
    "vehicleType": "南海バス(車椅子・ベビーカー・ノンステップ)",
    "updateTime": "2026/07/21 18:04"
  },
  {
    "vehicleNum": "092534",
    "vehicleCd": "265",
    "vehicleCorpCd": "1",
    "running": true,
    "lat": 34.447583,
    "lon": 135.447889,
    "route": "和泉中央駅→テクノステージセンター前→直行→和泉中央駅",
    "stop": "ららぽーと和泉前",
    "passTime": "17:59",
    "vehicleType": "南海バス(車椅子・ベビーカー・ノンステップ)",
    "updateTime": "2026/07/21 18:04"
  },
  {
    "vehicleNum": "092570",
    "vehicleCd": "577",
    "vehicleCorpCd": "1",
    "running": true,
    "lat": 34.4765,
    "lon": 135.467194,
    "route": "光明池駅→山田→堺東駅前",
    "stop": "伏屋",
    "passTime": "18:03",
    "vehicleType": "南海バス(車椅子・ベビーカー・ノンステップ)",
    "updateTime": "2026/07/21 18:04"
  },
  {
    "vehicleNum": "092577",
    "vehicleCd": "578",
    "vehicleCorpCd": "1",
    "running": true,
    "lat": 34.452694,
    "lon": 135.574389,
    "route": "河内長野駅前→河合寺→小吹台",
    "stop": "河内長野駅前",
    "passTime": "18:00",
    "vehicleType": "南海バス(車椅子・ベビーカー・ノンステップ)",
    "updateTime": "2026/07/21 18:04"
  },
  {
    "vehicleNum": "092572",
    "vehicleCd": "313",
    "vehicleCorpCd": "1",
    "running": true,
    "lat": 34.552,
    "lon": 135.465194,
    "route": "堺東駅前→鳳駅前→栂・美木多駅",
    "stop": "神石橋",
    "passTime": "18:03",
    "vehicleType": "南海バス(車椅子・ベビーカー・ノンステップ)",
    "updateTime": "2026/07/21 18:04"
  },
  {
    "vehicleNum": "092581",
    "vehicleCd": "375",
    "vehicleCorpCd": "1",
    "running": true,
    "lat": 34.475083,
    "lon": 135.428694,
    "route": "和泉中央駅→寺田→泉大津駅前",
    "stop": "和気小学校前",
    "passTime": "18:03",
    "vehicleType": "南海バス(車椅子・ベビーカー・ノンステップ)",
    "updateTime": "2026/07/21 18:04"
  },
  {
    "vehicleNum": "092647",
    "vehicleCd": "587",
    "vehicleCorpCd": "1",
    "running": true,
    "lat": 34.454583,
    "lon": 135.556583,
    "route": "千代田駅前→赤峯→緑ヶ丘北町",
    "stop": "配水池前",
    "passTime": "18:03",
    "vehicleType": "南海バス(車椅子・ベビーカー・ノンステップ)",
    "updateTime": "2026/07/21 18:04"
  },
  {
    "vehicleNum": "092620",
    "vehicleCd": "311",
    "vehicleCorpCd": "1",
    "running": true,
    "lat": 34.436278,
    "lon": 135.568583,
    "route": "大矢船西町→三日市町駅前",
    "stop": "南花台１丁目北",
    "passTime": "18:00",
    "vehicleType": "南海バス(車椅子・ベビーカー・ノンステップ)",
    "updateTime": "2026/07/21 18:04"
  },
  {
    "vehicleNum": "092757",
    "vehicleCd": "306",
    "vehicleCorpCd": "1",
    "running": true,
    "lat": 34.436889,
    "lon": 135.570778,
    "route": "三日市町駅前→南花台１丁目北→南ヶ丘",
    "stop": "三日市町駅前",
    "passTime": "18:03",
    "vehicleType": "南海バス(車椅子・ベビーカー・ノンステップ)",
    "updateTime": "2026/07/21 18:04"
  },
  {
    "vehicleNum": "092795",
    "vehicleCd": "592",
    "vehicleCorpCd": "1",
    "running": true,
    "lat": 34.473972,
    "lon": 135.4735,
    "route": "光明池駅→新檜尾台センター→光明池駅",
    "stop": "伏屋東",
    "passTime": "18:02",
    "vehicleType": "南海バス(車椅子・ベビーカー・ノンステップ)",
    "updateTime": "2026/07/21 18:04"
  },
  {
    "vehicleNum": "092831",
    "vehicleCd": "417",
    "vehicleCorpCd": "1",
    "running": true,
    "lat": 34.460889,
    "lon": 135.472083,
    "route": "和泉中央駅→和泉青葉台",
    "stop": "和泉和田",
    "passTime": "18:03",
    "vehicleType": "南海バス(車椅子・ベビーカー・ノンステップ)",
    "updateTime": "2026/07/21 18:04"
  },
  {
    "vehicleNum": "092859",
    "vehicleCd": "32",
    "vehicleCorpCd": "1",
    "running": true,
    "lat": 34.428278,
    "lon": 135.570278,
    "route": "三日市町駅東→南青葉台中央",
    "stop": "新町橋",
    "passTime": "18:02",
    "vehicleType": "南海バス(車椅子・ベビーカー・ノンステップ)",
    "updateTime": "2026/07/21 18:04"
  },
  {
    "vehicleNum": "092871",
    "vehicleCd": "33",
    "vehicleCorpCd": "1",
    "running": true,
    "lat": 34.482583,
    "lon": 135.431083,
    "route": "泉大津駅前→和泉中央駅→和泉青葉台",
    "stop": "府中町南",
    "passTime": "18:03",
    "vehicleType": "南海バス(車椅子・ベビーカー・ノンステップ)",
    "updateTime": "2026/07/21 18:04"
  },
  {
    "vehicleNum": "092872",
    "vehicleCd": "500",
    "vehicleCorpCd": "1",
    "running": true,
    "lat": 34.415694,
    "lon": 135.457278,
    "route": "テクノステージセンター前→府立産技研前→和泉中央駅",
    "stop": "テクノステージ三丁目東",
    "passTime": "18:03",
    "vehicleType": "南海バス(車椅子・ベビーカー・ノンステップ)",
    "updateTime": "2026/07/21 18:04"
  },
  {
    "vehicleNum": "092900",
    "vehicleCd": "604",
    "vehicleCorpCd": "1",
    "running": true,
    "lat": 34.452778,
    "lon": 135.504278,
    "route": "堺東駅前→鳳駅前→国分峠東",
    "stop": "下別所",
    "passTime": "18:03",
    "vehicleType": "南海バス(車椅子・ベビーカー・ノンステップ)",
    "updateTime": "2026/07/21 18:04"
  },
  {
    "vehicleNum": "092913",
    "vehicleCd": "154",
    "vehicleCorpCd": "1",
    "running": true,
    "lat": 34.466278,
    "lon": 135.448583,
    "route": "和泉中央駅→いぶき野→和泉府中駅前",
    "stop": "いぶき野一丁目",
    "passTime": "18:04",
    "vehicleType": "南海バス(車椅子・ベビーカー・ノンステップ)",
    "updateTime": "2026/07/21 18:04"
  },
  {
    "vehicleNum": "092915",
    "vehicleCd": "346",
    "vehicleCorpCd": "1",
    "running": true,
    "lat": 34.4545,
    "lon": 135.592389,
    "route": "長野→こんごう福祉",
    "stop": "府立こんごう福祉センター前",
    "passTime": "18:02",
    "vehicleType": "南海バス(車椅子・ベビーカー・ノンステップ)",
    "updateTime": "2026/07/21 18:04"
  },
  {
    "vehicleNum": "092916",
    "vehicleCd": "235",
    "vehicleCorpCd": "1",
    "running": true,
    "lat": 34.4495,
    "lon": 135.463278,
    "route": "和泉中央駅→はつが野六丁目→和泉中央駅",
    "stop": "はつが野口",
    "passTime": "18:04",
    "vehicleType": "南海バス(車椅子・ベビーカー・ノンステップ)",
    "updateTime": "2026/07/21 18:04"
  },
  {
    "vehicleNum": "092918",
    "vehicleCd": "114",
    "vehicleCorpCd": "1",
    "running": true,
    "lat": 34.466889,
    "lon": 135.463778,
    "route": "泉大津駅前→和泉府中駅前→和泉中央駅",
    "stop": "上中村",
    "passTime": "18:01",
    "vehicleType": "南海バス(車椅子・ベビーカー・ノンステップ)",
    "updateTime": "2026/07/21 18:04"
  },
  {
    "vehicleNum": "092937",
    "vehicleCd": "73",
    "vehicleCorpCd": "1",
    "running": true,
    "lat": 34.493194,
    "lon": 135.466694,
    "route": "堺東駅前→鳳駅前→光明池駅",
    "stop": "自動車検査場前",
    "passTime": "18:04",
    "vehicleType": "南海バス(車椅子・ベビーカー・ノンステップ)",
    "updateTime": "2026/07/21 18:04"
  },
  {
    "vehicleNum": "092950",
    "vehicleCd": "257",
    "vehicleCorpCd": "1",
    "running": true,
    "lat": 34.456778,
    "lon": 135.449,
    "route": "和泉中央駅→テクノステージセンター前→グリーンポリス前→和泉中央駅",
    "stop": "唐国南",
    "passTime": "18:03",
    "vehicleType": "南海バス(車椅子・ベビーカー・ノンステップ)",
    "updateTime": "2026/07/21 18:04"
  },
  {
    "vehicleNum": "092952",
    "vehicleCd": "113",
    "vehicleCorpCd": "1",
    "running": true,
    "lat": 34.437778,
    "lon": 135.449583,
    "route": "ららぽーと和泉前→和泉中央駅→和泉府中駅前",
    "stop": "ららぽーと和泉前",
    "passTime": "18:03",
    "vehicleType": "南海バス(車椅子・ベビーカー・ノンステップ)",
    "updateTime": "2026/07/21 18:04"
  },
  {
    "vehicleNum": "092951",
    "vehicleCd": "340",
    "vehicleCorpCd": "1",
    "running": true,
    "lat": 34.533,
    "lon": 135.4615,
    "route": "光明池駅→山田→堺東駅前",
    "stop": "西堺警察署前",
    "passTime": "18:02",
    "vehicleType": "南海バス(車椅子・ベビーカー・ノンステップ)",
    "updateTime": "2026/07/21 18:04"
  },
  {
    "vehicleNum": "093003",
    "vehicleCd": "111",
    "vehicleCorpCd": "1",
    "running": true,
    "lat": 34.490278,
    "lon": 135.417278,
    "route": "光明池駅→光明池車庫→和泉中央駅→泉大津駅前",
    "stop": "泉大津急性期メディカルセンター前",
    "passTime": "18:02",
    "vehicleType": "南海バス(車椅子・ベビーカー・ノンステップ)",
    "updateTime": "2026/07/21 18:04"
  },
  {
    "vehicleNum": "093011",
    "vehicleCd": "27",
    "vehicleCorpCd": "1",
    "running": true,
    "lat": 34.424694,
    "lon": 135.2255,
    "route": "空港駅→直行→給油地区",
    "stop": "浄化センター前",
    "passTime": "18:03",
    "vehicleType": "南海バス(車椅子・ベビーカー・ノンステップ)",
    "updateTime": "2026/07/21 18:04"
  },
  {
    "vehicleNum": "093032",
    "vehicleCd": "231",
    "vehicleCorpCd": "1",
    "running": true,
    "lat": 34.436083,
    "lon": 135.234583,
    "route": "エアロプラザ→第２ターミナル(国内線・国際線)→エアロプラザ",
    "stop": "エアロプラザ",
    "passTime": "18:00",
    "vehicleType": "南海バス",
    "updateTime": "2026/07/21 18:04"
  },
  {
    "vehicleNum": "093054",
    "vehicleCd": "396",
    "vehicleCorpCd": "1",
    "running": true,
    "lat": 34.489278,
    "lon": 135.418583,
    "route": "泉大津駅前→和泉府中駅前→和泉中央駅",
    "stop": "我孫子",
    "passTime": "18:01",
    "vehicleType": "南海バス(車椅子・ベビーカー・ノンステップ)",
    "updateTime": "2026/07/21 18:04"
  },
  {
    "vehicleNum": "093046",
    "vehicleCd": "246",
    "vehicleCorpCd": "1",
    "running": true,
    "lat": 34.554,
    "lon": 135.467,
    "route": "栂・美木多駅→鳳駅前→堺東駅前",
    "stop": "霞ヶ丘",
    "passTime": "18:04",
    "vehicleType": "南海バス(車椅子・ベビーカー・ノンステップ)",
    "updateTime": "2026/07/21 18:04"
  },
  {
    "vehicleNum": "093114",
    "vehicleCd": "262",
    "vehicleCorpCd": "1",
    "running": true,
    "lat": 34.575,
    "lon": 135.484,
    "route": "光明池駅→山田→堺東駅前",
    "stop": "一条通",
    "passTime": "18:01",
    "vehicleType": "南海バス(車椅子・ベビーカー・ノンステップ)",
    "updateTime": "2026/07/21 18:04"
  }
]