[
  {
    "vehicleNum": "070104",
    "vehicleCd": "402",
    "vehicleCorpCd": "1",
    "running": true,
    "lat": 34.476583,
    "lon": 135.548083,
    "route": "金剛駅前→狭山ニュータウンセンター→泉ヶ丘駅",
    "stop": "大野台４丁目東",
    "passTime": "23:14",
    "vehicleType": "泉北コミュニティバス(車椅子・ベビーカー・ノンステップ)",
    "updateTime": "2026/07/19 23:14"
  },
  {
    "vehicleNum": "080755",
    "vehicleCd": "170",
    "vehicleCorpCd": "1",
    "running": true,
    "lat": 34.500778,
    "lon": 135.5805,
    "route": "金剛駅前→高辺台小学校前→金剛駅前",
    "stop": "中央センター前",
    "passTime": "23:14",
    "vehicleType": "南海バス(車椅子・ベビーカー・ノンステップ)",
    "updateTime": "2026/07/19 23:14"
  },
  {
    "vehicleNum": "080756",
    "vehicleCd": "315",
    "vehicleCorpCd": "1",
    "running": true,
    "lat": 34.4975,
    "lon": 135.509889,
    "route": "泉ヶ丘駅→宮山台右回り→泉ヶ丘駅",
    "stop": "竹城台２丁",
    "passTime": "23:12",
    "vehicleType": "南海バス(車椅子・ベビーカー・ノンステップ)",
    "updateTime": "2026/07/19 23:14"
  },
  {
    "vehicleNum": "080866",
    "vehicleCd": "497",
    "vehicleCorpCd": "1",
    "running": true,
    "lat": 34.506194,
    "lon": 135.574583,
    "route": "金剛駅前→向陽・藤沢回り→金剛駅前",
    "stop": "藤沢台６丁目",
    "passTime": "23:14",
    "vehicleType": "南海バス(車椅子・ベビーカー・ノンステップ)",
    "updateTime": "2026/07/19 23:14"
  },
  {
    "vehicleNum": "080868",
    "vehicleCd": "237",
    "vehicleCorpCd": "1",
    "running": true,
    "lat": 34.481194,
    "lon": 135.491,
    "route": "栂・美木多駅→庭代台左回り→栂・美木多駅",
    "stop": "原山公園前",
    "passTime": "23:13",
    "vehicleType": "南海バス(車椅子・ベビーカー・ノンステップ)",
    "updateTime": "2026/07/19 23:14"
  },
  {
    "vehicleNum": "080894",
    "vehicleCd": "350",
    "vehicleCorpCd": "1",
    "running": true,
    "lat": 34.544194,
    "lon": 135.533778,
    "route": "美原区役所前→初芝駅前",
    "stop": "初芝東",
    "passTime": "23:13",
    "vehicleType": "南海バス(車椅子・ベビーカー・ノンステップ)",
    "updateTime": "2026/07/19 23:14"
  },
  {
    "vehicleNum": "091792",
    "vehicleCd": "59",
    "vehicleCorpCd": "1",
    "running": true,
    "lat": 34.430278,
    "lon": 135.225278,
    "route": "空港駅→ＦｅｄＥｘ→給油地区",
    "stop": "二期島国際貨物駐車場前",
    "passTime": "23:14",
    "vehicleType": "南海バス(車椅子・ノンステップ)",
    "updateTime": "2026/07/19 23:14"
  },
  {
    "vehicleNum": "091791",
    "vehicleCd": "206",
    "vehicleCorpCd": "1",
    "running": true,
    "lat": 34.436194,
    "lon": 135.232694,
    "route": "エアロプラザ→第２ターミナル(国内線・国際線)→エアロプラザ",
    "stop": "エアロプラザ",
    "passTime": "23:13",
    "vehicleType": "南海バス(車椅子・ノンステップ)",
    "updateTime": "2026/07/19 23:14"
  },
  {
    "vehicleNum": "092977",
    "vehicleCd": "608",
    "vehicleCorpCd": "1",
    "running": true,
    "lat": 34.439583,
    "lon": 135.467194,
    "route": "和泉中央駅→納花",
    "stop": "はつが野六丁目",
    "passTime": "23:13",
    "vehicleType": "南海バス(車椅子・ベビーカー・ノンステップ)",
    "updateTime": "2026/07/19 23:14"
  },
  {
    "vehicleNum": "093032",
    "vehicleCd": "231",
    "vehicleCorpCd": "1",
    "running": true,
    "lat": 34.433778,
    "lon": 135.232278,
    "route": "エアロプラザ→第２ターミナル(国内線・国際線)→エアロプラザ",
    "stop": "第2ターミナル国際線",
    "passTime": "23:12",
    "vehicleType": "南海バス",
    "updateTime": "2026/07/19 23:14"
  }
]