[
  {
    "vehicleNum": "070103",
    "vehicleCd": "425",
    "vehicleCorpCd": "1",
    "running": true,
    "lat": 34.480083,
    "lon": 135.540889,
    "route": "泉ヶ丘駅→狭山ニュータウンセンター→金剛駅前",
    "stop": "大野台五丁目",
    "passTime": "15:32",
    "vehicleType": "泉北コミュニティバス(車椅子・ベビーカー・ノンステップ)",
    "updateTime": "2026/07/21 15:32"
  },
  {
    "vehicleNum": "070107",
    "vehicleCd": "405",
    "vehicleCorpCd": "1",
    "running": true,
    "lat": 34.495194,
    "lon": 135.558694,
    "route": "金剛駅前→狭山ニュータウンセンター→泉ヶ丘駅",
    "stop": "金剛駅前（西側）",
    "passTime": "15:32",
    "vehicleType": "泉北コミュニティバス(車椅子・ベビーカー・ノンステップ)",
    "updateTime": "2026/07/21 15:32"
  },
  {
    "vehicleNum": "070108",
    "vehicleCd": "406",
    "vehicleCorpCd": "1",
    "running": true,
    "lat": 34.498694,
    "lon": 135.555278,
    "route": "泉ヶ丘駅→狭山ニュータウンセンター→金剛駅前",
    "stop": "北村",
    "passTime": "15:31",
    "vehicleType": "泉北コミュニティバス(車椅子・ベビーカー・ノンステップ)",
    "updateTime": "2026/07/21 15:32"
  },
  {
    "vehicleNum": "070109",
    "vehicleCd": "407",
    "vehicleCorpCd": "1",
    "running": true,
    "lat": 34.478694,
    "lon": 135.548389,
    "route": "金剛駅前→狭山ニュータウンセンター→泉ヶ丘駅",
    "stop": "南中学校前",
    "passTime": "15:32",
    "vehicleType": "泉北コミュニティバス(車椅子・ベビーカー・ノンステップ)",
    "updateTime": "2026/07/21 15:32"
  },
  {
    "vehicleNum": "071117",
    "vehicleCd": "251",
    "vehicleCorpCd": "1",
    "running": true,
    "lat": 34.593,
    "lon": 135.427083,
    "route": "【急行】海浜匠町→堺駅西口",
    "stop": "海浜匠町",
    "passTime": "15:30",
    "vehicleType": "南海バス(車椅子・ベビーカー・ワンステップ)",
    "updateTime": "2026/07/21 15:32"
  },
  {
    "vehicleNum": "071604",
    "vehicleCd": "217",
    "vehicleCorpCd": "1",
    "running": true,
    "lat": 34.575083,
    "lon": 135.484,
    "route": "堺駅前→大小路→堺東駅前",
    "stop": "熊野小学校前",
    "passTime": "15:26",
    "vehicleType": "堺シャトル(車椅子・ベビーカー・ノンステップ)",
    "updateTime": "2026/07/21 15:32"
  },
  {
    "vehicleNum": "071606",
    "vehicleCd": "413",
    "vehicleCorpCd": "1",
    "running": true,
    "lat": 34.575583,
    "lon": 135.479194,
    "route": "堺東駅前→大小路→堺駅前",
    "stop": "熊野小学校前",
    "passTime": "15:32",
    "vehicleType": "堺シャトル(車椅子・ベビーカー・ノンステップ)",
    "updateTime": "2026/07/21 15:32"
  },
  {
    "vehicleNum": "071607",
    "vehicleCd": "414",
    "vehicleCorpCd": "1",
    "running": true,
    "lat": 34.579778,
    "lon": 135.472778,
    "route": "堺駅前→大小路→堺東駅前",
    "stop": "市小学校前",
    "passTime": "15:32",
    "vehicleType": "堺シャトル(車椅子・ベビーカー・ノンステップ)",
    "updateTime": "2026/07/21 15:32"
  },
  {
    "vehicleNum": "080159",
    "vehicleCd": "145",
    "vehicleCorpCd": "1",
    "running": true,
    "lat": 34.569583,
    "lon": 135.480778,
    "route": "堺東駅前→上野芝→泉ヶ丘駅",
    "stop": "一条通",
    "passTime": "15:32",
    "vehicleType": "南海バス(車椅子・ベビーカー・ワンステップ)",
    "updateTime": "2026/07/21 15:32"
  },
  {
    "vehicleNum": "080184",
    "vehicleCd": "34",
    "vehicleCorpCd": "2",
    "running": true,
    "lat": 34.408472,
    "lon": 135.324583,
    "route": "熊取ニュータウン→熊取駅前→上瓦屋町→泉佐野駅前（フリー乗降）",
    "stop": "天神山口",
    "passTime": "15:31",
    "vehicleType": "南海ウイングバス(車椅子・ベビーカー・ノンステップ)",
    "updateTime": "2026/07/21 15:32"
  },
  {
    "vehicleNum": "080178",
    "vehicleCd": "56",
    "vehicleCorpCd": "2",
    "running": true,
    "lat": 34.455194,
    "lon": 135.384694,
    "route": "岸和田駅前→内畑→牛滝温泉",
    "stop": "岸和田警察署前",
    "passTime": "15:32",
    "vehicleType": "南海ウイングバス(車椅子・ベビーカー・ワンステップ)",
    "updateTime": "2026/07/21 15:32"
  },
  {
    "vehicleNum": "080179",
    "vehicleCd": "66",
    "vehicleCorpCd": "2",
    "running": true,
    "lat": 34.364278,
    "lon": 135.357194,
    "route": "泉佐野駅前→野々地蔵北→日根野駅前→犬鳴山",
    "stop": "水呑地蔵",
    "passTime": "15:32",
    "vehicleType": "南海ウイングバス(車椅子・ワンステップ)",
    "updateTime": "2026/07/21 15:32"
  },
  {
    "vehicleNum": "080191",
    "vehicleCd": "68",
    "vehicleCorpCd": "1",
    "running": true,
    "lat": 34.583583,
    "lon": 135.527694,
    "route": "堺東駅前→錦綾町→河内天美駅前",
    "stop": "天美我堂",
    "passTime": "15:31",
    "vehicleType": "南海バス(車椅子・ベビーカー・ワンステップ)",
    "updateTime": "2026/07/21 15:33"
  },
  {
    "vehicleNum": "080319",
    "vehicleCd": "84",
    "vehicleCorpCd": "1",
    "running": true,
    "lat": 34.609,
    "lon": 135.473583,
    "route": "匠町→住之江公園駅前→匠町",
    "stop": "松屋大和川通３丁",
    "passTime": "15:23",
    "vehicleType": "南海バス(車椅子・ベビーカー・ワンステップ)",
    "updateTime": "2026/07/21 15:33"
  },
  {
    "vehicleNum": "080315",
    "vehicleCd": "80",
    "vehicleCorpCd": "1",
    "running": true,
    "lat": 34.571,
    "lon": 135.481889,
    "route": "堺駅前→堺東駅前→河内松原駅前",
    "stop": "一条通",
    "passTime": "15:31",
    "vehicleType": "南海バス(車椅子・ベビーカー・ワンステップ)",
    "updateTime": "2026/07/21 15:33"
  },
  {
    "vehicleNum": "080463",
    "vehicleCd": "36",
    "vehicleCorpCd": "2",
    "running": true,
    "lat": 34.406,
    "lon": 135.345083,
    "route": "泉佐野駅前→ダンバラ公園前→熊取駅前→大阪体育大学前→つばさが丘北口",
    "stop": "熊取駅筋",
    "passTime": "15:32",
    "vehicleType": "南海ウイングバス(車椅子・ベビーカー・ノンステップ)",
    "updateTime": "2026/07/21 15:33"
  },
  {
    "vehicleNum": "080594",
    "vehicleCd": "437",
    "vehicleCorpCd": "1",
    "running": true,
    "lat": 34.559083,
    "lon": 135.53,
    "route": "地下鉄新金岡駅前→野遠→美原区役所",
    "stop": "大泉緑地前",
    "passTime": "15:31",
    "vehicleType": "南海バス(車椅子・ベビーカー・ノンステップ)",
    "updateTime": "2026/07/21 15:33"
  },
  {
    "vehicleNum": "080627",
    "vehicleCd": "446",
    "vehicleCorpCd": "1",
    "running": true,
    "lat": 34.551583,
    "lon": 135.567278,
    "route": "北野田駅前→多治井北（循環）→北野田駅前",
    "stop": "西多治井",
    "passTime": "15:29",
    "vehicleType": "南海バス(車椅子・ベビーカー・ノンステップ)",
    "updateTime": "2026/07/21 15:33"
  },
  {
    "vehicleNum": "080640",
    "vehicleCd": "133",
    "vehicleCorpCd": "2",
    "running": true,
    "lat": 34.404583,
    "lon": 135.3445,
    "route": "つばさが丘北口→大阪体育大学前→熊取駅前→ダンバラ公園前→泉佐野駅前",
    "stop": "熊取駅前",
    "passTime": "15:31",
    "vehicleType": "南海ウイングバス(車椅子・ベビーカー・ノンステップ)",
    "updateTime": "2026/07/21 15:33"
  },
  {
    "vehicleNum": "080644",
    "vehicleCd": "452",
    "vehicleCorpCd": "1",
    "running": true,
    "lat": 34.572,
    "lon": 135.478389,
    "route": "堺駅南口→近畿中央呼吸器センター前→労災病院前→地下鉄新金岡駅前",
    "stop": "安井町",
    "passTime": "15:31",
    "vehicleType": "南海バス(車椅子・ベビーカー・ノンステップ)",
    "updateTime": "2026/07/21 15:33"
  },
  {
    "vehicleNum": "080676",
    "vehicleCd": "158",
    "vehicleCorpCd": "1",
    "running": true,
    "lat": 34.543389,
    "lon": 135.527194,
    "route": "美原区役所→初芝駅前→美原区役所",
    "stop": "初芝中",
    "passTime": "15:30",
    "vehicleType": "南海バス",
    "updateTime": "2026/07/21 15:33"
  },
  {
    "vehicleNum": "080697",
    "vehicleCd": "461",
    "vehicleCorpCd": "1",
    "running": true,
    "lat": 34.593,
    "lon": 135.450583,
    "route": "【急行】海浜匠町→堺東駅前→阪和堺市駅前",
    "stop": "海浜匠町",
    "passTime": "15:25",
    "vehicleType": "南海バス",
    "updateTime": "2026/07/21 15:33"
  },
  {
    "vehicleNum": "080705",
    "vehicleCd": "542",
    "vehicleCorpCd": "1",
    "running": true,
    "lat": 34.574778,
    "lon": 135.537583,
    "route": "河内松原駅前→蔵前町→イオンモール堺北花田",
    "stop": "南新町１丁目",
    "passTime": "15:32",
    "vehicleType": "南海バス(車椅子・ベビーカー・ノンステップ)",
    "updateTime": "2026/07/21 15:33"
  },
  {
    "vehicleNum": "080707",
    "vehicleCd": "544",
    "vehicleCorpCd": "1",
    "running": true,
    "lat": 34.578389,
    "lon": 135.482889,
    "route": "河内松原駅前→阪和堺市駅前→堺駅前",
    "stop": "方違神社前",
    "passTime": "15:31",
    "vehicleType": "南海バス(車椅子・ベビーカー・ノンステップ)",
    "updateTime": "2026/07/21 15:33"
  },
  {
    "vehicleNum": "080711",
    "vehicleCd": "79",
    "vehicleCorpCd": "2",
    "running": true,
    "lat": 34.407694,
    "lon": 135.364389,
    "route": "熊取ニュータウン→熊取駅前→上瓦屋町→泉佐野駅前（フリー乗降）",
    "stop": "若葉",
    "passTime": "15:31",
    "vehicleType": "南海ウイングバス(車椅子・ベビーカー・ノンステップ)",
    "updateTime": "2026/07/21 15:33"
  },
  {
    "vehicleNum": "080744",
    "vehicleCd": "550",
    "vehicleCorpCd": "1",
    "running": true,
    "lat": 34.539083,
    "lon": 135.470694,
    "route": "津久野駅前→堺市立総合医療センター前→泉北２号線→泉ヶ丘駅",
    "stop": "堺市立総合医療センター前",
    "passTime": "15:32",
    "vehicleType": "南海バス(車椅子・ベビーカー・ノンステップ)",
    "updateTime": "2026/07/21 15:33"
  },
  {
    "vehicleNum": "080754",
    "vehicleCd": "428",
    "vehicleCorpCd": "1",
    "running": true,
    "lat": 34.491778,
    "lon": 135.519889,
    "route": "泉ヶ丘駅→ハーベストの丘",
    "stop": "泉ヶ丘駅（南側）",
    "passTime": "15:30",
    "vehicleType": "南海バス(車椅子・ベビーカー・ノンステップ)",
    "updateTime": "2026/07/21 15:33"
  },
  {
    "vehicleNum": "080187",
    "vehicleCd": "66",
    "vehicleCorpCd": "1",
    "running": true,
    "lat": 34.574889,
    "lon": 135.554389,
    "route": "堺駅前→堺東駅前→河内松原駅前",
    "stop": "高見の里駅前",
    "passTime": "15:30",
    "vehicleType": "南海バス(車椅子・ベビーカー・ノンステップ)",
    "updateTime": "2026/07/21 15:33"
  },
  {
    "vehicleNum": "080753",
    "vehicleCd": "552",
    "vehicleCorpCd": "1",
    "running": true,
    "lat": 34.488,
    "lon": 135.509694,
    "route": "泉ヶ丘駅→若松台左回り→泉ヶ丘駅",
    "stop": "若松台３丁",
    "passTime": "15:32",
    "vehicleType": "南海バス(車椅子・ベビーカー・ノンステップ)",
    "updateTime": "2026/07/21 15:33"
  },
  {
    "vehicleNum": "080755",
    "vehicleCd": "170",
    "vehicleCorpCd": "1",
    "running": true,
    "lat": 34.506278,
    "lon": 135.581778,
    "route": "金剛駅前→向陽・藤沢回り→金剛駅前",
    "stop": "向陽台２丁目",
    "passTime": "15:32",
    "vehicleType": "南海バス(車椅子・ベビーカー・ノンステップ)",
    "updateTime": "2026/07/21 15:33"
  },
  {
    "vehicleNum": "080756",
    "vehicleCd": "315",
    "vehicleCorpCd": "1",
    "running": true,
    "lat": 34.4955,
    "lon": 135.511389,
    "route": "泉ヶ丘駅→槙塚台左回り→泉ヶ丘駅",
    "stop": "茶山台",
    "passTime": "15:28",
    "vehicleType": "南海バス(車椅子・ベビーカー・ノンステップ)",
    "updateTime": "2026/07/21 15:33"
  },
  {
    "vehicleNum": "080758",
    "vehicleCd": "511",
    "vehicleCorpCd": "1",
    "running": true,
    "lat": 34.484778,
    "lon": 135.503583,
    "route": "泉ヶ丘駅→鉢ヶ峯→泉ヶ丘駅",
    "stop": "南片蔵",
    "passTime": "15:32",
    "vehicleType": "南海バス(車椅子・ベビーカー・ノンステップ)",
    "updateTime": "2026/07/21 15:33"
  },
  {
    "vehicleNum": "080757",
    "vehicleCd": "182",
    "vehicleCorpCd": "1",
    "running": true,
    "lat": 34.495778,
    "lon": 135.562278,
    "route": "金剛駅前→高辺台小学校前→金剛駅前",
    "stop": "金剛駅前（東側）",
    "passTime": "15:31",
    "vehicleType": "南海バス(車椅子・ベビーカー・ノンステップ)",
    "updateTime": "2026/07/21 15:33"
  },
  {
    "vehicleNum": "080761",
    "vehicleCd": "560",
    "vehicleCorpCd": "1",
    "running": true,
    "lat": 34.536694,
    "lon": 135.547194,
    "route": "美原区役所前→船戸下→初芝駅前→中もず駅前",
    "stop": "北余部",
    "passTime": "15:32",
    "vehicleType": "南海バス(車椅子・ベビーカー・ノンステップ)",
    "updateTime": "2026/07/21 15:33"
  },
  {
    "vehicleNum": "080763",
    "vehicleCd": "562",
    "vehicleCorpCd": "1",
    "running": true,
    "lat": 34.567083,
    "lon": 135.49,
    "route": "堺駅南口→福町→北野田駅前",
    "stop": "永山園",
    "passTime": "15:31",
    "vehicleType": "南海バス(車椅子・ベビーカー・ノンステップ)",
    "updateTime": "2026/07/21 15:33"
  },
  {
    "vehicleNum": "080788",
    "vehicleCd": "299",
    "vehicleCorpCd": "1",
    "running": true,
    "lat": 34.576389,
    "lon": 135.480778,
    "route": "【急行】海浜匠町→堺東駅前→阪和堺市駅前",
    "stop": "瓦町公園前",
    "passTime": "15:36",
    "vehicleType": "南海バス(車椅子・ベビーカー・ノンステップ)",
    "updateTime": "2026/07/21 15:33"
  },
  {
    "vehicleNum": "080789",
    "vehicleCd": "300",
    "vehicleCorpCd": "1",
    "running": true,
    "lat": 34.574694,
    "lon": 135.512389,
    "route": "堺東駅前→河内松原駅前",
    "stop": "蔵前西",
    "passTime": "15:32",
    "vehicleType": "南海バス(車椅子・ベビーカー・ノンステップ)",
    "updateTime": "2026/07/21 15:33"
  },
  {
    "vehicleNum": "080787",
    "vehicleCd": "301",
    "vehicleCorpCd": "1",
    "running": true,
    "lat": 34.574278,
    "lon": 135.483083,
    "route": "堺駅南口→堺駅前",
    "stop": "堺東駅前",
    "passTime": "15:31",
    "vehicleType": "南海バス(車椅子・ベビーカー・ノンステップ)",
    "updateTime": "2026/07/21 15:33"
  },
  {
    "vehicleNum": "080792",
    "vehicleCd": "302",
    "vehicleCorpCd": "1",
    "running": true,
    "lat": 34.570194,
    "lon": 135.502972,
    "route": "地下鉄新金岡駅前→労災病院前→近畿中央呼吸器センター前→堺駅南口",
    "stop": "近畿中央呼吸器センター前",
    "passTime": "15:31",
    "vehicleType": "南海バス(車椅子・ベビーカー・ノンステップ)",
    "updateTime": "2026/07/21 15:33"
  },
  {
    "vehicleNum": "080791",
    "vehicleCd": "61",
    "vehicleCorpCd": "1",
    "running": true,
    "lat": 34.559889,
    "lon": 135.4725,
    "route": "堺駅前→堺駅南口",
    "stop": "塩穴通",
    "passTime": "15:32",
    "vehicleType": "南海バス(車椅子・ベビーカー・ノンステップ)",
    "updateTime": "2026/07/21 15:33"
  },
  {
    "vehicleNum": "080795",
    "vehicleCd": "43",
    "vehicleCorpCd": "1",
    "running": true,
    "lat": 34.574889,
    "lon": 135.5175,
    "route": "河内松原駅前→阪和堺市駅前→堺東駅前",
    "stop": "蔵前町",
    "passTime": "15:33",
    "vehicleType": "南海バス(車椅子・ベビーカー・ノンステップ)",
    "updateTime": "2026/07/21 15:33"
  },
  {
    "vehicleNum": "080806",
    "vehicleCd": "307",
    "vehicleCorpCd": "1",
    "running": true,
    "lat": 34.563389,
    "lon": 135.518889,
    "route": "堺東駅前→労災病院前→白鷺駅前（循環）",
    "stop": "金岡口",
    "passTime": "15:32",
    "vehicleType": "南海バス(車椅子・ベビーカー・ノンステップ)",
    "updateTime": "2026/07/21 15:33"
  },
  {
    "vehicleNum": "080807",
    "vehicleCd": "223",
    "vehicleCorpCd": "1",
    "running": true,
    "lat": 34.586583,
    "lon": 135.485194,
    "route": "堺駅西口→錦綾町→堺東駅前",
    "stop": "錦綾橋",
    "passTime": "15:32",
    "vehicleType": "南海バス(車椅子・ベビーカー・ノンステップ)",
    "updateTime": "2026/07/21 15:33"
  },
  {
    "vehicleNum": "080809",
    "vehicleCd": "215",
    "vehicleCorpCd": "1",
    "running": true,
    "lat": 34.582889,
    "lon": 135.511583,
    "route": "河内天美駅前→天美我堂→堺東駅前",
    "stop": "奥本町",
    "passTime": "15:32",
    "vehicleType": "南海バス(車椅子・ベビーカー・ノンステップ)",
    "updateTime": "2026/07/21 15:33"
  },
  {
    "vehicleNum": "080822",
    "vehicleCd": "576",
    "vehicleCorpCd": "1",
    "running": true,
    "lat": 34.521278,
    "lon": 135.523083,
    "route": "深井駅→東山車庫前→北野田駅前",
    "stop": "金山",
    "passTime": "15:31",
    "vehicleType": "南海バス(車椅子・ベビーカー・ノンステップ)",
    "updateTime": "2026/07/21 15:33"
  },
  {
    "vehicleNum": "080825",
    "vehicleCd": "261",
    "vehicleCorpCd": "1",
    "running": true,
    "lat": 34.530083,
    "lon": 135.499194,
    "route": "北野田駅前→福町→深井駅",
    "stop": "畑山",
    "passTime": "15:30",
    "vehicleType": "南海バス(車椅子・ベビーカー・ノンステップ)",
    "updateTime": "2026/07/21 15:33"
  },
  {
    "vehicleNum": "080836",
    "vehicleCd": "268",
    "vehicleCorpCd": "1",
    "running": true,
    "lat": 34.594889,
    "lon": 135.479972,
    "route": "堺東→住之江公園→堺東",
    "stop": "南島町",
    "passTime": "15:31",
    "vehicleType": "南海バス(車椅子・ベビーカー・ノンステップ)",
    "updateTime": "2026/07/21 15:33"
  },
  {
    "vehicleNum": "080837",
    "vehicleCd": "351",
    "vehicleCorpCd": "1",
    "running": true,
    "lat": 34.573778,
    "lon": 135.483778,
    "route": "堺東駅前→堀上緑町１丁→堺東駅前",
    "stop": "一条通",
    "passTime": "15:30",
    "vehicleType": "南海バス(車椅子・ベビーカー・ノンステップ)",
    "updateTime": "2026/07/21 15:33"
  },
  {
    "vehicleNum": "080838",
    "vehicleCd": "129",
    "vehicleCorpCd": "1",
    "running": true,
    "lat": 34.574889,
    "lon": 135.515778,
    "route": "地下鉄北花田駅前→浅香→ＪＲ堺市駅前→地下鉄北花田駅前",
    "stop": "蔵前西",
    "passTime": "15:29",
    "vehicleType": "南海バス(車椅子・ベビーカー・ノンステップ)",
    "updateTime": "2026/07/21 15:33"
  },
  {
    "vehicleNum": "080847",
    "vehicleCd": "583",
    "vehicleCorpCd": "1",
    "running": true,
    "lat": 34.502389,
    "lon": 135.5145,
    "route": "泉ヶ丘駅→三原台左回り→泉ヶ丘駅",
    "stop": "東大谷高校前",
    "passTime": "15:32",
    "vehicleType": "南海バス(車椅子・ベビーカー・ノンステップ)",
    "updateTime": "2026/07/21 15:33"
  },
  {
    "vehicleNum": "080846",
    "vehicleCd": "224",
    "vehicleCorpCd": "1",
    "running": true,
    "lat": 34.497278,
    "lon": 135.5105,
    "route": "金剛駅前→泉ヶ丘駅→近大キャンパス前→金剛駅前",
    "stop": "泉ヶ丘駅（北側）",
    "passTime": "15:32",
    "vehicleType": "南海バス(車椅子・ベビーカー・ノンステップ)",
    "updateTime": "2026/07/21 15:33"
  },
  {
    "vehicleNum": "080850",
    "vehicleCd": "24",
    "vehicleCorpCd": "1",
    "running": true,
    "lat": 34.510278,
    "lon": 135.497278,
    "route": "泉ヶ丘駅→八田荘団地→堺市立総合医療センター前→津久野駅前",
    "stop": "宮山台４丁",
    "passTime": "15:32",
    "vehicleType": "南海バス(車椅子・ベビーカー・ノンステップ)",
    "updateTime": "2026/07/21 15:33"
  },
  {
    "vehicleNum": "080852",
    "vehicleCd": "584",
    "vehicleCorpCd": "1",
    "running": true,
    "lat": 34.496,
    "lon": 135.563778,
    "route": "金剛駅前→向陽・藤沢回り→金剛駅前",
    "stop": "金剛駅前（東側）",
    "passTime": "15:31",
    "vehicleType": "南海バス(車椅子・ベビーカー・ノンステップ)",
    "updateTime": "2026/07/21 15:33"
  },
  {
    "vehicleNum": "080859",
    "vehicleCd": "227",
    "vehicleCorpCd": "1",
    "running": true,
    "lat": 34.593694,
    "lon": 135.458083,
    "route": "阪和堺市駅前→堺東駅前→堺駅西口→匠町→海浜匠町",
    "stop": "塩浜町",
    "passTime": "15:31",
    "vehicleType": "南海バス(車椅子・ベビーカー・ノンステップ)",
    "updateTime": "2026/07/21 15:33"
  },
  {
    "vehicleNum": "080867",
    "vehicleCd": "364",
    "vehicleCorpCd": "1",
    "running": true,
    "lat": 34.494194,
    "lon": 135.518194,
    "route": "金剛駅前→狭山ニュータウンセンター→泉ヶ丘駅",
    "stop": "茶山台２丁",
    "passTime": "15:32",
    "vehicleType": "南海バス(車椅子・ベビーカー・ノンステップ)",
    "updateTime": "2026/07/21 15:33"
  },
  {
    "vehicleNum": "080868",
    "vehicleCd": "237",
    "vehicleCorpCd": "1",
    "running": true,
    "lat": 34.532194,
    "lon": 135.470083,
    "route": "栂・美木多駅→小代→堺市立総合医療センター前→津久野駅前",
    "stop": "毛穴大橋",
    "passTime": "15:32",
    "vehicleType": "南海バス(車椅子・ベビーカー・ノンステップ)",
    "updateTime": "2026/07/21 15:33"
  },
  {
    "vehicleNum": "080874",
    "vehicleCd": "352",
    "vehicleCorpCd": "1",
    "running": true,
    "lat": 34.482972,
    "lon": 135.532,
    "route": "泉ヶ丘駅→槙塚台左回り→泉ヶ丘駅",
    "stop": "槙塚台４丁",
    "passTime": "15:30",
    "vehicleType": "南海バス(車椅子・ベビーカー・ノンステップ)",
    "updateTime": "2026/07/21 15:33"
  },
  {
    "vehicleNum": "080875",
    "vehicleCd": "485",
    "vehicleCorpCd": "1",
    "running": true,
    "lat": 34.507778,
    "lon": 135.489083,
    "route": "泉ヶ丘駅→泉北２号線→堺市立総合医療センター前→津久野駅前",
    "stop": "小代常念寺前",
    "passTime": "15:32",
    "vehicleType": "南海バス(車椅子・ベビーカー・ノンステップ)",
    "updateTime": "2026/07/21 15:33"
  },
  {
    "vehicleNum": "080878",
    "vehicleCd": "368",
    "vehicleCorpCd": "1",
    "running": true,
    "lat": 34.542583,
    "lon": 135.512389,
    "route": "堺駅南口→三国ヶ丘駅前→北野田駅前",
    "stop": "下茶屋",
    "passTime": "15:32",
    "vehicleType": "南海バス(車椅子・ベビーカー・ノンステップ)",
    "updateTime": "2026/07/21 15:33"
  },
  {
    "vehicleNum": "080883",
    "vehicleCd": "361",
    "vehicleCorpCd": "1",
    "running": true,
    "lat": 34.469472,
    "lon": 135.498778,
    "route": "泉ヶ丘駅→庭代台右回り→泉ヶ丘駅",
    "stop": "庭代台２丁",
    "passTime": "15:32",
    "vehicleType": "南海バス(車椅子・ベビーカー・ノンステップ)",
    "updateTime": "2026/07/21 15:33"
  },
  {
    "vehicleNum": "080884",
    "vehicleCd": "116",
    "vehicleCorpCd": "1",
    "running": true,
    "lat": 34.515389,
    "lon": 135.493083,
    "route": "津久野駅前→堺市立総合医療センター前→八田荘団地→泉ヶ丘駅",
    "stop": "天の橋",
    "passTime": "15:31",
    "vehicleType": "南海バス(車椅子・ベビーカー・ノンステップ)",
    "updateTime": "2026/07/21 15:33"
  },
  {
    "vehicleNum": "080905",
    "vehicleCd": "353",
    "vehicleCorpCd": "1",
    "running": true,
    "lat": 34.485,
    "lon": 135.525194,
    "route": "はるみ小学校前→帝塚山学院泉ヶ丘校前→泉ヶ丘駅",
    "stop": "帝塚山学院泉ケ丘校前",
    "passTime": "15:29",
    "vehicleType": "南海バス(車椅子・ベビーカー・ノンステップ)",
    "updateTime": "2026/07/21 15:33"
  },
  {
    "vehicleNum": "080913",
    "vehicleCd": "128",
    "vehicleCorpCd": "1",
    "running": true,
    "lat": 34.565694,
    "lon": 135.515083,
    "route": "堺駅南口→近畿中央呼吸器センター前→労災病院前→阪和堺市駅前",
    "stop": "北区役所前",
    "passTime": "15:28",
    "vehicleType": "南海バス(車椅子・ベビーカー・ノンステップ)",
    "updateTime": "2026/07/21 15:33"
  },
  {
    "vehicleNum": "080918",
    "vehicleCd": "419",
    "vehicleCorpCd": "1",
    "running": true,
    "lat": 34.566889,
    "lon": 135.509889,
    "route": "堺東駅前→労災病院前→白鷺駅前（循環）",
    "stop": "長曽根住宅前",
    "passTime": "15:33",
    "vehicleType": "南海バス(車椅子・ベビーカー・ノンステップ)",
    "updateTime": "2026/07/21 15:33"
  },
  {
    "vehicleNum": "080920",
    "vehicleCd": "327",
    "vehicleCorpCd": "1",
    "running": true,
    "lat": 34.485278,
    "lon": 135.531194,
    "route": "泉ヶ丘駅→晴美台右回り→泉ヶ丘駅",
    "stop": "帝塚山学院泉ケ丘校前",
    "passTime": "15:31",
    "vehicleType": "南海バス(車椅子・ベビーカー・ノンステップ)",
    "updateTime": "2026/07/21 15:33"
  },
  {
    "vehicleNum": "080921",
    "vehicleCd": "143",
    "vehicleCorpCd": "1",
    "running": true,
    "lat": 34.498583,
    "lon": 135.554083,
    "route": "金剛駅前→帝塚山学院泉ヶ丘校前→泉ヶ丘駅前",
    "stop": "北村",
    "passTime": "15:32",
    "vehicleType": "南海バス(車椅子・ベビーカー・ノンステップ)",
    "updateTime": "2026/07/21 15:33"
  },
  {
    "vehicleNum": "080957",
    "vehicleCd": "34",
    "vehicleCorpCd": "1",
    "running": true,
    "lat": 34.636583,
    "lon": 135.414389,
    "route": "堺東駅前→ＡＴＣ→海遊館→堺東駅前",
    "stop": "インテックス大阪東",
    "passTime": "15:28",
    "vehicleType": "南海バス",
    "updateTime": "2026/07/21 15:33"
  },
  {
    "vehicleNum": "080967",
    "vehicleCd": "605",
    "vehicleCorpCd": "1",
    "running": true,
    "lat": 34.5325,
    "lon": 135.569389,
    "route": "初芝駅前→平尾→初芝駅前",
    "stop": "菅生口",
    "passTime": "15:30",
    "vehicleType": "南海バス(車椅子・ベビーカー・ノンステップ)",
    "updateTime": "2026/07/21 15:33"
  },
  {
    "vehicleNum": "080996",
    "vehicleCd": "191",
    "vehicleCorpCd": "1",
    "running": true,
    "lat": 34.526,
    "lon": 135.483,
    "route": "津久野駅前→鈴の宮団地センター→深井駅",
    "stop": "八田北町",
    "passTime": "15:32",
    "vehicleType": "南海バス(車椅子・ベビーカー・ノンステップ)",
    "updateTime": "2026/07/21 15:33"
  },
  {
    "vehicleNum": "080995",
    "vehicleCd": "118",
    "vehicleCorpCd": "1",
    "running": true,
    "lat": 34.484583,
    "lon": 135.491278,
    "route": "泉ヶ丘駅→御池台回り→泉ヶ丘駅",
    "stop": "泉ヶ丘駅（南側）",
    "passTime": "15:25",
    "vehicleType": "南海バス(車椅子・ベビーカー・ノンステップ)",
    "updateTime": "2026/07/21 15:33"
  },
  {
    "vehicleNum": "080999",
    "vehicleCd": "493",
    "vehicleCorpCd": "1",
    "running": true,
    "lat": 34.554472,
    "lon": 135.500583,
    "route": "中もず駅前→北条→伏尾",
    "stop": "中もず駅前（南側）",
    "passTime": "15:30",
    "vehicleType": "南海バス(車椅子・ベビーカー・ノンステップ)",
    "updateTime": "2026/07/21 15:33"
  },
  {
    "vehicleNum": "081004",
    "vehicleCd": "271",
    "vehicleCorpCd": "1",
    "running": true,
    "lat": 34.499472,
    "lon": 135.5035,
    "route": "堺東駅前→上野芝→泉ヶ丘駅",
    "stop": "宮山台中学校前",
    "passTime": "15:32",
    "vehicleType": "南海バス(車椅子・ベビーカー・ノンステップ)",
    "updateTime": "2026/07/21 15:33"
  },
  {
    "vehicleNum": "081005",
    "vehicleCd": "272",
    "vehicleCorpCd": "1",
    "running": true,
    "lat": 34.54,
    "lon": 135.443083,
    "route": "堺市立総合医療センター前→鳳駅前→石津川駅前",
    "stop": "浜寺昭和町南",
    "passTime": "15:31",
    "vehicleType": "南海バス(車椅子・ベビーカー・ノンステップ)",
    "updateTime": "2026/07/21 15:33"
  },
  {
    "vehicleNum": "081013",
    "vehicleCd": "554",
    "vehicleCorpCd": "1",
    "running": true,
    "lat": 34.562194,
    "lon": 135.4745,
    "route": "東山車庫前→小阪→堺東駅前",
    "stop": "旭ヶ丘北町",
    "passTime": "15:33",
    "vehicleType": "南海バス(車椅子・ベビーカー・ノンステップ)",
    "updateTime": "2026/07/21 15:33"
  },
  {
    "vehicleNum": "081008",
    "vehicleCd": "47",
    "vehicleCorpCd": "1",
    "running": true,
    "lat": 34.521694,
    "lon": 135.502083,
    "route": "東山車庫前→小阪→堺東駅前",
    "stop": "桝矢",
    "passTime": "15:32",
    "vehicleType": "南海バス(車椅子・ベビーカー・ノンステップ)",
    "updateTime": "2026/07/21 15:33"
  },
  {
    "vehicleNum": "081007",
    "vehicleCd": "127",
    "vehicleCorpCd": "1",
    "running": true,
    "lat": 34.5435,
    "lon": 135.485694,
    "route": "堺東駅前→上野芝駅前→東山車庫前",
    "stop": "向ヶ丘",
    "passTime": "15:31",
    "vehicleType": "南海バス(車椅子・ベビーカー・ノンステップ)",
    "updateTime": "2026/07/21 15:33"
  },
  {
    "vehicleNum": "081014",
    "vehicleCd": "229",
    "vehicleCorpCd": "1",
    "running": true,
    "lat": 34.5645,
    "lon": 135.492389,
    "route": "北野田駅前→西口園→堺駅南口",
    "stop": "三国ヶ丘駅前",
    "passTime": "15:33",
    "vehicleType": "南海バス(車椅子・ベビーカー・ノンステップ)",
    "updateTime": "2026/07/21 15:33"
  },
  {
    "vehicleNum": "081016",
    "vehicleCd": "239",
    "vehicleCorpCd": "1",
    "running": true,
    "lat": 34.484694,
    "lon": 135.491583,
    "route": "泉ヶ丘駅→御池台回り→泉ヶ丘駅",
    "stop": "栂・美木多駅",
    "passTime": "15:33",
    "vehicleType": "南海バス(車椅子・ベビーカー・ノンステップ)",
    "updateTime": "2026/07/21 15:33"
  },
  {
    "vehicleNum": "081023",
    "vehicleCd": "264",
    "vehicleCorpCd": "1",
    "running": true,
    "lat": 34.530083,
    "lon": 135.497583,
    "route": "堺東駅前→もず駅前→深井駅→あみだ池",
    "stop": "深井水池町",
    "passTime": "15:29",
    "vehicleType": "南海バス(車椅子・ベビーカー・ノンステップ)",
    "updateTime": "2026/07/21 15:33"
  },
  {
    "vehicleNum": "081019",
    "vehicleCd": "267",
    "vehicleCorpCd": "1",
    "running": true,
    "lat": 34.549694,
    "lon": 135.498278,
    "route": "あみだ池→深井駅→もず駅前→堺東駅前",
    "stop": "もず梅町三丁",
    "passTime": "15:32",
    "vehicleType": "南海バス(車椅子・ベビーカー・ノンステップ)",
    "updateTime": "2026/07/21 15:33"
  },
  {
    "vehicleNum": "081021",
    "vehicleCd": "243",
    "vehicleCorpCd": "1",
    "running": true,
    "lat": 34.527889,
    "lon": 135.474083,
    "route": "深井駅→鈴の宮団地→堺市立総合医療センター前→津久野駅前",
    "stop": "毛穴なかよし橋",
    "passTime": "15:33",
    "vehicleType": "南海バス(車椅子・ベビーカー・ノンステップ)",
    "updateTime": "2026/07/21 15:33"
  },
  {
    "vehicleNum": "081020",
    "vehicleCd": "163",
    "vehicleCorpCd": "1",
    "running": true,
    "lat": 34.533083,
    "lon": 135.5195,
    "route": "北野田駅前→福町→堺駅南口",
    "stop": "下草尾",
    "passTime": "15:32",
    "vehicleType": "南海バス(車椅子・ベビーカー・ノンステップ)",
    "updateTime": "2026/07/21 15:33"
  },
  {
    "vehicleNum": "081024",
    "vehicleCd": "270",
    "vehicleCorpCd": "1",
    "running": true,
    "lat": 34.563694,
    "lon": 135.475778,
    "route": "堺東駅前→堀上緑町１丁→堺東駅前",
    "stop": "大仙中町",
    "passTime": "15:33",
    "vehicleType": "南海バス(車椅子・ベビーカー・ノンステップ)",
    "updateTime": "2026/07/21 15:33"
  },
  {
    "vehicleNum": "081036",
    "vehicleCd": "293",
    "vehicleCorpCd": "1",
    "running": true,
    "lat": 34.487778,
    "lon": 135.5315,
    "route": "はるみ小学校前→帝塚山学院泉ヶ丘校前→泉ヶ丘駅",
    "stop": "帝塚山学院泉ケ丘校前",
    "passTime": "15:33",
    "vehicleType": "南海バス(車椅子・ベビーカー・ノンステップ)",
    "updateTime": "2026/07/21 15:33"
  },
  {
    "vehicleNum": "081037",
    "vehicleCd": "236",
    "vehicleCorpCd": "1",
    "running": true,
    "lat": 34.539278,
    "lon": 135.4715,
    "route": "泉ヶ丘駅→八田荘団地→堺市立総合医療センター前→津久野駅前",
    "stop": "堺市立総合医療センター前",
    "passTime": "15:32",
    "vehicleType": "南海バス(車椅子・ベビーカー・ノンステップ)",
    "updateTime": "2026/07/21 15:33"
  },
  {
    "vehicleNum": "081043",
    "vehicleCd": "612",
    "vehicleCorpCd": "1",
    "running": true,
    "lat": 34.498583,
    "lon": 135.532972,
    "route": "泉ヶ丘駅→スマ・エコタウン晴美台→高倉台左回り→泉ヶ丘駅",
    "stop": "スマ・エコタウン晴美台",
    "passTime": "15:30",
    "vehicleType": "南海バス(車椅子・ベビーカー・ノンステップ)",
    "updateTime": "2026/07/21 15:33"
  },
  {
    "vehicleNum": "090103",
    "vehicleCd": "49",
    "vehicleCorpCd": "2",
    "running": true,
    "lat": 34.432889,
    "lon": 135.393278,
    "route": "岸和田駅前→天神山・一の宮循環　左回り→岸和田駅前",
    "stop": "流木",
    "passTime": "15:31",
    "vehicleType": "南海ウイングバス(車椅子・ベビーカー・ワンステップ)",
    "updateTime": "2026/07/21 15:33"
  },
  {
    "vehicleNum": "081044",
    "vehicleCd": "132",
    "vehicleCorpCd": "1",
    "running": true,
    "lat": 34.494778,
    "lon": 135.529889,
    "route": "泉ヶ丘駅→帝塚山学院泉ヶ丘校前→金剛駅前",
    "stop": "晴美台１丁",
    "passTime": "15:33",
    "vehicleType": "南海バス(車椅子・ベビーカー・ノンステップ)",
    "updateTime": "2026/07/21 15:33"
  },
  {
    "vehicleNum": "090160",
    "vehicleCd": "72",
    "vehicleCorpCd": "2",
    "running": true,
    "lat": 34.448778,
    "lon": 135.3855,
    "route": "塔原→上古城→岸和田駅前",
    "stop": "東岸和田駅前",
    "passTime": "15:32",
    "vehicleType": "南海ウイングバス(車椅子・ワンステップ)",
    "updateTime": "2026/07/21 15:33"
  },
  {
    "vehicleNum": "090491",
    "vehicleCd": "50",
    "vehicleCorpCd": "2",
    "running": true,
    "lat": 34.397278,
    "lon": 135.345694,
    "route": "大体→準急→熊取",
    "stop": "熊取西小学校前",
    "passTime": "15:33",
    "vehicleType": "南海ウイングバス(車椅子・ワンステップ)",
    "updateTime": "2026/07/21 15:33"
  },
  {
    "vehicleNum": "090176",
    "vehicleCd": "101",
    "vehicleCorpCd": "2",
    "running": true,
    "lat": 34.412694,
    "lon": 135.298694,
    "route": "イオンモール→ワシントンホテル→イオンモールりんくう泉南",
    "stop": "りんくうタウン駅前（ウイングバス南部）",
    "passTime": "15:31",
    "vehicleType": "南海ウイングバス",
    "updateTime": "2026/07/21 15:33"
  },
  {
    "vehicleNum": "091069",
    "vehicleCd": "245",
    "vehicleCorpCd": "1",
    "running": true,
    "lat": 34.503,
    "lon": 135.449778,
    "route": "北信太駅筋→鶴山台団地→北信太駅筋",
    "stop": "鶴山台南小学校前",
    "passTime": "15:30",
    "vehicleType": "南海バス(車椅子・ベビーカー・ワンステップ)",
    "updateTime": "2026/07/21 15:33"
  },
  {
    "vehicleNum": "091601",
    "vehicleCd": "202",
    "vehicleCorpCd": "1",
    "running": true,
    "lat": 34.421,
    "lon": 135.2225,
    "route": "給油地区→空港駅",
    "stop": "給油地区",
    "passTime": "15:33",
    "vehicleType": "南海バス(車椅子・ノンステップ)",
    "updateTime": "2026/07/21 15:33"
  },
  {
    "vehicleNum": "091581",
    "vehicleCd": "198",
    "vehicleCorpCd": "1",
    "running": true,
    "lat": 34.434083,
    "lon": 135.2375,
    "route": "給油地区→ＦｅｄＥｘ→空港駅",
    "stop": "機内食前",
    "passTime": "15:31",
    "vehicleType": "南海バス(車椅子・ノンステップ)",
    "updateTime": "2026/07/21 15:33"
  },
  {
    "vehicleNum": "091658",
    "vehicleCd": "203",
    "vehicleCorpCd": "1",
    "running": true,
    "lat": 34.426583,
    "lon": 135.2275,
    "route": "空港駅→給油地区",
    "stop": "貨物合同庁舎前",
    "passTime": "15:33",
    "vehicleType": "南海バス(車椅子・ノンステップ)",
    "updateTime": "2026/07/21 15:33"
  },
  {
    "vehicleNum": "091736",
    "vehicleCd": "65",
    "vehicleCorpCd": "2",
    "running": true,
    "lat": 34.406194,
    "lon": 135.417889,
    "route": "岸和田駅前→上古城→河合→白原車庫",
    "stop": "河合",
    "passTime": "15:31",
    "vehicleType": "南海ウイングバス(車椅子・ワンステップ)",
    "updateTime": "2026/07/21 15:33"
  },
  {
    "vehicleNum": "091740",
    "vehicleCd": "105",
    "vehicleCorpCd": "2",
    "running": true,
    "lat": 34.379583,
    "lon": 135.450583,
    "route": "牛滝温泉→内畑→岸和田駅前",
    "stop": "牛滝温泉",
    "passTime": "15:31",
    "vehicleType": "南海ウイングバス(車椅子・ベビーカー・ワンステップ)",
    "updateTime": "2026/07/21 15:33"
  },
  {
    "vehicleNum": "091784",
    "vehicleCd": "119",
    "vehicleCorpCd": "2",
    "running": true,
    "lat": 34.394278,
    "lon": 135.372972,
    "route": "熊取町　自然公園方面循環コース",
    "stop": "小谷",
    "passTime": "15:33",
    "vehicleType": "熊取町コミュニティバス(ジャンプ君号)",
    "updateTime": "2026/07/21 15:33"
  },
  {
    "vehicleNum": "091785",
    "vehicleCd": "120",
    "vehicleCorpCd": "2",
    "running": true,
    "lat": 34.409389,
    "lon": 135.366,
    "route": "熊取町　七山方面循環コース",
    "stop": "熊取ニュータウン",
    "passTime": "15:31",
    "vehicleType": "熊取町コミュニティバス(メジーナちゃん号)",
    "updateTime": "2026/07/21 15:33"
  },
  {
    "vehicleNum": "091895",
    "vehicleCd": "4",
    "vehicleCorpCd": "2",
    "running": true,
    "lat": 34.334389,
    "lon": 135.292,
    "route": "泉南市コミュニティバス 山回り",
    "stop": "西童子",
    "passTime": "15:32",
    "vehicleType": "泉南市コミュニティバス(ピンク)",
    "updateTime": "2026/07/21 15:33"
  },
  {
    "vehicleNum": "092045",
    "vehicleCd": "463",
    "vehicleCorpCd": "1",
    "running": true,
    "lat": 34.428194,
    "lon": 135.571472,
    "route": "ﾓｯｸﾙ 美加～木戸東町～美加",
    "stop": "新町橋",
    "passTime": "15:33",
    "vehicleType": "南海バス(車椅子・ベビーカー・ノンステップ)",
    "updateTime": "2026/07/21 15:33"
  },
  {
    "vehicleNum": "092046",
    "vehicleCd": "464",
    "vehicleCorpCd": "1",
    "running": true,
    "lat": 34.472,
    "lon": 135.571694,
    "route": "ﾓｯｸﾙ 美加～木戸東町～美加",
    "stop": "大阪南医療センター前",
    "passTime": "15:30",
    "vehicleType": "南海バス(車椅子・ベビーカー・ノンステップ)",
    "updateTime": "2026/07/21 15:33"
  },
  {
    "vehicleNum": "092153",
    "vehicleCd": "529",
    "vehicleCorpCd": "1",
    "running": true,
    "lat": 34.434083,
    "lon": 135.232583,
    "route": "エアロプラザ→第２ターミナル(国内線・国際線)→エアロプラザ",
    "stop": "エアロプラザ",
    "passTime": "15:30",
    "vehicleType": "南海バス",
    "updateTime": "2026/07/21 15:33"
  },
  {
    "vehicleNum": "092372",
    "vehicleCd": "159",
    "vehicleCorpCd": "1",
    "running": true,
    "lat": 34.548278,
    "lon": 135.4635,
    "route": "光明池駅→山田→堺東駅前",
    "stop": "下田",
    "passTime": "15:31",
    "vehicleType": "南海バス(車椅子・ベビーカー・ノンステップ)",
    "updateTime": "2026/07/21 15:33"
  },
  {
    "vehicleNum": "092382",
    "vehicleCd": "556",
    "vehicleCorpCd": "1",
    "running": true,
    "lat": 34.466389,
    "lon": 135.463583,
    "route": "光明池駅→光明池車庫→和泉中央駅→泉大津駅前",
    "stop": "和泉中央駅",
    "passTime": "15:27",
    "vehicleType": "南海バス(車椅子・ベビーカー・ノンステップ)",
    "updateTime": "2026/07/21 15:33"
  },
  {
    "vehicleNum": "092394",
    "vehicleCd": "42",
    "vehicleCorpCd": "1",
    "running": true,
    "lat": 34.439194,
    "lon": 135.246389,
    "route": "エアロプラザ→第２ターミナル(国内線・国際線)→エアロプラザ",
    "stop": "第2ターミナル国際線",
    "passTime": "15:27",
    "vehicleType": "南海バス(車椅子・ノンステップ)",
    "updateTime": "2026/07/21 15:33"
  },
  {
    "vehicleNum": "092454",
    "vehicleCd": "125",
    "vehicleCorpCd": "2",
    "running": true,
    "lat": 34.378194,
    "lon": 135.3085,
    "route": "泉南市コミュニティバス 一丘Ｂ回り",
    "stop": "兎田",
    "passTime": "15:33",
    "vehicleType": "泉南市コミュニティバス(橙)",
    "updateTime": "2026/07/21 15:33"
  },
  {
    "vehicleNum": "092468",
    "vehicleCd": "51",
    "vehicleCorpCd": "1",
    "running": true,
    "lat": 34.451083,
    "lon": 135.552889,
    "route": "千代田駅前→赤峯→緑ヶ丘北町",
    "stop": "福祉センターあかみね",
    "passTime": "15:32",
    "vehicleType": "南海バス(車椅子・ベビーカー・ノンステップ)",
    "updateTime": "2026/07/21 15:33"
  },
  {
    "vehicleNum": "092482",
    "vehicleCd": "528",
    "vehicleCorpCd": "1",
    "running": true,
    "lat": 34.431583,
    "lon": 135.558889,
    "route": "三日市町駅前→南花台１丁目北→大矢船西町",
    "stop": "南花台１丁目南",
    "passTime": "15:33",
    "vehicleType": "南海バス(車椅子・ベビーカー・ノンステップ)",
    "updateTime": "2026/07/21 15:33"
  },
  {
    "vehicleNum": "092502",
    "vehicleCd": "140",
    "vehicleCorpCd": "2",
    "running": true,
    "lat": 34.467889,
    "lon": 135.398778,
    "route": "ローズバス　右回り",
    "stop": "総合体育館前",
    "passTime": "15:30",
    "vehicleType": "岸和田市コミュニティバス(ローズバス)",
    "updateTime": "2026/07/21 15:33"
  },
  {
    "vehicleNum": "092503",
    "vehicleCd": "146",
    "vehicleCorpCd": "2",
    "running": true,
    "lat": 34.4835,
    "lon": 135.393472,
    "route": "ローズバス　左回り",
    "stop": "府営吉井住宅前",
    "passTime": "15:30",
    "vehicleType": "岸和田市コミュニティバス(ローズバス)",
    "updateTime": "2026/07/21 15:33"
  },
  {
    "vehicleNum": "092561",
    "vehicleCd": "74",
    "vehicleCorpCd": "1",
    "running": true,
    "lat": 34.494278,
    "lon": 135.577778,
    "route": "PL病院→金剛駅前（東側）→津々山台2丁目→PL病院",
    "stop": "津々山台２丁目",
    "passTime": "15:32",
    "vehicleType": "南海バス(車椅子・ベビーカー・ノンステップ)",
    "updateTime": "2026/07/21 15:33"
  },
  {
    "vehicleNum": "092578",
    "vehicleCd": "147",
    "vehicleCorpCd": "1",
    "running": true,
    "lat": 34.411694,
    "lon": 135.563083,
    "route": "南ヶ丘→南花台４丁目→三日市町駅前",
    "stop": "南ヶ丘",
    "passTime": "15:33",
    "vehicleType": "南海バス(車椅子・ベビーカー・ノンステップ)",
    "updateTime": "2026/07/21 15:33"
  },
  {
    "vehicleNum": "092581",
    "vehicleCd": "375",
    "vehicleCorpCd": "1",
    "running": true,
    "lat": 34.476194,
    "lon": 135.488,
    "route": "堺東駅前→鳳駅前→国分峠東",
    "stop": "美木多",
    "passTime": "15:33",
    "vehicleType": "南海バス(車椅子・ベビーカー・ノンステップ)",
    "updateTime": "2026/07/21 15:33"
  },
  {
    "vehicleNum": "092647",
    "vehicleCd": "587",
    "vehicleCorpCd": "1",
    "running": true,
    "lat": 34.428778,
    "lon": 135.530278,
    "route": "旭→天野山→長野",
    "stop": "天野山",
    "passTime": "15:32",
    "vehicleType": "南海バス(車椅子・ベビーカー・ノンステップ)",
    "updateTime": "2026/07/21 15:33"
  },
  {
    "vehicleNum": "092711",
    "vehicleCd": "355",
    "vehicleCorpCd": "1",
    "running": true,
    "lat": 34.470583,
    "lon": 135.475694,
    "route": "光明池駅→変電所前→公団西口→光明池車庫",
    "stop": "光明池駅",
    "passTime": "15:30",
    "vehicleType": "南海バス(車椅子・ベビーカー・ノンステップ)",
    "updateTime": "2026/07/21 15:33"
  },
  {
    "vehicleNum": "092758",
    "vehicleCd": "363",
    "vehicleCorpCd": "1",
    "running": true,
    "lat": 34.426583,
    "lon": 135.570389,
    "route": "三日市町駅前→南青葉台→三日市町駅前",
    "stop": "北青葉台",
    "passTime": "15:33",
    "vehicleType": "南海バス(車椅子・ベビーカー・ノンステップ)",
    "updateTime": "2026/07/21 15:33"
  },
  {
    "vehicleNum": "092763",
    "vehicleCd": "520",
    "vehicleCorpCd": "1",
    "running": true,
    "lat": 34.473889,
    "lon": 135.486889,
    "route": "光明池駅→城山台２丁→光明池駅",
    "stop": "城山台一丁",
    "passTime": "15:32",
    "vehicleType": "南海バス(車椅子・ベビーカー・ノンステップ)",
    "updateTime": "2026/07/21 15:33"
  },
  {
    "vehicleNum": "092829",
    "vehicleCd": "488",
    "vehicleCorpCd": "1",
    "running": true,
    "lat": 34.473889,
    "lon": 135.477083,
    "route": "光明池駅→城山台５丁→光明池車庫→光明池駅",
    "stop": "光明池駅",
    "passTime": "15:31",
    "vehicleType": "南海バス(車椅子・ベビーカー・ノンステップ)",
    "updateTime": "2026/07/21 15:33"
  },
  {
    "vehicleNum": "092831",
    "vehicleCd": "417",
    "vehicleCorpCd": "1",
    "running": true,
    "lat": 34.446,
    "lon": 135.462194,
    "route": "和泉中央駅→はつが野→和泉青葉台→和泉中央駅（左回り）",
    "stop": "はつが野二丁目",
    "passTime": "15:32",
    "vehicleType": "南海バス(車椅子・ベビーカー・ノンステップ)",
    "updateTime": "2026/07/21 15:33"
  },
  {
    "vehicleNum": "092856",
    "vehicleCd": "601",
    "vehicleCorpCd": "1",
    "running": true,
    "lat": 34.574583,
    "lon": 135.484,
    "route": "堺東駅前→鳳駅前→国分峠東",
    "stop": "堺東駅前",
    "passTime": "15:32",
    "vehicleType": "南海バス(車椅子・ベビーカー・ノンステップ)",
    "updateTime": "2026/07/21 15:33"
  },
  {
    "vehicleNum": "092858",
    "vehicleCd": "320",
    "vehicleCorpCd": "1",
    "running": true,
    "lat": 34.5495,
    "lon": 135.464083,
    "route": "堺東駅前→鳳駅前→光明池駅",
    "stop": "神石市之町",
    "passTime": "15:33",
    "vehicleType": "南海バス(車椅子・ベビーカー・ノンステップ)",
    "updateTime": "2026/07/21 15:33"
  },
  {
    "vehicleNum": "092859",
    "vehicleCd": "32",
    "vehicleCorpCd": "1",
    "running": true,
    "lat": 34.439972,
    "lon": 135.578472,
    "route": "河内長野駅前→河合寺→小吹台",
    "stop": "東中学校前（河内長野市）",
    "passTime": "15:32",
    "vehicleType": "南海バス(車椅子・ベビーカー・ノンステップ)",
    "updateTime": "2026/07/21 15:33"
  },
  {
    "vehicleNum": "092900",
    "vehicleCd": "604",
    "vehicleCorpCd": "1",
    "running": true,
    "lat": 34.489083,
    "lon": 135.466194,
    "route": "光明池駅→山田→堺東駅前",
    "stop": "檜尾山北",
    "passTime": "15:32",
    "vehicleType": "南海バス(車椅子・ベビーカー・ノンステップ)",
    "updateTime": "2026/07/21 15:33"
  },
  {
    "vehicleNum": "092913",
    "vehicleCd": "154",
    "vehicleCorpCd": "1",
    "running": true,
    "lat": 34.460083,
    "lon": 135.455194,
    "route": "和泉中央駅→テクノステージセンター前→グリーンポリス前→和泉中央駅",
    "stop": "和泉中央駅",
    "passTime": "15:32",
    "vehicleType": "南海バス(車椅子・ベビーカー・ノンステップ)",
    "updateTime": "2026/07/21 15:33"
  },
  {
    "vehicleNum": "092872",
    "vehicleCd": "500",
    "vehicleCorpCd": "1",
    "running": true,
    "lat": 34.474278,
    "lon": 135.438278,
    "route": "和泉中央駅→医療センター玄関口→和泉府中駅前",
    "stop": "弥生町一丁目",
    "passTime": "15:33",
    "vehicleType": "南海バス(車椅子・ベビーカー・ノンステップ)",
    "updateTime": "2026/07/21 15:33"
  },
  {
    "vehicleNum": "092901",
    "vehicleCd": "356",
    "vehicleCorpCd": "1",
    "running": true,
    "lat": 34.532778,
    "lon": 135.463194,
    "route": "堺東駅前→鳳駅前→栂・美木多駅",
    "stop": "西堺警察署前",
    "passTime": "15:32",
    "vehicleType": "南海バス(車椅子・ベビーカー・ノンステップ)",
    "updateTime": "2026/07/21 15:33"
  },
  {
    "vehicleNum": "092918",
    "vehicleCd": "114",
    "vehicleCorpCd": "1",
    "running": true,
    "lat": 34.436583,
    "lon": 135.464472,
    "route": "和泉中央駅→和泉青葉台→はつが野→和泉中央駅（右回り）",
    "stop": "南松尾はつが野学園前",
    "passTime": "15:32",
    "vehicleType": "南海バス(車椅子・ベビーカー・ノンステップ)",
    "updateTime": "2026/07/21 15:33"
  },
  {
    "vehicleNum": "092916",
    "vehicleCd": "235",
    "vehicleCorpCd": "1",
    "running": true,
    "lat": 34.487583,
    "lon": 135.424,
    "route": "和泉中央駅→寺田→泉大津駅前",
    "stop": "和泉市役所前",
    "passTime": "15:28",
    "vehicleType": "南海バス(車椅子・ベビーカー・ノンステップ)",
    "updateTime": "2026/07/21 15:33"
  },
  {
    "vehicleNum": "092917",
    "vehicleCd": "40",
    "vehicleCorpCd": "1",
    "running": true,
    "lat": 34.436083,
    "lon": 135.551694,
    "route": "河内長野駅前→奥河内くろまろの郷→滝畑ダム",
    "stop": "高向公民館前",
    "passTime": "15:30",
    "vehicleType": "南海バス(車椅子・ベビーカー・ノンステップ)",
    "updateTime": "2026/07/21 15:33"
  },
  {
    "vehicleNum": "092948",
    "vehicleCd": "606",
    "vehicleCorpCd": "1",
    "running": true,
    "lat": 34.53,
    "lon": 135.462694,
    "route": "栂・美木多駅→鳳駅前→堺東駅前",
    "stop": "長承寺",
    "passTime": "15:33",
    "vehicleType": "南海バス(車椅子・ベビーカー・ノンステップ)",
    "updateTime": "2026/07/21 15:33"
  },
  {
    "vehicleNum": "092937",
    "vehicleCd": "73",
    "vehicleCorpCd": "1",
    "running": true,
    "lat": 34.475472,
    "lon": 135.488389,
    "route": "国分峠東→栂・美木多駅→堺東駅前",
    "stop": "城",
    "passTime": "15:31",
    "vehicleType": "南海バス(車椅子・ベビーカー・ノンステップ)",
    "updateTime": "2026/07/21 15:33"
  },
  {
    "vehicleNum": "092950",
    "vehicleCd": "257",
    "vehicleCorpCd": "1",
    "running": true,
    "lat": 34.439889,
    "lon": 135.449778,
    "route": "和泉中央駅→テクノステージセンター前→グリーンポリス前→和泉中央駅",
    "stop": "ららぽーと和泉前",
    "passTime": "15:31",
    "vehicleType": "南海バス(車椅子・ベビーカー・ノンステップ)",
    "updateTime": "2026/07/21 15:33"
  },
  {
    "vehicleNum": "092952",
    "vehicleCd": "113",
    "vehicleCorpCd": "1",
    "running": true,
    "lat": 34.480083,
    "lon": 135.430389,
    "route": "和泉府中駅前→医療センター玄関口→和泉中央駅",
    "stop": "福祉会館前",
    "passTime": "15:32",
    "vehicleType": "南海バス(車椅子・ベビーカー・ノンステップ)",
    "updateTime": "2026/07/21 15:33"
  },
  {
    "vehicleNum": "092974",
    "vehicleCd": "260",
    "vehicleCorpCd": "1",
    "running": true,
    "lat": 34.471583,
    "lon": 135.454,
    "route": "泉大津駅前→和泉府中駅前→和泉中央駅→光明池駅",
    "stop": "鳥池",
    "passTime": "15:32",
    "vehicleType": "南海バス(車椅子・ベビーカー・ノンステップ)",
    "updateTime": "2026/07/21 15:33"
  },
  {
    "vehicleNum": "092975",
    "vehicleCd": "115",
    "vehicleCorpCd": "1",
    "running": true,
    "lat": 34.559889,
    "lon": 135.4725,
    "route": "国分峠東→栂・美木多駅→堺東駅前",
    "stop": "塩穴通",
    "passTime": "15:33",
    "vehicleType": "南海バス(車椅子・ベビーカー・ノンステップ)",
    "updateTime": "2026/07/21 15:33"
  },
  {
    "vehicleNum": "092976",
    "vehicleCd": "138",
    "vehicleCorpCd": "1",
    "running": true,
    "lat": 34.502472,
    "lon": 135.4065,
    "route": "和泉中央駅→阪本→泉大津駅前",
    "stop": "旭町",
    "passTime": "15:31",
    "vehicleType": "南海バス(車椅子・ベビーカー・ノンステップ)",
    "updateTime": "2026/07/21 15:33"
  },
  {
    "vehicleNum": "092978",
    "vehicleCd": "325",
    "vehicleCorpCd": "1",
    "running": true,
    "lat": 34.505694,
    "lon": 135.466278,
    "route": "堺東駅前→鳳駅前→光明池駅",
    "stop": "南山田",
    "passTime": "15:32",
    "vehicleType": "南海バス(車椅子・ベビーカー・ノンステップ)",
    "updateTime": "2026/07/21 15:33"
  },
  {
    "vehicleNum": "093003",
    "vehicleCd": "111",
    "vehicleCorpCd": "1",
    "running": true,
    "lat": 34.4805,
    "lon": 135.474778,
    "route": "泉ヶ丘駅→光明池駅→赤坂台４丁→光明池駅→泉ヶ丘駅",
    "stop": "新檜尾台センター",
    "passTime": "15:33",
    "vehicleType": "南海バス(車椅子・ベビーカー・ノンステップ)",
    "updateTime": "2026/07/21 15:33"
  },
  {
    "vehicleNum": "093011",
    "vehicleCd": "27",
    "vehicleCorpCd": "1",
    "running": true,
    "lat": 34.442778,
    "lon": 135.252583,
    "route": "関空展望ホール→旅客ターミナル→関空展望ホール",
    "stop": "旅客ターミナル",
    "passTime": "15:30",
    "vehicleType": "南海バス(車椅子・ベビーカー・ノンステップ)",
    "updateTime": "2026/07/21 15:33"
  },
  {
    "vehicleNum": "093035",
    "vehicleCd": "609",
    "vehicleCorpCd": "1",
    "running": true,
    "lat": 34.438083,
    "lon": 135.232694,
    "route": "エアロプラザ→第２ターミナル(国内線・国際線)→エアロプラザ",
    "stop": "第2ターミナル国内線",
    "passTime": "15:32",
    "vehicleType": "南海バス",
    "updateTime": "2026/07/21 15:33"
  },
  {
    "vehicleNum": "093071",
    "vehicleCd": "274",
    "vehicleCorpCd": "1",
    "running": true,
    "lat": 34.485,
    "lon": 135.424389,
    "route": "泉大津駅前→和泉府中駅前→和泉中央駅",
    "stop": "泉大津急性期メディカルセンター前",
    "passTime": "15:29",
    "vehicleType": "南海バス(車椅子・ベビーカー・ノンステップ)",
    "updateTime": "2026/07/21 15:33"
  },
  {
    "vehicleNum": "093074",
    "vehicleCd": "247",
    "vehicleCorpCd": "1",
    "running": true,
    "lat": 34.449083,
    "lon": 135.457778,
    "route": "美術館前→のぞみ野南→和泉中央駅",
    "stop": "内田上",
    "passTime": "15:31",
    "vehicleType": "南海バス(車椅子・ベビーカー・ノンステップ)",
    "updateTime": "2026/07/21 15:33"
  }
]