[
  {
    "vehicleNum": "070107",
    "vehicleCd": "405",
    "vehicleCorpCd": "1",
    "running": true,
    "lat": 34.500889,
    "lon": 135.5415,
    "route": "金剛駅前→泉ヶ丘駅→近大キャンパス前→金剛駅前",
    "stop": "金剛駅前（西側）",
    "passTime": "09:15",
    "vehicleType": "泉北コミュニティバス(車椅子・ベビーカー・ノンステップ)",
    "updateTime": "2026/07/21 09:23"
  },
  {
    "vehicleNum": "071117",
    "vehicleCd": "251",
    "vehicleCorpCd": "1",
    "running": true,
    "lat": 34.595194,
    "lon": 135.462389,
    "route": "堺東駅前→錦綾町→堺駅西口",
    "stop": "八幡町",
    "passTime": "09:21",
    "vehicleType": "南海バス(車椅子・ベビーカー・ワンステップ)",
    "updateTime": "2026/07/21 09:23"
  },
  {
    "vehicleNum": "071604",
    "vehicleCd": "217",
    "vehicleCorpCd": "1",
    "running": true,
    "lat": 34.574583,
    "lon": 135.481,
    "route": "堺東駅前→大小路→堺駅前",
    "stop": "堺市役所前",
    "passTime": "09:21",
    "vehicleType": "堺シャトル(車椅子・ベビーカー・ノンステップ)",
    "updateTime": "2026/07/21 09:23"
  },
  {
    "vehicleNum": "071607",
    "vehicleCd": "414",
    "vehicleCorpCd": "1",
    "running": true,
    "lat": 34.579694,
    "lon": 135.472778,
    "route": "堺駅前→大小路→堺東駅前",
    "stop": "市小学校前",
    "passTime": "09:22",
    "vehicleType": "堺シャトル(車椅子・ベビーカー・ノンステップ)",
    "updateTime": "2026/07/21 09:23"
  },
  {
    "vehicleNum": "080088",
    "vehicleCd": "442",
    "vehicleCorpCd": "1",
    "running": true,
    "lat": 34.497889,
    "lon": 135.571083,
    "route": "金剛駅前→向陽・藤沢回り→金剛駅前",
    "stop": "公園前",
    "passTime": "09:21",
    "vehicleType": "南海バス(車椅子・ベビーカー・ワンステップ)",
    "updateTime": "2026/07/21 09:23"
  },
  {
    "vehicleNum": "080187",
    "vehicleCd": "66",
    "vehicleCorpCd": "1",
    "running": true,
    "lat": 34.574889,
    "lon": 135.550694,
    "route": "河内松原駅前→阪和堺市駅前→堺東駅前",
    "stop": "河内松原駅前",
    "passTime": "09:20",
    "vehicleType": "南海バス(車椅子・ベビーカー・ノンステップ)",
    "updateTime": "2026/07/21 09:23"
  },
  {
    "vehicleNum": "080180",
    "vehicleCd": "68",
    "vehicleCorpCd": "2",
    "running": true,
    "lat": 34.427389,
    "lon": 135.407,
    "route": "岸和田駅前→上古城→河合→白原車庫",
    "stop": "下垣内",
    "passTime": "09:23",
    "vehicleType": "南海ウイングバス(車椅子・ベビーカー・ワンステップ)",
    "updateTime": "2026/07/21 09:23"
  },
  {
    "vehicleNum": "080268",
    "vehicleCd": "114",
    "vehicleCorpCd": "2",
    "running": true,
    "lat": 34.389389,
    "lon": 135.354,
    "route": "つばさが丘北口→大阪体育大学前→熊取駅前→ダンバラ公園前→泉佐野駅前",
    "stop": "熊取団地",
    "passTime": "09:22",
    "vehicleType": "南海ウイングバス(車椅子・ベビーカー・ノンステップ)",
    "updateTime": "2026/07/21 09:23"
  },
  {
    "vehicleNum": "080315",
    "vehicleCd": "80",
    "vehicleCorpCd": "1",
    "running": true,
    "lat": 34.594583,
    "lon": 135.458472,
    "route": "海浜匠町→匠町→堺駅西口→堺東駅前→阪和堺市駅前",
    "stop": "匠町",
    "passTime": "09:18",
    "vehicleType": "南海バス(車椅子・ベビーカー・ワンステップ)",
    "updateTime": "2026/07/21 09:23"
  },
  {
    "vehicleNum": "080319",
    "vehicleCd": "84",
    "vehicleCorpCd": "1",
    "running": true,
    "lat": 34.603583,
    "lon": 135.454778,
    "route": "住之江公園駅前→匠町",
    "stop": "松屋大和川通",
    "passTime": "09:21",
    "vehicleType": "南海バス(車椅子・ベビーカー・ワンステップ)",
    "updateTime": "2026/07/21 09:23"
  },
  {
    "vehicleNum": "080322",
    "vehicleCd": "116",
    "vehicleCorpCd": "2",
    "running": true,
    "lat": 34.408083,
    "lon": 135.321583,
    "route": "犬鳴山→日根野駅前→野々地蔵北→泉佐野駅前",
    "stop": "市場",
    "passTime": "09:20",
    "vehicleType": "南海ウイングバス(車椅子・ワンステップ)",
    "updateTime": "2026/07/21 09:23"
  },
  {
    "vehicleNum": "080340",
    "vehicleCd": "131",
    "vehicleCorpCd": "2",
    "running": true,
    "lat": 34.407389,
    "lon": 135.322472,
    "route": "大阪体育大学前→熊取駅前→ダンバラ公園前→泉佐野駅前",
    "stop": "泉佐野市役所前",
    "passTime": "09:18",
    "vehicleType": "南海ウイングバス(車椅子・ベビーカー・ワンステップ)",
    "updateTime": "2026/07/21 09:23"
  },
  {
    "vehicleNum": "080381",
    "vehicleCd": "88",
    "vehicleCorpCd": "1",
    "running": true,
    "lat": 34.621,
    "lon": 135.434583,
    "route": "堺東駅前→ＡＴＣ／フェリー→堺東駅前",
    "stop": "ポートタウン東",
    "passTime": "09:19",
    "vehicleType": "南海バス(車椅子・ワンステップ)",
    "updateTime": "2026/07/21 09:23"
  },
  {
    "vehicleNum": "080384",
    "vehicleCd": "444",
    "vehicleCorpCd": "1",
    "running": true,
    "lat": 34.5815,
    "lon": 135.469889,
    "route": "堺東駅前→ＡＴＣ→堺東駅前",
    "stop": "堺駅前",
    "passTime": "09:16",
    "vehicleType": "南海バス(車椅子・ワンステップ)",
    "updateTime": "2026/07/21 09:23"
  },
  {
    "vehicleNum": "080628",
    "vehicleCd": "445",
    "vehicleCorpCd": "1",
    "running": true,
    "lat": 34.558583,
    "lon": 135.533194,
    "route": "地下鉄新金岡駅前→野遠→美原区役所",
    "stop": "八下中学校前",
    "passTime": "09:23",
    "vehicleType": "南海バス(車椅子・ベビーカー・ノンステップ)",
    "updateTime": "2026/07/21 09:23"
  },
  {
    "vehicleNum": "080629",
    "vehicleCd": "447",
    "vehicleCorpCd": "1",
    "running": true,
    "lat": 34.559778,
    "lon": 135.5255,
    "route": "美原区役所→野遠→地下鉄新金岡駅前",
    "stop": "大泉緑地前",
    "passTime": "09:23",
    "vehicleType": "南海バス(車椅子・ベビーカー・ノンステップ)",
    "updateTime": "2026/07/21 09:23"
  },
  {
    "vehicleNum": "080644",
    "vehicleCd": "452",
    "vehicleCorpCd": "1",
    "running": true,
    "lat": 34.547389,
    "lon": 135.522278,
    "route": "堺駅南口→中もず団地前→初芝駅前",
    "stop": "引野",
    "passTime": "09:22",
    "vehicleType": "南海バス(車椅子・ベビーカー・ノンステップ)",
    "updateTime": "2026/07/21 09:23"
  },
  {
    "vehicleNum": "080651",
    "vehicleCd": "455",
    "vehicleCorpCd": "1",
    "running": true,
    "lat": 34.523583,
    "lon": 135.542083,
    "route": "北野田駅前→菩提→地下鉄新金岡駅前",
    "stop": "北野田駅前",
    "passTime": "09:20",
    "vehicleType": "南海バス",
    "updateTime": "2026/07/21 09:23"
  },
  {
    "vehicleNum": "080652",
    "vehicleCd": "456",
    "vehicleCorpCd": "1",
    "running": true,
    "lat": 34.552389,
    "lon": 135.541889,
    "route": "美原区役所→初芝駅前→美原区役所",
    "stop": "石原",
    "passTime": "09:22",
    "vehicleType": "南海バス",
    "updateTime": "2026/07/21 09:23"
  },
  {
    "vehicleNum": "080706",
    "vehicleCd": "543",
    "vehicleCorpCd": "1",
    "running": true,
    "lat": 34.575083,
    "lon": 135.528583,
    "route": "堺駅前→堺東駅前→河内松原駅前",
    "stop": "南花田町東",
    "passTime": "09:23",
    "vehicleType": "南海バス(車椅子・ベビーカー・ノンステップ)",
    "updateTime": "2026/07/21 09:23"
  },
  {
    "vehicleNum": "080697",
    "vehicleCd": "461",
    "vehicleCorpCd": "1",
    "running": true,
    "lat": 34.589,
    "lon": 135.529278,
    "route": "河内天美駅前→天美我堂→堺東駅前",
    "stop": "天美西",
    "passTime": "09:23",
    "vehicleType": "南海バス",
    "updateTime": "2026/07/21 09:23"
  },
  {
    "vehicleNum": "080707",
    "vehicleCd": "544",
    "vehicleCorpCd": "1",
    "running": true,
    "lat": 34.5655,
    "lon": 135.492889,
    "route": "堺東駅前→労災病院前→白鷺駅前（循環）",
    "stop": "細池橋",
    "passTime": "09:20",
    "vehicleType": "南海バス(車椅子・ベビーカー・ノンステップ)",
    "updateTime": "2026/07/21 09:23"
  },
  {
    "vehicleNum": "080744",
    "vehicleCd": "550",
    "vehicleCorpCd": "1",
    "running": true,
    "lat": 34.477389,
    "lon": 135.491583,
    "route": "栂・美木多駅→庭代台左回り→栂・美木多駅",
    "stop": "原山台３丁",
    "passTime": "09:22",
    "vehicleType": "南海バス(車椅子・ベビーカー・ノンステップ)",
    "updateTime": "2026/07/21 09:23"
  },
  {
    "vehicleNum": "080741",
    "vehicleCd": "549",
    "vehicleCorpCd": "1",
    "running": true,
    "lat": 34.569194,
    "lon": 135.483278,
    "route": "北野田駅前→西口園→堺駅南口",
    "stop": "一条通",
    "passTime": "09:23",
    "vehicleType": "南海バス(車椅子・ベビーカー・ノンステップ)",
    "updateTime": "2026/07/21 09:23"
  },
  {
    "vehicleNum": "080740",
    "vehicleCd": "181",
    "vehicleCorpCd": "1",
    "running": true,
    "lat": 34.56,
    "lon": 135.494278,
    "route": "北野田駅前→福町→堺駅南口",
    "stop": "梅北町",
    "passTime": "09:21",
    "vehicleType": "南海バス(車椅子・ベビーカー・ノンステップ)",
    "updateTime": "2026/07/21 09:23"
  },
  {
    "vehicleNum": "080746",
    "vehicleCd": "395",
    "vehicleCorpCd": "1",
    "running": true,
    "lat": 34.506278,
    "lon": 135.581694,
    "route": "金剛駅前→向陽・藤沢回り→金剛駅前",
    "stop": "向陽台２丁目",
    "passTime": "09:23",
    "vehicleType": "南海バス(車椅子・ベビーカー・ノンステップ)",
    "updateTime": "2026/07/21 09:23"
  },
  {
    "vehicleNum": "080745",
    "vehicleCd": "57",
    "vehicleCorpCd": "1",
    "running": true,
    "lat": 34.499778,
    "lon": 135.564389,
    "route": "金剛駅前→高辺台小学校前→金剛駅前",
    "stop": "久野喜台小学校前",
    "passTime": "09:23",
    "vehicleType": "南海バス(車椅子・ベビーカー・ノンステップ)",
    "updateTime": "2026/07/21 09:23"
  },
  {
    "vehicleNum": "080747",
    "vehicleCd": "161",
    "vehicleCorpCd": "1",
    "running": true,
    "lat": 34.574778,
    "lon": 135.513778,
    "route": "地下鉄北花田駅前→蔵前西→ＪＲ堺市駅前→地下鉄北花田駅前",
    "stop": "蔵前西",
    "passTime": "09:22",
    "vehicleType": "南海バス(車椅子・ベビーカー・ノンステップ)",
    "updateTime": "2026/07/21 09:23"
  },
  {
    "vehicleNum": "080753",
    "vehicleCd": "552",
    "vehicleCorpCd": "1",
    "running": true,
    "lat": 34.490083,
    "lon": 135.499194,
    "route": "泉ヶ丘駅→鉢ヶ峯→泉ヶ丘駅",
    "stop": "豊田南",
    "passTime": "09:23",
    "vehicleType": "南海バス(車椅子・ベビーカー・ノンステップ)",
    "updateTime": "2026/07/21 09:23"
  },
  {
    "vehicleNum": "080751",
    "vehicleCd": "551",
    "vehicleCorpCd": "1",
    "running": true,
    "lat": 34.539583,
    "lon": 135.538778,
    "route": "中もず駅前→初芝駅前→船戸下→美原区役所前",
    "stop": "原寺",
    "passTime": "09:23",
    "vehicleType": "南海バス(車椅子・ベビーカー・ノンステップ)",
    "updateTime": "2026/07/21 09:23"
  },
  {
    "vehicleNum": "080756",
    "vehicleCd": "315",
    "vehicleCorpCd": "1",
    "running": true,
    "lat": 34.499,
    "lon": 135.530889,
    "route": "金剛駅前→帝塚山学院泉ヶ丘校前→泉ヶ丘駅前",
    "stop": "堺東高校前",
    "passTime": "09:22",
    "vehicleType": "南海バス(車椅子・ベビーカー・ノンステップ)",
    "updateTime": "2026/07/21 09:23"
  },
  {
    "vehicleNum": "080761",
    "vehicleCd": "560",
    "vehicleCorpCd": "1",
    "running": true,
    "lat": 34.570778,
    "lon": 135.480278,
    "route": "河内松原駅前→阪和堺市駅前→堺駅前",
    "stop": "一条通",
    "passTime": "09:23",
    "vehicleType": "南海バス(車椅子・ベビーカー・ノンステップ)",
    "updateTime": "2026/07/21 09:23"
  },
  {
    "vehicleNum": "080762",
    "vehicleCd": "561",
    "vehicleCorpCd": "1",
    "running": true,
    "lat": 34.574778,
    "lon": 135.513889,
    "route": "河内松原駅前→阪和堺市駅前→堺駅前",
    "stop": "蔵前西",
    "passTime": "09:22",
    "vehicleType": "南海バス(車椅子・ベビーカー・ノンステップ)",
    "updateTime": "2026/07/21 09:23"
  },
  {
    "vehicleNum": "080767",
    "vehicleCd": "566",
    "vehicleCorpCd": "1",
    "running": true,
    "lat": 34.522778,
    "lon": 135.542194,
    "route": "北野田駅前→福町→深井駅→鳳駅前",
    "stop": "北野田駅前",
    "passTime": "09:21",
    "vehicleType": "南海バス(車椅子・ベビーカー・ノンステップ)",
    "updateTime": "2026/07/21 09:23"
  },
  {
    "vehicleNum": "080789",
    "vehicleCd": "300",
    "vehicleCorpCd": "1",
    "running": true,
    "lat": 34.5785,
    "lon": 135.474778,
    "route": "堺駅西口→南島町→堺東駅前",
    "stop": "大小路",
    "passTime": "09:22",
    "vehicleType": "南海バス(車椅子・ベビーカー・ノンステップ)",
    "updateTime": "2026/07/21 09:23"
  },
  {
    "vehicleNum": "080788",
    "vehicleCd": "299",
    "vehicleCorpCd": "1",
    "running": true,
    "lat": 34.566194,
    "lon": 135.4965,
    "route": "堺東駅前→労災病院前→白鷺駅前（循環）",
    "stop": "向陵中町",
    "passTime": "09:22",
    "vehicleType": "南海バス(車椅子・ベビーカー・ノンステップ)",
    "updateTime": "2026/07/21 09:23"
  },
  {
    "vehicleNum": "080790",
    "vehicleCd": "106",
    "vehicleCorpCd": "1",
    "running": true,
    "lat": 34.567278,
    "lon": 135.5075,
    "route": "堺駅南口→労災病院前→阪和堺市駅前",
    "stop": "長曽根町",
    "passTime": "09:23",
    "vehicleType": "南海バス(車椅子・ベビーカー・ノンステップ)",
    "updateTime": "2026/07/21 09:23"
  },
  {
    "vehicleNum": "080793",
    "vehicleCd": "112",
    "vehicleCorpCd": "1",
    "running": true,
    "lat": 34.566,
    "lon": 135.514889,
    "route": "地下鉄新金岡駅前→労災病院前→近畿中央呼吸器センター前→堺駅南口",
    "stop": "地下鉄新金岡駅前",
    "passTime": "09:22",
    "vehicleType": "南海バス(車椅子・ベビーカー・ノンステップ)",
    "updateTime": "2026/07/21 09:23"
  },
  {
    "vehicleNum": "080794",
    "vehicleCd": "344",
    "vehicleCorpCd": "1",
    "running": true,
    "lat": 34.570083,
    "lon": 135.465083,
    "route": "堺駅前→堺駅南口",
    "stop": "御陵前",
    "passTime": "09:22",
    "vehicleType": "南海バス(車椅子・ベビーカー・ノンステップ)",
    "updateTime": "2026/07/21 09:23"
  },
  {
    "vehicleNum": "080796",
    "vehicleCd": "108",
    "vehicleCorpCd": "1",
    "running": true,
    "lat": 34.538278,
    "lon": 135.560583,
    "route": "中もず駅前→初芝駅前→船戸下→美原区役所前",
    "stop": "船戸下",
    "passTime": "09:22",
    "vehicleType": "南海バス(車椅子・ベビーカー・ノンステップ)",
    "updateTime": "2026/07/21 09:23"
  },
  {
    "vehicleNum": "080795",
    "vehicleCd": "43",
    "vehicleCorpCd": "1",
    "running": true,
    "lat": 34.590583,
    "lon": 135.477,
    "route": "堺東→住之江公園→堺東",
    "stop": "内川橋",
    "passTime": "09:22",
    "vehicleType": "南海バス(車椅子・ベビーカー・ノンステップ)",
    "updateTime": "2026/07/21 09:23"
  },
  {
    "vehicleNum": "080807",
    "vehicleCd": "223",
    "vehicleCorpCd": "1",
    "running": true,
    "lat": 34.569889,
    "lon": 135.480889,
    "route": "鳳駅前→堺東駅前",
    "stop": "一条通",
    "passTime": "09:22",
    "vehicleType": "南海バス(車椅子・ベビーカー・ノンステップ)",
    "updateTime": "2026/07/21 09:23"
  },
  {
    "vehicleNum": "080822",
    "vehicleCd": "576",
    "vehicleCorpCd": "1",
    "running": true,
    "lat": 34.557694,
    "lon": 135.475194,
    "route": "堺東駅前→上野芝→泉ヶ丘駅",
    "stop": "塩穴通",
    "passTime": "09:21",
    "vehicleType": "南海バス(車椅子・ベビーカー・ノンステップ)",
    "updateTime": "2026/07/21 09:23"
  },
  {
    "vehicleNum": "080809",
    "vehicleCd": "215",
    "vehicleCorpCd": "1",
    "running": true,
    "lat": 34.5705,
    "lon": 135.466278,
    "route": "堺駅前→堺駅南口",
    "stop": "御陵前",
    "passTime": "09:23",
    "vehicleType": "南海バス(車椅子・ベビーカー・ノンステップ)",
    "updateTime": "2026/07/21 09:23"
  },
  {
    "vehicleNum": "080814",
    "vehicleCd": "193",
    "vehicleCorpCd": "1",
    "running": true,
    "lat": 34.488,
    "lon": 135.522889,
    "route": "泉ヶ丘駅→晴美台右回り→泉ヶ丘駅",
    "stop": "茶山台南口",
    "passTime": "09:22",
    "vehicleType": "南海バス(車椅子・ベビーカー・ノンステップ)",
    "updateTime": "2026/07/21 09:23"
  },
  {
    "vehicleNum": "080827",
    "vehicleCd": "317",
    "vehicleCorpCd": "1",
    "running": true,
    "lat": 34.538278,
    "lon": 135.560889,
    "route": "美原区役所前→船戸下→初芝駅前→中もず駅前",
    "stop": "美原区役所前",
    "passTime": "09:21",
    "vehicleType": "南海バス(車椅子・ベビーカー・ノンステップ)",
    "updateTime": "2026/07/21 09:23"
  },
  {
    "vehicleNum": "080826",
    "vehicleCd": "152",
    "vehicleCorpCd": "1",
    "running": true,
    "lat": 34.530694,
    "lon": 135.5045,
    "route": "堺東駅前→もず駅前→深井駅→あみだ池",
    "stop": "深井水池町",
    "passTime": "09:22",
    "vehicleType": "南海バス(車椅子・ベビーカー・ノンステップ)",
    "updateTime": "2026/07/21 09:23"
  },
  {
    "vehicleNum": "080835",
    "vehicleCd": "310",
    "vehicleCorpCd": "1",
    "running": true,
    "lat": 34.495694,
    "lon": 135.562083,
    "route": "金剛駅前→寺池台小学校前→金剛駅前",
    "stop": "金剛駅前（東側）",
    "passTime": "09:22",
    "vehicleType": "南海バス(車椅子・ベビーカー・ノンステップ)",
    "updateTime": "2026/07/21 09:23"
  },
  {
    "vehicleNum": "080837",
    "vehicleCd": "351",
    "vehicleCorpCd": "1",
    "running": true,
    "lat": 34.521278,
    "lon": 135.493194,
    "route": "堺東駅前→上野芝駅前→東山車庫前",
    "stop": "小阪",
    "passTime": "09:22",
    "vehicleType": "南海バス(車椅子・ベビーカー・ノンステップ)",
    "updateTime": "2026/07/21 09:23"
  },
  {
    "vehicleNum": "080851",
    "vehicleCd": "439",
    "vehicleCorpCd": "1",
    "running": true,
    "lat": 34.498583,
    "lon": 135.554083,
    "route": "金剛駅前→狭山ニュータウンセンター→泉ヶ丘駅",
    "stop": "北村",
    "passTime": "09:23",
    "vehicleType": "南海バス(車椅子・ベビーカー・ノンステップ)",
    "updateTime": "2026/07/21 09:23"
  },
  {
    "vehicleNum": "080852",
    "vehicleCd": "584",
    "vehicleCorpCd": "1",
    "running": true,
    "lat": 34.4985,
    "lon": 135.561778,
    "route": "金剛駅前→高辺台小学校前→金剛駅前",
    "stop": "金剛駅前（東側）",
    "passTime": "09:21",
    "vehicleType": "南海バス(車椅子・ベビーカー・ノンステップ)",
    "updateTime": "2026/07/21 09:23"
  },
  {
    "vehicleNum": "080847",
    "vehicleCd": "583",
    "vehicleCorpCd": "1",
    "running": true,
    "lat": 34.493,
    "lon": 135.501778,
    "route": "泉ヶ丘駅→泉北２号線→堺市立総合医療センター前→津久野駅前",
    "stop": "竹城台３丁",
    "passTime": "09:22",
    "vehicleType": "南海バス(車椅子・ベビーカー・ノンステップ)",
    "updateTime": "2026/07/21 09:23"
  },
  {
    "vehicleNum": "080850",
    "vehicleCd": "24",
    "vehicleCorpCd": "1",
    "running": true,
    "lat": 34.499472,
    "lon": 135.544,
    "route": "泉ヶ丘駅→帝塚山学院泉ヶ丘校前→金剛駅前",
    "stop": "狭山西小学校前",
    "passTime": "09:22",
    "vehicleType": "南海バス(車椅子・ベビーカー・ノンステップ)",
    "updateTime": "2026/07/21 09:23"
  },
  {
    "vehicleNum": "080854",
    "vehicleCd": "17",
    "vehicleCorpCd": "1",
    "running": true,
    "lat": 34.572694,
    "lon": 135.460194,
    "route": "堺駅南口→堺駅前",
    "stop": "出島",
    "passTime": "09:23",
    "vehicleType": "南海バス(車椅子・ベビーカー・ノンステップ)",
    "updateTime": "2026/07/21 09:23"
  },
  {
    "vehicleNum": "080855",
    "vehicleCd": "16",
    "vehicleCorpCd": "1",
    "running": true,
    "lat": 34.484583,
    "lon": 135.537389,
    "route": "金剛駅前→狭山ニュータウンセンター→泉ヶ丘駅",
    "stop": "大野台六丁目",
    "passTime": "09:23",
    "vehicleType": "南海バス(車椅子・ベビーカー・ノンステップ)",
    "updateTime": "2026/07/21 09:23"
  },
  {
    "vehicleNum": "080856",
    "vehicleCd": "358",
    "vehicleCorpCd": "1",
    "running": true,
    "lat": 34.4925,
    "lon": 135.5435,
    "route": "泉ヶ丘駅→狭山ニュータウンセンター→金剛駅前",
    "stop": "今熊",
    "passTime": "09:22",
    "vehicleType": "南海バス(車椅子・ベビーカー・ワンステップ)",
    "updateTime": "2026/07/21 09:23"
  },
  {
    "vehicleNum": "080857",
    "vehicleCd": "226",
    "vehicleCorpCd": "1",
    "running": true,
    "lat": 34.578278,
    "lon": 135.484,
    "route": "堺東駅前→河内松原駅前",
    "stop": "瓦町公園前",
    "passTime": "09:19",
    "vehicleType": "南海バス(車椅子・ベビーカー・ノンステップ)",
    "updateTime": "2026/07/21 09:23"
  },
  {
    "vehicleNum": "080858",
    "vehicleCd": "225",
    "vehicleCorpCd": "1",
    "running": true,
    "lat": 34.554694,
    "lon": 135.510778,
    "route": "美原区役所前→船戸下→初芝駅前→中もず駅前",
    "stop": "蟻ヶ池",
    "passTime": "09:22",
    "vehicleType": "南海バス(車椅子・ベビーカー・ノンステップ)",
    "updateTime": "2026/07/21 09:23"
  },
  {
    "vehicleNum": "080859",
    "vehicleCd": "227",
    "vehicleCorpCd": "1",
    "running": true,
    "lat": 34.582889,
    "lon": 135.509389,
    "route": "堺東駅前→錦綾町→河内天美駅前",
    "stop": "浅香山住宅前",
    "passTime": "09:23",
    "vehicleType": "南海バス(車椅子・ベビーカー・ノンステップ)",
    "updateTime": "2026/07/21 09:23"
  },
  {
    "vehicleNum": "080870",
    "vehicleCd": "153",
    "vehicleCorpCd": "1",
    "running": true,
    "lat": 34.553778,
    "lon": 135.512472,
    "route": "堺東駅前→労災病院前→白鷺駅前（循環）",
    "stop": "白鷺駅前",
    "passTime": "09:21",
    "vehicleType": "南海バス(車椅子・ベビーカー・ノンステップ)",
    "updateTime": "2026/07/21 09:23"
  },
  {
    "vehicleNum": "080873",
    "vehicleCd": "144",
    "vehicleCorpCd": "1",
    "running": true,
    "lat": 34.473083,
    "lon": 135.501389,
    "route": "栂・美木多駅→庭代台右回り→泉ヶ丘駅",
    "stop": "庭代台３丁",
    "passTime": "09:22",
    "vehicleType": "南海バス(車椅子・ベビーカー・ノンステップ)",
    "updateTime": "2026/07/21 09:23"
  },
  {
    "vehicleNum": "080878",
    "vehicleCd": "368",
    "vehicleCorpCd": "1",
    "running": true,
    "lat": 34.555083,
    "lon": 135.501,
    "route": "堺駅南口→福町→北野田駅前",
    "stop": "中もず駅前（南側）",
    "passTime": "09:21",
    "vehicleType": "南海バス(車椅子・ベビーカー・ノンステップ)",
    "updateTime": "2026/07/21 09:23"
  },
  {
    "vehicleNum": "080879",
    "vehicleCd": "359",
    "vehicleCorpCd": "1",
    "running": true,
    "lat": 34.530278,
    "lon": 135.495278,
    "route": "津久野駅前→鈴の宮団地センター→深井駅",
    "stop": "八田荘団地",
    "passTime": "09:21",
    "vehicleType": "南海バス(車椅子・ベビーカー・ノンステップ)",
    "updateTime": "2026/07/21 09:23"
  },
  {
    "vehicleNum": "080883",
    "vehicleCd": "361",
    "vehicleCorpCd": "1",
    "running": true,
    "lat": 34.467278,
    "lon": 135.496389,
    "route": "栂・美木多駅→御池台回り→泉ヶ丘駅",
    "stop": "庭代台１丁南",
    "passTime": "09:22",
    "vehicleType": "南海バス(車椅子・ベビーカー・ノンステップ)",
    "updateTime": "2026/07/21 09:23"
  },
  {
    "vehicleNum": "080882",
    "vehicleCd": "343",
    "vehicleCorpCd": "1",
    "running": true,
    "lat": 34.502778,
    "lon": 135.491,
    "route": "津久野駅前→堺市立総合医療センター前→泉北２号線→泉ヶ丘駅",
    "stop": "小代",
    "passTime": "09:21",
    "vehicleType": "南海バス(車椅子・ベビーカー・ノンステップ)",
    "updateTime": "2026/07/21 09:23"
  },
  {
    "vehicleNum": "080895",
    "vehicleCd": "167",
    "vehicleCorpCd": "1",
    "running": true,
    "lat": 34.5385,
    "lon": 135.542389,
    "route": "北野田駅前→多治井北（循環）→北野田駅前",
    "stop": "余部西口",
    "passTime": "09:22",
    "vehicleType": "南海バス(車椅子・ベビーカー・ノンステップ)",
    "updateTime": "2026/07/21 09:23"
  },
  {
    "vehicleNum": "080894",
    "vehicleCd": "350",
    "vehicleCorpCd": "1",
    "running": true,
    "lat": 34.545778,
    "lon": 135.555,
    "route": "美原区役所→初芝駅前→美原区役所",
    "stop": "下黒山西",
    "passTime": "09:21",
    "vehicleType": "南海バス(車椅子・ベビーカー・ノンステップ)",
    "updateTime": "2026/07/21 09:23"
  },
  {
    "vehicleNum": "080902",
    "vehicleCd": "76",
    "vehicleCorpCd": "1",
    "running": true,
    "lat": 34.576889,
    "lon": 135.495583,
    "route": "【急行】阪和堺市駅前→海浜匠町",
    "stop": "阪和堺市駅前",
    "passTime": "09:21",
    "vehicleType": "南海バス(車椅子・ベビーカー・ワンステップ)",
    "updateTime": "2026/07/21 09:23"
  },
  {
    "vehicleNum": "080904",
    "vehicleCd": "362",
    "vehicleCorpCd": "1",
    "running": true,
    "lat": 34.5215,
    "lon": 135.498694,
    "route": "東山車庫前→小阪→堺東駅前",
    "stop": "桝矢",
    "passTime": "09:22",
    "vehicleType": "南海バス(車椅子・ベビーカー・ノンステップ)",
    "updateTime": "2026/07/21 09:23"
  },
  {
    "vehicleNum": "080913",
    "vehicleCd": "128",
    "vehicleCorpCd": "1",
    "running": true,
    "lat": 34.5705,
    "lon": 135.474083,
    "route": "堺駅南口→堺駅前",
    "stop": "栄泰橋",
    "passTime": "09:22",
    "vehicleType": "南海バス(車椅子・ベビーカー・ノンステップ)",
    "updateTime": "2026/07/21 09:23"
  },
  {
    "vehicleNum": "080917",
    "vehicleCd": "70",
    "vehicleCorpCd": "1",
    "running": true,
    "lat": 34.458389,
    "lon": 135.504583,
    "route": "栂・美木多駅→御池台回り→栂・美木多駅",
    "stop": "御池台５丁",
    "passTime": "09:23",
    "vehicleType": "南海バス(車椅子・ベビーカー・ノンステップ)",
    "updateTime": "2026/07/21 09:23"
  },
  {
    "vehicleNum": "080927",
    "vehicleCd": "79",
    "vehicleCorpCd": "1",
    "running": true,
    "lat": 34.488,
    "lon": 135.522389,
    "route": "泉ヶ丘駅→ハーベストの丘",
    "stop": "泉ヶ丘駅（南側）",
    "passTime": "09:20",
    "vehicleType": "南海バス(車椅子・ベビーカー・ノンステップ)",
    "updateTime": "2026/07/21 09:23"
  },
  {
    "vehicleNum": "080920",
    "vehicleCd": "327",
    "vehicleCorpCd": "1",
    "running": true,
    "lat": 34.495389,
    "lon": 135.516583,
    "route": "泉ヶ丘駅→狭山ニュータウンセンター→金剛駅前",
    "stop": "泉ヶ丘駅（南側）",
    "passTime": "09:22",
    "vehicleType": "南海バス(車椅子・ベビーカー・ノンステップ)",
    "updateTime": "2026/07/21 09:23"
  },
  {
    "vehicleNum": "080921",
    "vehicleCd": "143",
    "vehicleCorpCd": "1",
    "running": true,
    "lat": 34.495194,
    "lon": 135.517889,
    "route": "泉ヶ丘駅→晴美台右回り→泉ヶ丘駅",
    "stop": "茶山台２丁",
    "passTime": "09:21",
    "vehicleType": "南海バス(車椅子・ベビーカー・ノンステップ)",
    "updateTime": "2026/07/21 09:23"
  },
  {
    "vehicleNum": "080934",
    "vehicleCd": "594",
    "vehicleCorpCd": "1",
    "running": true,
    "lat": 34.595194,
    "lon": 135.458694,
    "route": "堺駅西口→錦綾町→堺東駅前",
    "stop": "八幡町",
    "passTime": "09:20",
    "vehicleType": "南海バス(車椅子・ベビーカー・ノンステップ)",
    "updateTime": "2026/07/21 09:23"
  },
  {
    "vehicleNum": "080937",
    "vehicleCd": "595",
    "vehicleCorpCd": "1",
    "running": true,
    "lat": 34.572889,
    "lon": 135.476889,
    "route": "堺駅南口→三国ヶ丘駅前→北野田駅前",
    "stop": "安井町",
    "passTime": "09:22",
    "vehicleType": "南海バス(車椅子・ベビーカー・ノンステップ)",
    "updateTime": "2026/07/21 09:23"
  },
  {
    "vehicleNum": "080951",
    "vehicleCd": "597",
    "vehicleCorpCd": "1",
    "running": true,
    "lat": 34.482278,
    "lon": 135.532,
    "route": "泉ヶ丘駅→槙塚台右回り→泉ヶ丘駅",
    "stop": "槙塚台４丁",
    "passTime": "09:22",
    "vehicleType": "南海バス(車椅子・ベビーカー・ノンステップ)",
    "updateTime": "2026/07/21 09:23"
  },
  {
    "vehicleNum": "080967",
    "vehicleCd": "605",
    "vehicleCorpCd": "1",
    "running": true,
    "lat": 34.536083,
    "lon": 135.553278,
    "route": "初芝駅前→平尾→初芝駅前",
    "stop": "農芸高校前",
    "passTime": "09:22",
    "vehicleType": "南海バス(車椅子・ベビーカー・ノンステップ)",
    "updateTime": "2026/07/21 09:23"
  },
  {
    "vehicleNum": "080957",
    "vehicleCd": "34",
    "vehicleCorpCd": "1",
    "running": true,
    "lat": 34.627389,
    "lon": 135.421278,
    "route": "堺東駅前→ＡＴＣ→堺東駅前",
    "stop": "堺駅前",
    "passTime": "08:58",
    "vehicleType": "南海バス",
    "updateTime": "2026/07/21 09:23"
  },
  {
    "vehicleNum": "080978",
    "vehicleCd": "431",
    "vehicleCorpCd": "1",
    "running": true,
    "lat": 34.537278,
    "lon": 135.515972,
    "route": "堺駅南口→福町→北野田駅前",
    "stop": "新家町",
    "passTime": "09:22",
    "vehicleType": "南海バス(車椅子・ベビーカー・ノンステップ)",
    "updateTime": "2026/07/21 09:23"
  },
  {
    "vehicleNum": "080989",
    "vehicleCd": "259",
    "vehicleCorpCd": "1",
    "running": true,
    "lat": 34.541083,
    "lon": 135.469583,
    "route": "堺東駅前→堀上緑町１丁→堺東駅前",
    "stop": "津久野駅前",
    "passTime": "09:22",
    "vehicleType": "南海バス(車椅子・ベビーカー・ノンステップ)",
    "updateTime": "2026/07/21 09:23"
  },
  {
    "vehicleNum": "080999",
    "vehicleCd": "493",
    "vehicleCorpCd": "1",
    "running": true,
    "lat": 34.548694,
    "lon": 135.507778,
    "route": "北野田駅前→西口園→堺駅南口",
    "stop": "府大研究所前",
    "passTime": "09:21",
    "vehicleType": "南海バス(車椅子・ベビーカー・ノンステップ)",
    "updateTime": "2026/07/21 09:23"
  },
  {
    "vehicleNum": "081003",
    "vehicleCd": "610",
    "vehicleCorpCd": "1",
    "running": true,
    "lat": 34.523,
    "lon": 135.537583,
    "route": "北野田駅前→福町→堺駅南口",
    "stop": "大美野噴水前",
    "passTime": "09:23",
    "vehicleType": "南海バス(車椅子・ベビーカー・ノンステップ)",
    "updateTime": "2026/07/21 09:23"
  },
  {
    "vehicleNum": "081013",
    "vehicleCd": "554",
    "vehicleCorpCd": "1",
    "running": true,
    "lat": 34.521889,
    "lon": 135.506778,
    "route": "深井駅→東山車庫前→北野田駅前",
    "stop": "東山",
    "passTime": "09:22",
    "vehicleType": "南海バス(車椅子・ベビーカー・ノンステップ)",
    "updateTime": "2026/07/21 09:23"
  },
  {
    "vehicleNum": "081007",
    "vehicleCd": "127",
    "vehicleCorpCd": "1",
    "running": true,
    "lat": 34.554083,
    "lon": 135.47,
    "route": "東山車庫前→小阪→堺東駅前",
    "stop": "南陵通１丁",
    "passTime": "09:21",
    "vehicleType": "南海バス(車椅子・ベビーカー・ノンステップ)",
    "updateTime": "2026/07/21 09:23"
  },
  {
    "vehicleNum": "081021",
    "vehicleCd": "243",
    "vehicleCorpCd": "1",
    "running": true,
    "lat": 34.552,
    "lon": 135.499389,
    "route": "中もず駅前→北条→堺市立総合医療センター前",
    "stop": "中もず駅前（南側）",
    "passTime": "09:20",
    "vehicleType": "南海バス(車椅子・ベビーカー・ノンステップ)",
    "updateTime": "2026/07/21 09:23"
  },
  {
    "vehicleNum": "081018",
    "vehicleCd": "263",
    "vehicleCorpCd": "1",
    "running": true,
    "lat": 34.531889,
    "lon": 135.507083,
    "route": "あみだ池→深井駅→もず駅前→堺東駅前",
    "stop": "深井東町",
    "passTime": "09:22",
    "vehicleType": "南海バス(車椅子・ベビーカー・ノンステップ)",
    "updateTime": "2026/07/21 09:23"
  },
  {
    "vehicleNum": "081024",
    "vehicleCd": "270",
    "vehicleCorpCd": "1",
    "running": true,
    "lat": 34.555972,
    "lon": 135.4795,
    "route": "泉ヶ丘駅→宮山台中学校前→堺東駅前",
    "stop": "上野芝",
    "passTime": "09:21",
    "vehicleType": "南海バス(車椅子・ベビーカー・ノンステップ)",
    "updateTime": "2026/07/21 09:23"
  },
  {
    "vehicleNum": "081044",
    "vehicleCd": "132",
    "vehicleCorpCd": "1",
    "running": true,
    "lat": 34.535083,
    "lon": 135.479583,
    "route": "泉ヶ丘駅→八田荘団地→堺市立総合医療センター前→津久野駅前",
    "stop": "深井西口",
    "passTime": "09:22",
    "vehicleType": "南海バス(車椅子・ベビーカー・ノンステップ)",
    "updateTime": "2026/07/21 09:23"
  },
  {
    "vehicleNum": "081043",
    "vehicleCd": "612",
    "vehicleCorpCd": "1",
    "running": true,
    "lat": 34.497194,
    "lon": 135.510389,
    "route": "泉ヶ丘駅→三原台左回り→泉ヶ丘駅",
    "stop": "泉ヶ丘駅（北側）",
    "passTime": "09:23",
    "vehicleType": "南海バス(車椅子・ベビーカー・ノンステップ)",
    "updateTime": "2026/07/21 09:23"
  },
  {
    "vehicleNum": "081037",
    "vehicleCd": "236",
    "vehicleCorpCd": "1",
    "running": true,
    "lat": 34.495778,
    "lon": 135.535083,
    "route": "泉ヶ丘駅→スマ・エコタウン晴美台→高倉台右回り→泉ヶ丘駅",
    "stop": "スマ・エコタウン晴美台",
    "passTime": "09:22",
    "vehicleType": "南海バス(車椅子・ベビーカー・ノンステップ)",
    "updateTime": "2026/07/21 09:23"
  },
  {
    "vehicleNum": "082245",
    "vehicleCd": "438",
    "vehicleCorpCd": "1",
    "running": true,
    "lat": 34.580389,
    "lon": 135.4755,
    "route": "堺東駅前→ＡＴＣ→堺東駅前",
    "stop": "堺駅前",
    "passTime": "09:19",
    "vehicleType": "南海バス",
    "updateTime": "2026/07/21 09:23"
  },
  {
    "vehicleNum": "090103",
    "vehicleCd": "49",
    "vehicleCorpCd": "2",
    "running": true,
    "lat": 34.4615,
    "lon": 135.439389,
    "route": "岸和田駅前→徳洲会病院→和泉中央駅",
    "stop": "摩湯",
    "passTime": "09:21",
    "vehicleType": "南海ウイングバス(車椅子・ベビーカー・ワンステップ)",
    "updateTime": "2026/07/21 09:23"
  },
  {
    "vehicleNum": "090104",
    "vehicleCd": "53",
    "vehicleCorpCd": "2",
    "running": true,
    "lat": 34.441583,
    "lon": 135.394583,
    "route": "白原車庫→河合→上古城→岸和田駅前",
    "stop": "神須屋",
    "passTime": "09:22",
    "vehicleType": "南海ウイングバス(車椅子・ベビーカー・ワンステップ)",
    "updateTime": "2026/07/21 09:23"
  },
  {
    "vehicleNum": "090279",
    "vehicleCd": "16",
    "vehicleCorpCd": "2",
    "running": true,
    "lat": 34.400389,
    "lon": 135.356694,
    "route": "熊取町　自然公園方面循環コース",
    "stop": "教育子どもセンター前",
    "passTime": "09:22",
    "vehicleType": "南海ウイングバス(車椅子)",
    "updateTime": "2026/07/21 09:23"
  },
  {
    "vehicleNum": "090766",
    "vehicleCd": "137",
    "vehicleCorpCd": "2",
    "running": true,
    "lat": 34.408278,
    "lon": 135.324083,
    "route": "泉佐野駅前→ダンバラ公園前→熊取駅前→大阪体育大学前→つばさが丘北口",
    "stop": "上町１丁目",
    "passTime": "09:19",
    "vehicleType": "南海ウイングバス(車椅子・ワンステップ)",
    "updateTime": "2026/07/21 09:23"
  },
  {
    "vehicleNum": "091186",
    "vehicleCd": "106",
    "vehicleCorpCd": "2",
    "running": true,
    "lat": 34.457778,
    "lon": 135.381472,
    "route": "白原車庫→内畑→岸和田駅前",
    "stop": "岸和田警察署前",
    "passTime": "09:20",
    "vehicleType": "南海ウイングバス(車椅子・ベビーカー・ワンステップ)",
    "updateTime": "2026/07/21 09:23"
  },
  {
    "vehicleNum": "091147",
    "vehicleCd": "255",
    "vehicleCorpCd": "1",
    "running": true,
    "lat": 34.5065,
    "lon": 135.444778,
    "route": "北信太駅筋→鶴山台団地→北信太駅筋",
    "stop": "太町",
    "passTime": "09:23",
    "vehicleType": "南海バス(車椅子・ベビーカー・ワンステップ)",
    "updateTime": "2026/07/21 09:23"
  },
  {
    "vehicleNum": "091381",
    "vehicleCd": "330",
    "vehicleCorpCd": "1",
    "running": true,
    "lat": 34.451083,
    "lon": 135.491889,
    "route": "みずき台２丁目西→光明池駅",
    "stop": "光明台三丁目",
    "passTime": "09:23",
    "vehicleType": "南海バス(車椅子・ベビーカー・ワンステップ)",
    "updateTime": "2026/07/21 09:23"
  },
  {
    "vehicleNum": "091580",
    "vehicleCd": "85",
    "vehicleCorpCd": "2",
    "running": true,
    "lat": 34.357,
    "lon": 135.280083,
    "route": "泉南市コミュニティバス 山回り",
    "stop": "府立支援学校前（正門）",
    "passTime": "09:22",
    "vehicleType": "南海ウイングバス(車椅子・ベビーカー・ノンステップ)",
    "updateTime": "2026/07/21 09:23"
  },
  {
    "vehicleNum": "091658",
    "vehicleCd": "203",
    "vehicleCorpCd": "1",
    "running": true,
    "lat": 34.4225,
    "lon": 135.224889,
    "route": "空港駅→ＦｅｄＥｘ→給油地区",
    "stop": "ANA車輌整備工場前",
    "passTime": "09:23",
    "vehicleType": "南海バス(車椅子・ノンステップ)",
    "updateTime": "2026/07/21 09:23"
  },
  {
    "vehicleNum": "091737",
    "vehicleCd": "48",
    "vehicleCorpCd": "2",
    "running": true,
    "lat": 34.426278,
    "lon": 135.429694,
    "route": "和泉中央駅→包近→道の駅愛彩ランド",
    "stop": "職業能力開発大学",
    "passTime": "09:23",
    "vehicleType": "南海ウイングバス(車椅子・ベビーカー・ワンステップ)",
    "updateTime": "2026/07/21 09:23"
  },
  {
    "vehicleNum": "091736",
    "vehicleCd": "65",
    "vehicleCorpCd": "2",
    "running": true,
    "lat": 34.408194,
    "lon": 135.321583,
    "route": "泉佐野駅前→泉陽ヶ丘→熊取駅前→山の手台→小谷→熊取駅前→泉陽ヶ丘→泉佐野駅前",
    "stop": "上町１丁目",
    "passTime": "09:22",
    "vehicleType": "南海ウイングバス(車椅子・ワンステップ)",
    "updateTime": "2026/07/21 09:23"
  },
  {
    "vehicleNum": "091740",
    "vehicleCd": "105",
    "vehicleCorpCd": "2",
    "running": true,
    "lat": 34.472389,
    "lon": 135.392278,
    "route": "和泉中央駅→徳洲会病院→岸和田駅前",
    "stop": "徳洲会病院",
    "passTime": "09:23",
    "vehicleType": "南海ウイングバス(車椅子・ベビーカー・ワンステップ)",
    "updateTime": "2026/07/21 09:23"
  },
  {
    "vehicleNum": "091744",
    "vehicleCd": "148",
    "vehicleCorpCd": "2",
    "running": true,
    "lat": 34.448583,
    "lon": 135.383972,
    "route": "岸和田駅前→天神山・一の宮循環　左回り→岸和田駅前",
    "stop": "岸和田警察署前",
    "passTime": "09:18",
    "vehicleType": "南海ウイングバス(車椅子・ベビーカー・ワンステップ)",
    "updateTime": "2026/07/21 09:23"
  },
  {
    "vehicleNum": "091745",
    "vehicleCd": "103",
    "vehicleCorpCd": "2",
    "running": true,
    "lat": 34.448778,
    "lon": 135.3855,
    "route": "岸和田駅前→天神山・一の宮循環　右回り→岸和田駅前",
    "stop": "東岸和田駅前",
    "passTime": "09:23",
    "vehicleType": "南海ウイングバス",
    "updateTime": "2026/07/21 09:23"
  },
  {
    "vehicleNum": "091792",
    "vehicleCd": "59",
    "vehicleCorpCd": "1",
    "running": true,
    "lat": 34.424778,
    "lon": 135.225583,
    "route": "空港駅→給油地区",
    "stop": "浄化センター前",
    "passTime": "09:23",
    "vehicleType": "南海バス(車椅子・ノンステップ)",
    "updateTime": "2026/07/21 09:23"
  },
  {
    "vehicleNum": "091785",
    "vehicleCd": "120",
    "vehicleCorpCd": "2",
    "running": true,
    "lat": 34.4065,
    "lon": 135.359389,
    "route": "熊取町　七山方面循環コース",
    "stop": "自由が丘",
    "passTime": "09:23",
    "vehicleType": "熊取町コミュニティバス(メジーナちゃん号)",
    "updateTime": "2026/07/21 09:23"
  },
  {
    "vehicleNum": "091746",
    "vehicleCd": "8",
    "vehicleCorpCd": "2",
    "running": true,
    "lat": 34.385083,
    "lon": 135.334,
    "route": "泉佐野駅前→野々地蔵北→日根野駅前→犬鳴山",
    "stop": "新道出",
    "passTime": "09:23",
    "vehicleType": "南海ウイングバス(車椅子・ベビーカー・ワンステップ)",
    "updateTime": "2026/07/21 09:23"
  },
  {
    "vehicleNum": "091895",
    "vehicleCd": "4",
    "vehicleCorpCd": "2",
    "running": true,
    "lat": 34.374389,
    "lon": 135.297389,
    "route": "泉南市コミュニティバス 一丘Ａ回り",
    "stop": "新家駅筋",
    "passTime": "09:22",
    "vehicleType": "泉南市コミュニティバス(ピンク)",
    "updateTime": "2026/07/21 09:23"
  },
  {
    "vehicleNum": "091894",
    "vehicleCd": "3",
    "vehicleCorpCd": "2",
    "running": true,
    "lat": 34.372583,
    "lon": 135.2655,
    "route": "泉南市コミュニティバス 新家回り",
    "stop": "前畑団地西",
    "passTime": "09:23",
    "vehicleType": "泉南市コミュニティバス(紫)",
    "updateTime": "2026/07/21 09:23"
  },
  {
    "vehicleNum": "091910",
    "vehicleCd": "441",
    "vehicleCorpCd": "1",
    "running": true,
    "lat": 34.438083,
    "lon": 135.245583,
    "route": "エアロプラザ→第２ターミナル(国内線・国際線)→エアロプラザ",
    "stop": "第2ターミナル国際線",
    "passTime": "09:19",
    "vehicleType": "南海バス(車椅子・ノンステップ)",
    "updateTime": "2026/07/21 09:23"
  },
  {
    "vehicleNum": "092045",
    "vehicleCd": "463",
    "vehicleCorpCd": "1",
    "running": true,
    "lat": 34.468083,
    "lon": 135.566583,
    "route": "ﾓｯｸﾙ 美加～木戸東町～美加",
    "stop": "千代田南町",
    "passTime": "09:20",
    "vehicleType": "南海バス(車椅子・ベビーカー・ノンステップ)",
    "updateTime": "2026/07/21 09:23"
  },
  {
    "vehicleNum": "092046",
    "vehicleCd": "464",
    "vehicleCorpCd": "1",
    "running": true,
    "lat": 34.436583,
    "lon": 135.570694,
    "route": "ﾓｯｸﾙ 美加～木戸東町～美加",
    "stop": "加賀田口",
    "passTime": "09:21",
    "vehicleType": "南海バス(車椅子・ベビーカー・ノンステップ)",
    "updateTime": "2026/07/21 09:23"
  },
  {
    "vehicleNum": "092141",
    "vehicleCd": "527",
    "vehicleCorpCd": "1",
    "running": true,
    "lat": 34.581083,
    "lon": 135.469389,
    "route": "堺東駅前→ＡＴＣ→堺東駅前",
    "stop": "堺駅前",
    "passTime": "09:18",
    "vehicleType": "南海バス",
    "updateTime": "2026/07/21 09:23"
  },
  {
    "vehicleNum": "092135",
    "vehicleCd": "525",
    "vehicleCorpCd": "1",
    "running": true,
    "lat": 34.437194,
    "lon": 135.234583,
    "route": "エアロプラザ→第２ターミナル(国内線・国際線)→エアロプラザ",
    "stop": "第2ターミナル国際線",
    "passTime": "09:23",
    "vehicleType": "南海バス",
    "updateTime": "2026/07/21 09:23"
  },
  {
    "vehicleNum": "092204",
    "vehicleCd": "416",
    "vehicleCorpCd": "1",
    "running": true,
    "lat": 34.4685,
    "lon": 135.565389,
    "route": "貴望ヶ丘→千代田駅前",
    "stop": "南海西友前",
    "passTime": "09:20",
    "vehicleType": "南海バス",
    "updateTime": "2026/07/21 09:23"
  },
  {
    "vehicleNum": "092233",
    "vehicleCd": "533",
    "vehicleCorpCd": "1",
    "running": true,
    "lat": 34.513583,
    "lon": 135.473972,
    "route": "堺東駅前→鳳駅前→栂・美木多駅",
    "stop": "万崎",
    "passTime": "09:22",
    "vehicleType": "南海バス(車椅子・ベビーカー・ノンステップ)",
    "updateTime": "2026/07/21 09:23"
  },
  {
    "vehicleNum": "092372",
    "vehicleCd": "159",
    "vehicleCorpCd": "1",
    "running": true,
    "lat": 34.455194,
    "lon": 135.491083,
    "route": "光明池駅→城山台５丁→光明池車庫",
    "stop": "光明台二丁目",
    "passTime": "09:23",
    "vehicleType": "南海バス(車椅子・ベビーカー・ノンステップ)",
    "updateTime": "2026/07/21 09:23"
  },
  {
    "vehicleNum": "092454",
    "vehicleCd": "125",
    "vehicleCorpCd": "2",
    "running": true,
    "lat": 34.366194,
    "lon": 135.272389,
    "route": "泉南市コミュニティバス 岡田A回り",
    "stop": "総合福祉センター",
    "passTime": "09:22",
    "vehicleType": "泉南市コミュニティバス(橙)",
    "updateTime": "2026/07/21 09:23"
  },
  {
    "vehicleNum": "092468",
    "vehicleCd": "51",
    "vehicleCorpCd": "1",
    "running": true,
    "lat": 34.436778,
    "lon": 135.569083,
    "route": "三日市町駅前→南花台１丁目北→大矢船西町",
    "stop": "三日市町駅前",
    "passTime": "09:22",
    "vehicleType": "南海バス(車椅子・ベビーカー・ノンステップ)",
    "updateTime": "2026/07/21 09:23"
  },
  {
    "vehicleNum": "092470",
    "vehicleCd": "105",
    "vehicleCorpCd": "1",
    "running": true,
    "lat": 34.418389,
    "lon": 135.649194,
    "route": "河内長野駅前→日東町東口→金剛山ﾛｰﾌﾟｳｪｲ前",
    "stop": "千早大橋",
    "passTime": "09:21",
    "vehicleType": "南海バス(車椅子・ベビーカー・ノンステップ)",
    "updateTime": "2026/07/21 09:23"
  },
  {
    "vehicleNum": "092502",
    "vehicleCd": "140",
    "vehicleCorpCd": "2",
    "running": true,
    "lat": 34.458278,
    "lon": 135.366389,
    "route": "ローズバス　左回り",
    "stop": "南町",
    "passTime": "09:22",
    "vehicleType": "岸和田市コミュニティバス(ローズバス)",
    "updateTime": "2026/07/21 09:23"
  },
  {
    "vehicleNum": "092483",
    "vehicleCd": "110",
    "vehicleCorpCd": "1",
    "running": true,
    "lat": 34.446889,
    "lon": 135.554472,
    "route": "旭→天野山→長野",
    "stop": "上原口",
    "passTime": "09:23",
    "vehicleType": "南海バス(車椅子・ベビーカー・ノンステップ)",
    "updateTime": "2026/07/21 09:23"
  },
  {
    "vehicleNum": "092503",
    "vehicleCd": "146",
    "vehicleCorpCd": "2",
    "running": true,
    "lat": 34.481389,
    "lon": 135.391778,
    "route": "ローズバス　右回り",
    "stop": "競輪場前",
    "passTime": "09:23",
    "vehicleType": "岸和田市コミュニティバス(ローズバス)",
    "updateTime": "2026/07/21 09:23"
  },
  {
    "vehicleNum": "092561",
    "vehicleCd": "74",
    "vehicleCorpCd": "1",
    "running": true,
    "lat": 34.5,
    "lon": 135.566583,
    "route": "PL病院→金剛駅前（東側）→寺池台3丁目→PL病院",
    "stop": "高辺台小学校前",
    "passTime": "09:20",
    "vehicleType": "南海バス(車椅子・ベビーカー・ノンステップ)",
    "updateTime": "2026/07/21 09:23"
  },
  {
    "vehicleNum": "092570",
    "vehicleCd": "577",
    "vehicleCorpCd": "1",
    "running": true,
    "lat": 34.470083,
    "lon": 135.435389,
    "route": "和泉中央駅→寺田→泉大津駅前",
    "stop": "寺田",
    "passTime": "09:23",
    "vehicleType": "南海バス(車椅子・ベビーカー・ノンステップ)",
    "updateTime": "2026/07/21 09:23"
  },
  {
    "vehicleNum": "092579",
    "vehicleCd": "579",
    "vehicleCorpCd": "1",
    "running": true,
    "lat": 34.422083,
    "lon": 135.559083,
    "route": "三日市町駅前→南花台１丁目北→南ヶ丘",
    "stop": "大矢船北町（南花台系統）",
    "passTime": "09:23",
    "vehicleType": "南海バス(車椅子・ベビーカー・ノンステップ)",
    "updateTime": "2026/07/21 09:23"
  },
  {
    "vehicleNum": "092580",
    "vehicleCd": "377",
    "vehicleCorpCd": "1",
    "running": true,
    "lat": 34.438778,
    "lon": 135.449889,
    "route": "和泉府中駅前→玄関→和泉中央駅→ららぽｰと和泉前",
    "stop": "唐国南",
    "passTime": "09:17",
    "vehicleType": "南海バス(車椅子・ベビーカー・ノンステップ)",
    "updateTime": "2026/07/21 09:23"
  },
  {
    "vehicleNum": "092623",
    "vehicleCd": "15",
    "vehicleCorpCd": "1",
    "running": true,
    "lat": 34.485278,
    "lon": 135.425,
    "route": "泉大津駅前→和泉府中駅前→和泉中央駅→光明池駅",
    "stop": "和泉府中駅前",
    "passTime": "09:18",
    "vehicleType": "南海バス(車椅子・ベビーカー・ノンステップ)",
    "updateTime": "2026/07/21 09:23"
  },
  {
    "vehicleNum": "092647",
    "vehicleCd": "587",
    "vehicleCorpCd": "1",
    "running": true,
    "lat": 34.449889,
    "lon": 135.558278,
    "route": "河内長野駅前→水落→旭ヶ丘",
    "stop": "野作",
    "passTime": "09:21",
    "vehicleType": "南海バス(車椅子・ベビーカー・ノンステップ)",
    "updateTime": "2026/07/21 09:23"
  },
  {
    "vehicleNum": "092696",
    "vehicleCd": "589",
    "vehicleCorpCd": "1",
    "running": true,
    "lat": 34.4435,
    "lon": 135.461889,
    "route": "和泉中央駅→和泉青葉台→はつが野→和泉中央駅（右回り）",
    "stop": "南松尾はつが野学園前",
    "passTime": "09:21",
    "vehicleType": "南海バス(車椅子・ベビーカー・ノンステップ)",
    "updateTime": "2026/07/21 09:23"
  },
  {
    "vehicleNum": "092711",
    "vehicleCd": "355",
    "vehicleCorpCd": "1",
    "running": true,
    "lat": 34.534889,
    "lon": 135.463389,
    "route": "栂・美木多駅→鳳駅前→堺東駅前",
    "stop": "西区役所前",
    "passTime": "09:23",
    "vehicleType": "南海バス(車椅子・ベビーカー・ノンステップ)",
    "updateTime": "2026/07/21 09:23"
  },
  {
    "vehicleNum": "092734",
    "vehicleCd": "289",
    "vehicleCorpCd": "1",
    "running": true,
    "lat": 34.422889,
    "lon": 135.569778,
    "route": "三日市町駅前→南青葉台→三日市町駅前",
    "stop": "青葉台センター前",
    "passTime": "09:23",
    "vehicleType": "南海バス(車椅子・ベビーカー・ノンステップ)",
    "updateTime": "2026/07/21 09:23"
  },
  {
    "vehicleNum": "092758",
    "vehicleCd": "363",
    "vehicleCorpCd": "1",
    "running": true,
    "lat": 34.428583,
    "lon": 135.555278,
    "route": "南ヶ丘→南花台４丁目→三日市町駅前",
    "stop": "南花台３丁目南",
    "passTime": "09:23",
    "vehicleType": "南海バス(車椅子・ベビーカー・ノンステップ)",
    "updateTime": "2026/07/21 09:23"
  },
  {
    "vehicleNum": "092761",
    "vehicleCd": "23",
    "vehicleCorpCd": "1",
    "running": true,
    "lat": 34.423389,
    "lon": 135.592694,
    "route": "美加の台駅前→美加の台西→美加の台駅前",
    "stop": "延命寺口",
    "passTime": "09:23",
    "vehicleType": "南海バス(車椅子・ベビーカー・ノンステップ)",
    "updateTime": "2026/07/21 09:23"
  },
  {
    "vehicleNum": "092762",
    "vehicleCd": "570",
    "vehicleCorpCd": "1",
    "running": true,
    "lat": 34.486889,
    "lon": 135.480889,
    "route": "光明池駅→赤坂台４丁→光明池駅→泉ヶ丘駅",
    "stop": "赤坂台一丁",
    "passTime": "09:24",
    "vehicleType": "南海バス(車椅子・ベビーカー・ノンステップ)",
    "updateTime": "2026/07/21 09:24"
  },
  {
    "vehicleNum": "092829",
    "vehicleCd": "488",
    "vehicleCorpCd": "1",
    "running": true,
    "lat": 34.532389,
    "lon": 135.459889,
    "route": "堺東駅前→鳳駅前→光明池駅",
    "stop": "鳳駅前",
    "passTime": "09:22",
    "vehicleType": "南海バス(車椅子・ベビーカー・ノンステップ)",
    "updateTime": "2026/07/21 09:24"
  },
  {
    "vehicleNum": "092763",
    "vehicleCd": "520",
    "vehicleCorpCd": "1",
    "running": true,
    "lat": 34.471778,
    "lon": 135.483889,
    "route": "光明池駅→城山台２丁→光明池駅",
    "stop": "美木多中学校前",
    "passTime": "09:23",
    "vehicleType": "南海バス(車椅子・ベビーカー・ノンステップ)",
    "updateTime": "2026/07/21 09:24"
  },
  {
    "vehicleNum": "092856",
    "vehicleCd": "601",
    "vehicleCorpCd": "1",
    "running": true,
    "lat": 34.457778,
    "lon": 135.460694,
    "route": "和泉中央駅→のぞみ野南→美術館",
    "stop": "万町弘法寺前",
    "passTime": "09:20",
    "vehicleType": "南海バス(車椅子・ベビーカー・ノンステップ)",
    "updateTime": "2026/07/21 09:24"
  },
  {
    "vehicleNum": "092831",
    "vehicleCd": "417",
    "vehicleCorpCd": "1",
    "running": true,
    "lat": 34.418278,
    "lon": 135.457,
    "route": "和泉中央駅→テクノステージセンター前→グリーンポリス前→和泉中央駅",
    "stop": "テクノステージ三丁目中",
    "passTime": "09:23",
    "vehicleType": "南海バス(車椅子・ベビーカー・ノンステップ)",
    "updateTime": "2026/07/21 09:24"
  },
  {
    "vehicleNum": "092857",
    "vehicleCd": "516",
    "vehicleCorpCd": "1",
    "running": true,
    "lat": 34.471278,
    "lon": 135.468278,
    "route": "堺東駅前→鳳駅前→光明池駅",
    "stop": "伏屋",
    "passTime": "09:23",
    "vehicleType": "南海バス(車椅子・ベビーカー・ノンステップ)",
    "updateTime": "2026/07/21 09:24"
  },
  {
    "vehicleNum": "092860",
    "vehicleCd": "379",
    "vehicleCorpCd": "1",
    "running": true,
    "lat": 34.427,
    "lon": 135.546889,
    "route": "河内長野駅前→奥河内くろまろの郷→滝畑ダム",
    "stop": "汐滝橋",
    "passTime": "09:23",
    "vehicleType": "南海バス(車椅子・ベビーカー・ノンステップ)",
    "updateTime": "2026/07/21 09:24"
  },
  {
    "vehicleNum": "092915",
    "vehicleCd": "346",
    "vehicleCorpCd": "1",
    "running": true,
    "lat": 34.447083,
    "lon": 135.584389,
    "route": "長野→こんごう福祉",
    "stop": "府立こんごう福祉センター前",
    "passTime": "09:20",
    "vehicleType": "南海バス(車椅子・ベビーカー・ノンステップ)",
    "updateTime": "2026/07/21 09:24"
  },
  {
    "vehicleNum": "092913",
    "vehicleCd": "154",
    "vehicleCorpCd": "1",
    "running": true,
    "lat": 34.532389,
    "lon": 135.459472,
    "route": "光明池駅→山田→堺東駅前",
    "stop": "西堺警察署前",
    "passTime": "09:20",
    "vehicleType": "南海バス(車椅子・ベビーカー・ノンステップ)",
    "updateTime": "2026/07/21 09:24"
  },
  {
    "vehicleNum": "092916",
    "vehicleCd": "235",
    "vehicleCorpCd": "1",
    "running": true,
    "lat": 34.502472,
    "lon": 135.406583,
    "route": "和泉青葉台→和泉中央駅→泉大津駅前",
    "stop": "旭町",
    "passTime": "09:23",
    "vehicleType": "南海バス(車椅子・ベビーカー・ノンステップ)",
    "updateTime": "2026/07/21 09:24"
  },
  {
    "vehicleNum": "092918",
    "vehicleCd": "114",
    "vehicleCorpCd": "1",
    "running": true,
    "lat": 34.574389,
    "lon": 135.483889,
    "route": "堺東駅前→鳳駅前→光明池駅",
    "stop": "堺東駅前",
    "passTime": "09:22",
    "vehicleType": "南海バス(車椅子・ベビーカー・ノンステップ)",
    "updateTime": "2026/07/21 09:24"
  },
  {
    "vehicleNum": "092952",
    "vehicleCd": "113",
    "vehicleCorpCd": "1",
    "running": true,
    "lat": 34.561972,
    "lon": 135.474278,
    "route": "光明池駅→山田→堺東駅前",
    "stop": "旭ヶ丘北町",
    "passTime": "09:23",
    "vehicleType": "南海バス(車椅子・ベビーカー・ノンステップ)",
    "updateTime": "2026/07/21 09:24"
  },
  {
    "vehicleNum": "092977",
    "vehicleCd": "608",
    "vehicleCorpCd": "1",
    "running": true,
    "lat": 34.474889,
    "lon": 135.475889,
    "route": "光明池駅→山田→堺東駅前",
    "stop": "光明池駅",
    "passTime": "09:23",
    "vehicleType": "南海バス(車椅子・ベビーカー・ノンステップ)",
    "updateTime": "2026/07/21 09:24"
  },
  {
    "vehicleNum": "093003",
    "vehicleCd": "111",
    "vehicleCorpCd": "1",
    "running": true,
    "lat": 34.46,
    "lon": 135.455083,
    "route": "和泉中央駅→はつが野→和泉青葉台→和泉中央駅（左回り）",
    "stop": "和泉中央駅",
    "passTime": "09:22",
    "vehicleType": "南海バス(車椅子・ベビーカー・ノンステップ)",
    "updateTime": "2026/07/21 09:24"
  },
  {
    "vehicleNum": "093011",
    "vehicleCd": "27",
    "vehicleCorpCd": "1",
    "running": true,
    "lat": 34.440278,
    "lon": 135.248194,
    "route": "関空展望ホール→旅客ターミナル→関空展望ホール",
    "stop": "関空展望ホール",
    "passTime": "09:20",
    "vehicleType": "南海バス(車椅子・ベビーカー・ノンステップ)",
    "updateTime": "2026/07/21 09:24"
  },
  {
    "vehicleNum": "092978",
    "vehicleCd": "325",
    "vehicleCorpCd": "1",
    "running": true,
    "lat": 34.486083,
    "lon": 135.425,
    "route": "泉大津駅前→和泉府中駅前→和泉中央駅",
    "stop": "泉大津急性期メディカルセンター前",
    "passTime": "09:20",
    "vehicleType": "南海バス(車椅子・ベビーカー・ノンステップ)",
    "updateTime": "2026/07/21 09:24"
  },
  {
    "vehicleNum": "093035",
    "vehicleCd": "609",
    "vehicleCorpCd": "1",
    "running": true,
    "lat": 34.4345,
    "lon": 135.233278,
    "route": "エアロプラザ→第２ターミナル(国内線・国際線)→エアロプラザ",
    "stop": "エアロプラザ",
    "passTime": "09:20",
    "vehicleType": "南海バス",
    "updateTime": "2026/07/21 09:24"
  },
  {
    "vehicleNum": "093071",
    "vehicleCd": "274",
    "vehicleCorpCd": "1",
    "running": true,
    "lat": 34.465,
    "lon": 135.461889,
    "route": "光明池駅→光明池車庫→和泉中央駅→泉大津駅前",
    "stop": "和泉中央駅",
    "passTime": "09:17",
    "vehicleType": "南海バス(車椅子・ベビーカー・ノンステップ)",
    "updateTime": "2026/07/21 09:24"
  },
  {
    "vehicleNum": "093054",
    "vehicleCd": "396",
    "vehicleCorpCd": "1",
    "running": true,
    "lat": 34.5045,
    "lon": 135.477778,
    "route": "国分峠東→栂・美木多駅→堺東駅前",
    "stop": "福泉高校前",
    "passTime": "09:23",
    "vehicleType": "南海バス(車椅子・ベビーカー・ノンステップ)",
    "updateTime": "2026/07/21 09:24"
  },
  {
    "vehicleNum": "093114",
    "vehicleCd": "262",
    "vehicleCorpCd": "1",
    "running": true,
    "lat": 34.555194,
    "lon": 135.468778,
    "route": "堺東駅前→鳳駅前→光明池駅",
    "stop": "緑ヶ丘",
    "passTime": "09:21",
    "vehicleType": "南海バス(車椅子・ベビーカー・ノンステップ)",
    "updateTime": "2026/07/21 09:24"
  },
  {
    "vehicleNum": "093113",
    "vehicleCd": "133",
    "vehicleCorpCd": "1",
    "running": true,
    "lat": 34.5325,
    "lon": 135.459889,
    "route": "堺東駅前→鳳駅前→栂・美木多駅",
    "stop": "鳳駅前",
    "passTime": "09:28",
    "vehicleType": "南海バス(車椅子・ベビーカー・ノンステップ)",
    "updateTime": "2026/07/21 09:24"
  }
]