[
  {
    "vehicleNum": "070104",
    "vehicleCd": "402",
    "vehicleCorpCd": "1",
    "running": true,
    "lat": 34.498389,
    "lon": 135.546389,
    "route": "泉ヶ丘駅→狭山ニュータウンセンター→金剛駅前",
    "stop": "狭山西小学校前",
    "passTime": "12:13",
    "vehicleType": "泉北コミュニティバス(車椅子・ベビーカー・ノンステップ)",
    "updateTime": "2026/07/23 12:14"
  },
  {
    "vehicleNum": "070105",
    "vehicleCd": "403",
    "vehicleCorpCd": "1",
    "running": true,
    "lat": 34.485583,
    "lon": 135.532778,
    "route": "泉ヶ丘駅→狭山ニュータウンセンター→金剛駅前",
    "stop": "槙塚台東",
    "passTime": "12:14",
    "vehicleType": "泉北コミュニティバス(車椅子・ベビーカー・ノンステップ)",
    "updateTime": "2026/07/23 12:14"
  },
  {
    "vehicleNum": "070109",
    "vehicleCd": "407",
    "vehicleCorpCd": "1",
    "running": true,
    "lat": 34.484694,
    "lon": 135.527083,
    "route": "金剛駅前→狭山ニュータウンセンター→泉ヶ丘駅",
    "stop": "槙塚台センター",
    "passTime": "12:14",
    "vehicleType": "泉北コミュニティバス(車椅子・ベビーカー・ノンステップ)",
    "updateTime": "2026/07/23 12:14"
  },
  {
    "vehicleNum": "071605",
    "vehicleCd": "412",
    "vehicleCorpCd": "1",
    "running": true,
    "lat": 34.579,
    "lon": 135.473889,
    "route": "堺駅前→大小路→堺東駅前",
    "stop": "市小学校前",
    "passTime": "12:13",
    "vehicleType": "堺シャトル(車椅子・ベビーカー・ノンステップ)",
    "updateTime": "2026/07/23 12:14"
  },
  {
    "vehicleNum": "071604",
    "vehicleCd": "217",
    "vehicleCorpCd": "1",
    "running": true,
    "lat": 34.578583,
    "lon": 135.474389,
    "route": "堺東駅前→大小路→堺駅前",
    "stop": "大小路",
    "passTime": "12:13",
    "vehicleType": "堺シャトル(車椅子・ベビーカー・ノンステップ)",
    "updateTime": "2026/07/23 12:14"
  },
  {
    "vehicleNum": "080105",
    "vehicleCd": "127",
    "vehicleCorpCd": "2",
    "running": true,
    "lat": 34.407583,
    "lon": 135.322,
    "route": "泉佐野駅前→野々地蔵北→日根野駅前→犬鳴山",
    "stop": "上町１丁目",
    "passTime": "12:12",
    "vehicleType": "南海ウイングバス(車椅子・ベビーカー・ワンステップ)",
    "updateTime": "2026/07/23 12:14"
  },
  {
    "vehicleNum": "080177",
    "vehicleCd": "126",
    "vehicleCorpCd": "2",
    "running": true,
    "lat": 34.405389,
    "lon": 135.342778,
    "route": "熊取ニュータウン→熊取駅前（フリー乗降）",
    "stop": "青年会場前",
    "passTime": "12:13",
    "vehicleType": "南海ウイングバス(車椅子・ベビーカー・ワンステップ)",
    "updateTime": "2026/07/23 12:14"
  },
  {
    "vehicleNum": "080178",
    "vehicleCd": "56",
    "vehicleCorpCd": "2",
    "running": true,
    "lat": 34.457778,
    "lon": 135.381389,
    "route": "白原車庫→内畑→岸和田駅前",
    "stop": "岸和田警察署前",
    "passTime": "12:13",
    "vehicleType": "南海ウイングバス(車椅子・ベビーカー・ワンステップ)",
    "updateTime": "2026/07/23 12:14"
  },
  {
    "vehicleNum": "080323",
    "vehicleCd": "59",
    "vehicleCorpCd": "2",
    "running": true,
    "lat": 34.446583,
    "lon": 135.385778,
    "route": "岸和田駅前→天神山・一の宮循環　右回り→岸和田駅前",
    "stop": "旭小学校前",
    "passTime": "12:11",
    "vehicleType": "南海ウイングバス(車椅子・ワンステップ)",
    "updateTime": "2026/07/23 12:14"
  },
  {
    "vehicleNum": "080482",
    "vehicleCd": "156",
    "vehicleCorpCd": "1",
    "running": true,
    "lat": 34.532583,
    "lon": 135.459889,
    "route": "堺市立総合医療センター前→鳳駅前→石津川駅前",
    "stop": "鳳駅前",
    "passTime": "12:13",
    "vehicleType": "南海バス(車椅子・ベビーカー・ノンステップ)",
    "updateTime": "2026/07/23 12:14"
  },
  {
    "vehicleNum": "080627",
    "vehicleCd": "446",
    "vehicleCorpCd": "1",
    "running": true,
    "lat": 34.539472,
    "lon": 135.538972,
    "route": "北野田駅前→多治井北（循環）→北野田駅前",
    "stop": "東区役所前",
    "passTime": "12:13",
    "vehicleType": "南海バス(車椅子・ベビーカー・ノンステップ)",
    "updateTime": "2026/07/23 12:14"
  },
  {
    "vehicleNum": "080628",
    "vehicleCd": "445",
    "vehicleCorpCd": "1",
    "running": true,
    "lat": 34.5525,
    "lon": 135.541889,
    "route": "美原区役所→初芝駅前→美原区役所",
    "stop": "石原",
    "passTime": "12:14",
    "vehicleType": "南海バス(車椅子・ベビーカー・ノンステップ)",
    "updateTime": "2026/07/23 12:14"
  },
  {
    "vehicleNum": "080640",
    "vehicleCd": "133",
    "vehicleCorpCd": "2",
    "running": true,
    "lat": 34.388694,
    "lon": 135.352278,
    "route": "熊取駅前→大阪体育大学前",
    "stop": "原子力研究所前",
    "passTime": "12:13",
    "vehicleType": "南海ウイングバス(車椅子・ベビーカー・ノンステップ)",
    "updateTime": "2026/07/23 12:14"
  },
  {
    "vehicleNum": "080643",
    "vehicleCd": "94",
    "vehicleCorpCd": "1",
    "running": true,
    "lat": 34.532389,
    "lon": 135.460083,
    "route": "堺東駅前→鳳駅前→光明池駅",
    "stop": "鳳駅前",
    "passTime": "12:13",
    "vehicleType": "南海バス(車椅子・ベビーカー・ノンステップ)",
    "updateTime": "2026/07/23 12:14"
  },
  {
    "vehicleNum": "080644",
    "vehicleCd": "452",
    "vehicleCorpCd": "1",
    "running": true,
    "lat": 34.576,
    "lon": 135.4715,
    "route": "堺駅南口→堺駅前",
    "stop": "川尻",
    "passTime": "12:11",
    "vehicleType": "南海バス(車椅子・ベビーカー・ノンステップ)",
    "updateTime": "2026/07/23 12:14"
  },
  {
    "vehicleNum": "080676",
    "vehicleCd": "158",
    "vehicleCorpCd": "1",
    "running": true,
    "lat": 34.543889,
    "lon": 135.550278,
    "route": "美原区役所→野遠→地下鉄新金岡駅前",
    "stop": "太井",
    "passTime": "12:13",
    "vehicleType": "南海バス",
    "updateTime": "2026/07/23 12:14"
  },
  {
    "vehicleNum": "080670",
    "vehicleCd": "507",
    "vehicleCorpCd": "1",
    "running": true,
    "lat": 34.575694,
    "lon": 135.480583,
    "route": "阪和堺市駅前→堺東駅前→堺駅西口→匠町→海浜匠町",
    "stop": "堺東駅前",
    "passTime": "12:13",
    "vehicleType": "南海バス(車椅子・ベビーカー・ノンステップ)",
    "updateTime": "2026/07/23 12:14"
  },
  {
    "vehicleNum": "080698",
    "vehicleCd": "531",
    "vehicleCorpCd": "1",
    "running": true,
    "lat": 34.562694,
    "lon": 135.466,
    "route": "堺駅南口→堺駅前",
    "stop": "高砂町",
    "passTime": "12:13",
    "vehicleType": "南海バス",
    "updateTime": "2026/07/23 12:14"
  },
  {
    "vehicleNum": "080703",
    "vehicleCd": "219",
    "vehicleCorpCd": "1",
    "running": true,
    "lat": 34.574583,
    "lon": 135.481778,
    "route": "河内松原駅前→阪和堺市駅前→堺駅前",
    "stop": "堺東駅前",
    "passTime": "12:16",
    "vehicleType": "南海バス(車椅子・ベビーカー・ノンステップ)",
    "updateTime": "2026/07/23 12:14"
  },
  {
    "vehicleNum": "080708",
    "vehicleCd": "537",
    "vehicleCorpCd": "1",
    "running": true,
    "lat": 34.490389,
    "lon": 135.512472,
    "route": "泉ヶ丘駅→鉢ヶ峯→泉ヶ丘駅",
    "stop": "茶山台",
    "passTime": "12:14",
    "vehicleType": "南海バス(車椅子・ベビーカー・ノンステップ)",
    "updateTime": "2026/07/23 12:14"
  },
  {
    "vehicleNum": "080707",
    "vehicleCd": "544",
    "vehicleCorpCd": "1",
    "running": true,
    "lat": 34.5855,
    "lon": 135.490278,
    "route": "堺東駅前→錦綾町→河内天美駅前",
    "stop": "錦綾町",
    "passTime": "12:10",
    "vehicleType": "南海バス(車椅子・ベビーカー・ノンステップ)",
    "updateTime": "2026/07/23 12:14"
  },
  {
    "vehicleNum": "080709",
    "vehicleCd": "5",
    "vehicleCorpCd": "2",
    "running": true,
    "lat": 34.4015,
    "lon": 135.364,
    "route": "泉佐野駅前→上瓦屋町→熊取駅前→熊取ニュータウン（フリー乗降）",
    "stop": "希望が丘南",
    "passTime": "12:14",
    "vehicleType": "南海ウイングバス(車椅子・ベビーカー・ノンステップ)",
    "updateTime": "2026/07/23 12:14"
  },
  {
    "vehicleNum": "080710",
    "vehicleCd": "18",
    "vehicleCorpCd": "2",
    "running": true,
    "lat": 34.396778,
    "lon": 135.327778,
    "route": "犬鳴山→日根野駅前→野々地蔵北→泉佐野駅前",
    "stop": "野々地蔵北",
    "passTime": "12:13",
    "vehicleType": "南海ウイングバス(車椅子・ベビーカー・ノンステップ)",
    "updateTime": "2026/07/23 12:14"
  },
  {
    "vehicleNum": "080711",
    "vehicleCd": "79",
    "vehicleCorpCd": "2",
    "running": true,
    "lat": 34.399194,
    "lon": 135.356389,
    "route": "泉佐野駅前→泉陽ヶ丘→熊取駅前→山の手台→小谷→熊取駅前→泉陽ヶ丘→泉佐野駅前",
    "stop": "野田中央",
    "passTime": "12:13",
    "vehicleType": "南海ウイングバス(車椅子・ベビーカー・ノンステップ)",
    "updateTime": "2026/07/23 12:14"
  },
  {
    "vehicleNum": "080754",
    "vehicleCd": "428",
    "vehicleCorpCd": "1",
    "running": true,
    "lat": 34.532194,
    "lon": 135.47,
    "route": "泉ヶ丘駅→泉北２号線→堺市立総合医療センター前→津久野駅前",
    "stop": "毛穴大橋",
    "passTime": "12:14",
    "vehicleType": "南海バス(車椅子・ベビーカー・ノンステップ)",
    "updateTime": "2026/07/23 12:14"
  },
  {
    "vehicleNum": "080751",
    "vehicleCd": "551",
    "vehicleCorpCd": "1",
    "running": true,
    "lat": 34.582889,
    "lon": 135.511694,
    "route": "地下鉄北花田駅前→浅香→ＪＲ堺市駅前→地下鉄北花田駅前",
    "stop": "奥本町",
    "passTime": "12:14",
    "vehicleType": "南海バス(車椅子・ベビーカー・ノンステップ)",
    "updateTime": "2026/07/23 12:14"
  },
  {
    "vehicleNum": "080750",
    "vehicleCd": "103",
    "vehicleCorpCd": "1",
    "running": true,
    "lat": 34.581694,
    "lon": 135.476389,
    "route": "海浜匠町→匠町→堺駅西口→堺東駅前→阪和堺市駅前",
    "stop": "花田口",
    "passTime": "12:13",
    "vehicleType": "南海バス(車椅子・ベビーカー・ノンステップ)",
    "updateTime": "2026/07/23 12:14"
  },
  {
    "vehicleNum": "080757",
    "vehicleCd": "182",
    "vehicleCorpCd": "1",
    "running": true,
    "lat": 34.490472,
    "lon": 135.542472,
    "route": "金剛駅前→狭山ニュータウンセンター→泉ヶ丘駅",
    "stop": "西山台北",
    "passTime": "12:13",
    "vehicleType": "南海バス(車椅子・ベビーカー・ノンステップ)",
    "updateTime": "2026/07/23 12:14"
  },
  {
    "vehicleNum": "080758",
    "vehicleCd": "511",
    "vehicleCorpCd": "1",
    "running": true,
    "lat": 34.493694,
    "lon": 135.532083,
    "route": "泉ヶ丘駅→スマ・エコタウン晴美台→高倉台左回り→泉ヶ丘駅",
    "stop": "晴美台センター",
    "passTime": "12:13",
    "vehicleType": "南海バス(車椅子・ベビーカー・ノンステップ)",
    "updateTime": "2026/07/23 12:14"
  },
  {
    "vehicleNum": "080760",
    "vehicleCd": "559",
    "vehicleCorpCd": "1",
    "running": true,
    "lat": 34.536083,
    "lon": 135.555083,
    "route": "中もず駅前→初芝駅前→船戸下→美原区役所前",
    "stop": "黒山",
    "passTime": "12:14",
    "vehicleType": "南海バス(車椅子・ベビーカー・ノンステップ)",
    "updateTime": "2026/07/23 12:14"
  },
  {
    "vehicleNum": "080762",
    "vehicleCd": "561",
    "vehicleCorpCd": "1",
    "running": true,
    "lat": 34.549889,
    "lon": 135.519083,
    "route": "美原区役所前→船戸下→初芝駅前→中もず駅前",
    "stop": "引野",
    "passTime": "12:13",
    "vehicleType": "南海バス(車椅子・ベビーカー・ノンステップ)",
    "updateTime": "2026/07/23 12:14"
  },
  {
    "vehicleNum": "080764",
    "vehicleCd": "563",
    "vehicleCorpCd": "1",
    "running": true,
    "lat": 34.548,
    "lon": 135.5215,
    "route": "中もず駅前→平尾→初芝駅前",
    "stop": "金田新田",
    "passTime": "12:13",
    "vehicleType": "南海バス(車椅子・ベビーカー・ノンステップ)",
    "updateTime": "2026/07/23 12:14"
  },
  {
    "vehicleNum": "080763",
    "vehicleCd": "562",
    "vehicleCorpCd": "1",
    "running": true,
    "lat": 34.556389,
    "lon": 135.502278,
    "route": "中老人福祉センター→深井駅→北条→中もず駅前",
    "stop": "もず八幡前",
    "passTime": "12:08",
    "vehicleType": "南海バス(車椅子・ベビーカー・ノンステップ)",
    "updateTime": "2026/07/23 12:14"
  },
  {
    "vehicleNum": "080765",
    "vehicleCd": "564",
    "vehicleCorpCd": "1",
    "running": true,
    "lat": 34.527,
    "lon": 135.505083,
    "route": "深井駅→田園→泉ヶ丘駅",
    "stop": "畑山",
    "passTime": "12:14",
    "vehicleType": "南海バス(車椅子・ベビーカー・ノンステップ)",
    "updateTime": "2026/07/23 12:14"
  },
  {
    "vehicleNum": "080787",
    "vehicleCd": "301",
    "vehicleCorpCd": "1",
    "running": true,
    "lat": 34.574889,
    "lon": 135.540083,
    "route": "イオンモール堺北花田→蔵前町→河内松原駅前",
    "stop": "布忍駅筋",
    "passTime": "12:14",
    "vehicleType": "南海バス(車椅子・ベビーカー・ノンステップ)",
    "updateTime": "2026/07/23 12:14"
  },
  {
    "vehicleNum": "080790",
    "vehicleCd": "106",
    "vehicleCorpCd": "1",
    "running": true,
    "lat": 34.596194,
    "lon": 135.447278,
    "route": "堺東駅前→錦綾町→堺駅西口",
    "stop": "堺浜シーサイドステージ",
    "passTime": "12:11",
    "vehicleType": "南海バス(車椅子・ベビーカー・ノンステップ)",
    "updateTime": "2026/07/23 12:14"
  },
  {
    "vehicleNum": "080789",
    "vehicleCd": "300",
    "vehicleCorpCd": "1",
    "running": true,
    "lat": 34.551,
    "lon": 135.517583,
    "route": "堺東駅前→労災病院前→白鷺駅前（循環）",
    "stop": "金岡町",
    "passTime": "12:12",
    "vehicleType": "南海バス(車椅子・ベビーカー・ノンステップ)",
    "updateTime": "2026/07/23 12:14"
  },
  {
    "vehicleNum": "080793",
    "vehicleCd": "112",
    "vehicleCorpCd": "1",
    "running": true,
    "lat": 34.566278,
    "lon": 135.496194,
    "route": "堺東駅前→労災病院前→白鷺駅前（循環）",
    "stop": "向陵中町",
    "passTime": "12:14",
    "vehicleType": "南海バス(車椅子・ベビーカー・ノンステップ)",
    "updateTime": "2026/07/23 12:15"
  },
  {
    "vehicleNum": "080795",
    "vehicleCd": "43",
    "vehicleCorpCd": "1",
    "running": true,
    "lat": 34.574778,
    "lon": 135.551278,
    "route": "堺駅前→堺東駅前→河内松原駅前",
    "stop": "高見の里駅前",
    "passTime": "12:11",
    "vehicleType": "南海バス(車椅子・ベビーカー・ノンステップ)",
    "updateTime": "2026/07/23 12:15"
  },
  {
    "vehicleNum": "080796",
    "vehicleCd": "108",
    "vehicleCorpCd": "1",
    "running": true,
    "lat": 34.574,
    "lon": 135.478278,
    "route": "堺駅前→堺駅南口",
    "stop": "堺東駅前",
    "passTime": "12:11",
    "vehicleType": "南海バス(車椅子・ベビーカー・ノンステップ)",
    "updateTime": "2026/07/23 12:15"
  },
  {
    "vehicleNum": "080798",
    "vehicleCd": "107",
    "vehicleCorpCd": "1",
    "running": true,
    "lat": 34.601083,
    "lon": 135.4485,
    "route": "堺駅西口→錦綾町→堺東駅前",
    "stop": "Jグリーン堺南口",
    "passTime": "12:14",
    "vehicleType": "南海バス(車椅子・ベビーカー・ノンステップ)",
    "updateTime": "2026/07/23 12:15"
  },
  {
    "vehicleNum": "080806",
    "vehicleCd": "307",
    "vehicleCorpCd": "1",
    "running": true,
    "lat": 34.575583,
    "lon": 135.484083,
    "route": "堺東→住之江公園→堺東",
    "stop": "堺市役所前",
    "passTime": "12:11",
    "vehicleType": "南海バス(車椅子・ベビーカー・ノンステップ)",
    "updateTime": "2026/07/23 12:15"
  },
  {
    "vehicleNum": "080807",
    "vehicleCd": "223",
    "vehicleCorpCd": "1",
    "running": true,
    "lat": 34.575194,
    "lon": 135.522278,
    "route": "河内松原駅前→阪和堺市駅前→堺駅前",
    "stop": "南花田町",
    "passTime": "12:14",
    "vehicleType": "南海バス(車椅子・ベビーカー・ノンステップ)",
    "updateTime": "2026/07/23 12:15"
  },
  {
    "vehicleNum": "080808",
    "vehicleCd": "216",
    "vehicleCorpCd": "1",
    "running": true,
    "lat": 34.574583,
    "lon": 135.506583,
    "route": "堺駅前→堺東駅前→河内松原駅前",
    "stop": "警察学校前（堺市）",
    "passTime": "12:13",
    "vehicleType": "南海バス(車椅子・ベビーカー・ノンステップ)",
    "updateTime": "2026/07/23 12:15"
  },
  {
    "vehicleNum": "080813",
    "vehicleCd": "269",
    "vehicleCorpCd": "1",
    "running": true,
    "lat": 34.568194,
    "lon": 135.490389,
    "route": "堺駅南口→中もず団地前→初芝駅前",
    "stop": "永山園",
    "passTime": "12:13",
    "vehicleType": "南海バス(車椅子・ベビーカー・ノンステップ)",
    "updateTime": "2026/07/23 12:15"
  },
  {
    "vehicleNum": "080809",
    "vehicleCd": "215",
    "vehicleCorpCd": "1",
    "running": true,
    "lat": 34.580194,
    "lon": 135.464778,
    "route": "堺駅前→堺駅南口",
    "stop": "堺駅南口",
    "passTime": "12:12",
    "vehicleType": "南海バス(車椅子・ベビーカー・ノンステップ)",
    "updateTime": "2026/07/23 12:15"
  },
  {
    "vehicleNum": "080814",
    "vehicleCd": "193",
    "vehicleCorpCd": "1",
    "running": true,
    "lat": 34.513889,
    "lon": 135.485194,
    "route": "津久野駅前→堺市立総合医療センター前→泉北２号線→泉ヶ丘駅",
    "stop": "平井大橋",
    "passTime": "12:14",
    "vehicleType": "南海バス(車椅子・ベビーカー・ノンステップ)",
    "updateTime": "2026/07/23 12:15"
  },
  {
    "vehicleNum": "080815",
    "vehicleCd": "575",
    "vehicleCorpCd": "1",
    "running": true,
    "lat": 34.497889,
    "lon": 135.511,
    "route": "津久野駅前→堺市立総合医療センター前→八田荘団地→泉ヶ丘駅",
    "stop": "竹城台２丁",
    "passTime": "12:13",
    "vehicleType": "南海バス(車椅子・ベビーカー・ノンステップ)",
    "updateTime": "2026/07/23 12:15"
  },
  {
    "vehicleNum": "080844",
    "vehicleCd": "581",
    "vehicleCorpCd": "1",
    "running": true,
    "lat": 34.506278,
    "lon": 135.578778,
    "route": "金剛駅前→向陽・藤沢回り→金剛駅前",
    "stop": "向陽台３丁目",
    "passTime": "12:14",
    "vehicleType": "南海バス(車椅子・ベビーカー・ノンステップ)",
    "updateTime": "2026/07/23 12:15"
  },
  {
    "vehicleNum": "080852",
    "vehicleCd": "584",
    "vehicleCorpCd": "1",
    "running": true,
    "lat": 34.496083,
    "lon": 135.564694,
    "route": "金剛駅前→向陽・藤沢回り→金剛駅前",
    "stop": "久野喜台二丁目",
    "passTime": "12:14",
    "vehicleType": "南海バス(車椅子・ベビーカー・ノンステップ)",
    "updateTime": "2026/07/23 12:15"
  },
  {
    "vehicleNum": "080857",
    "vehicleCd": "226",
    "vehicleCorpCd": "1",
    "running": true,
    "lat": 34.579778,
    "lon": 135.4855,
    "route": "河内天美駅前→天美我堂→堺東駅前",
    "stop": "北庄町",
    "passTime": "12:13",
    "vehicleType": "南海バス(車椅子・ベビーカー・ノンステップ)",
    "updateTime": "2026/07/23 12:15"
  },
  {
    "vehicleNum": "080864",
    "vehicleCd": "146",
    "vehicleCorpCd": "1",
    "running": true,
    "lat": 34.579389,
    "lon": 135.474389,
    "route": "堺東→住之江公園→堺東",
    "stop": "大小路",
    "passTime": "12:15",
    "vehicleType": "南海バス(車椅子・ベビーカー・ノンステップ)",
    "updateTime": "2026/07/23 12:15"
  },
  {
    "vehicleNum": "080867",
    "vehicleCd": "364",
    "vehicleCorpCd": "1",
    "running": true,
    "lat": 34.487889,
    "lon": 135.531389,
    "route": "泉ヶ丘駅→晴美台右回り→泉ヶ丘駅",
    "stop": "はるみ小学校前",
    "passTime": "12:13",
    "vehicleType": "南海バス(車椅子・ベビーカー・ノンステップ)",
    "updateTime": "2026/07/23 12:15"
  },
  {
    "vehicleNum": "080869",
    "vehicleCd": "316",
    "vehicleCorpCd": "1",
    "running": true,
    "lat": 34.479778,
    "lon": 135.527583,
    "route": "泉ヶ丘駅→槙塚台左回り→泉ヶ丘駅",
    "stop": "逆瀬川口",
    "passTime": "12:14",
    "vehicleType": "南海バス(車椅子・ベビーカー・ノンステップ)",
    "updateTime": "2026/07/23 12:15"
  },
  {
    "vehicleNum": "080873",
    "vehicleCd": "144",
    "vehicleCorpCd": "1",
    "running": true,
    "lat": 34.485194,
    "lon": 135.524778,
    "route": "金剛駅前→帝塚山学院泉ヶ丘校前→泉ヶ丘駅前",
    "stop": "槙塚台１丁",
    "passTime": "12:14",
    "vehicleType": "南海バス(車椅子・ベビーカー・ノンステップ)",
    "updateTime": "2026/07/23 12:15"
  },
  {
    "vehicleNum": "080877",
    "vehicleCd": "588",
    "vehicleCorpCd": "1",
    "running": true,
    "lat": 34.534083,
    "lon": 135.518472,
    "route": "北野田駅前→福町→堺駅南口",
    "stop": "下草尾",
    "passTime": "12:13",
    "vehicleType": "南海バス(車椅子・ベビーカー・ノンステップ)",
    "updateTime": "2026/07/23 12:15"
  },
  {
    "vehicleNum": "080879",
    "vehicleCd": "359",
    "vehicleCorpCd": "1",
    "running": true,
    "lat": 34.527,
    "lon": 135.505,
    "route": "あみだ池→深井駅→もず駅前→堺東駅前",
    "stop": "畑山",
    "passTime": "12:14",
    "vehicleType": "南海バス(車椅子・ベビーカー・ノンステップ)",
    "updateTime": "2026/07/23 12:15"
  },
  {
    "vehicleNum": "080882",
    "vehicleCd": "343",
    "vehicleCorpCd": "1",
    "running": true,
    "lat": 34.467194,
    "lon": 135.496583,
    "route": "泉ヶ丘駅→御池台回り→泉ヶ丘駅",
    "stop": "庭代台１丁南",
    "passTime": "12:14",
    "vehicleType": "南海バス(車椅子・ベビーカー・ノンステップ)",
    "updateTime": "2026/07/23 12:15"
  },
  {
    "vehicleNum": "080880",
    "vehicleCd": "360",
    "vehicleCorpCd": "1",
    "running": true,
    "lat": 34.561972,
    "lon": 135.444889,
    "route": "石津川駅前→臨港７区→臨港６区→石津川駅前",
    "stop": "石津西町",
    "passTime": "12:14",
    "vehicleType": "南海バス(車椅子・ベビーカー・ノンステップ)",
    "updateTime": "2026/07/23 12:15"
  },
  {
    "vehicleNum": "080883",
    "vehicleCd": "361",
    "vehicleCorpCd": "1",
    "running": true,
    "lat": 34.515694,
    "lon": 135.492778,
    "route": "泉ヶ丘駅→八田荘団地→堺市立総合医療センター前→津久野駅前",
    "stop": "天の橋",
    "passTime": "12:14",
    "vehicleType": "南海バス(車椅子・ベビーカー・ノンステップ)",
    "updateTime": "2026/07/23 12:15"
  },
  {
    "vehicleNum": "080894",
    "vehicleCd": "350",
    "vehicleCorpCd": "1",
    "running": true,
    "lat": 34.539694,
    "lon": 135.5595,
    "route": "美原区役所→初芝駅前→美原区役所",
    "stop": "美原区役所前",
    "passTime": "12:12",
    "vehicleType": "南海バス(車椅子・ベビーカー・ノンステップ)",
    "updateTime": "2026/07/23 12:15"
  },
  {
    "vehicleNum": "080895",
    "vehicleCd": "167",
    "vehicleCorpCd": "1",
    "running": true,
    "lat": 34.550194,
    "lon": 135.541889,
    "route": "地下鉄新金岡駅前→野遠→美原区役所",
    "stop": "石原",
    "passTime": "12:13",
    "vehicleType": "南海バス(車椅子・ベビーカー・ノンステップ)",
    "updateTime": "2026/07/23 12:15"
  },
  {
    "vehicleNum": "080904",
    "vehicleCd": "362",
    "vehicleCorpCd": "1",
    "running": true,
    "lat": 34.551694,
    "lon": 135.4995,
    "route": "中もず駅前→北条→堺市立総合医療センター前",
    "stop": "中もず駅前（南側）",
    "passTime": "12:10",
    "vehicleType": "南海バス(車椅子・ベビーカー・ノンステップ)",
    "updateTime": "2026/07/23 12:15"
  },
  {
    "vehicleNum": "080906",
    "vehicleCd": "244",
    "vehicleCorpCd": "1",
    "running": true,
    "lat": 34.4925,
    "lon": 135.502972,
    "route": "泉ヶ丘駅→庭代台左回り→泉ヶ丘駅",
    "stop": "泉ヶ丘駅（南側）",
    "passTime": "12:10",
    "vehicleType": "南海バス(車椅子・ベビーカー・ノンステップ)",
    "updateTime": "2026/07/23 12:15"
  },
  {
    "vehicleNum": "080918",
    "vehicleCd": "419",
    "vehicleCorpCd": "1",
    "running": true,
    "lat": 34.566472,
    "lon": 135.494389,
    "route": "阪和堺市駅前→労災病院前→近畿中央呼吸器センター前→堺駅南口",
    "stop": "三国ヶ丘駅前",
    "passTime": "12:13",
    "vehicleType": "南海バス(車椅子・ベビーカー・ノンステップ)",
    "updateTime": "2026/07/23 12:15"
  },
  {
    "vehicleNum": "080936",
    "vehicleCd": "22",
    "vehicleCorpCd": "1",
    "running": true,
    "lat": 34.463694,
    "lon": 135.501583,
    "route": "栂・美木多駅→御池台回り→栂・美木多駅",
    "stop": "御池台センター",
    "passTime": "12:14",
    "vehicleType": "南海バス(車椅子・ベビーカー・ノンステップ)",
    "updateTime": "2026/07/23 12:15"
  },
  {
    "vehicleNum": "080920",
    "vehicleCd": "327",
    "vehicleCorpCd": "1",
    "running": true,
    "lat": 34.494972,
    "lon": 135.510778,
    "route": "泉ヶ丘駅→若松台左回り→泉ヶ丘駅",
    "stop": "茶山台",
    "passTime": "12:13",
    "vehicleType": "南海バス(車椅子・ベビーカー・ノンステップ)",
    "updateTime": "2026/07/23 12:15"
  },
  {
    "vehicleNum": "080948",
    "vehicleCd": "276",
    "vehicleCorpCd": "1",
    "running": true,
    "lat": 34.565694,
    "lon": 135.494,
    "route": "堺駅南口→近畿中央呼吸器センター前→労災病院前→阪和堺市駅前",
    "stop": "三国ヶ丘駅前",
    "passTime": "12:13",
    "vehicleType": "南海バス(車椅子・ベビーカー・ノンステップ)",
    "updateTime": "2026/07/23 12:15"
  },
  {
    "vehicleNum": "080968",
    "vehicleCd": "424",
    "vehicleCorpCd": "1",
    "running": true,
    "lat": 34.550278,
    "lon": 135.4975,
    "route": "堺東駅前→もず駅前→深井駅→あみだ池",
    "stop": "もず八幡前",
    "passTime": "12:12",
    "vehicleType": "南海バス(車椅子・ベビーカー・ノンステップ)",
    "updateTime": "2026/07/23 12:15"
  },
  {
    "vehicleNum": "080977",
    "vehicleCd": "388",
    "vehicleCorpCd": "1",
    "running": true,
    "lat": 34.540389,
    "lon": 135.472389,
    "route": "堺東駅前→堀上緑町１丁→堺東駅前",
    "stop": "津久野駅前",
    "passTime": "12:12",
    "vehicleType": "南海バス(車椅子・ベビーカー・ノンステップ)",
    "updateTime": "2026/07/23 12:15"
  },
  {
    "vehicleNum": "080978",
    "vehicleCd": "431",
    "vehicleCorpCd": "1",
    "running": true,
    "lat": 34.532778,
    "lon": 135.523083,
    "route": "堺駅南口→三国ヶ丘駅前→北野田駅前",
    "stop": "関茶屋",
    "passTime": "12:13",
    "vehicleType": "南海バス(車椅子・ベビーカー・ノンステップ)",
    "updateTime": "2026/07/23 12:15"
  },
  {
    "vehicleNum": "080994",
    "vehicleCd": "130",
    "vehicleCorpCd": "1",
    "running": true,
    "lat": 34.477278,
    "lon": 135.491583,
    "route": "泉ヶ丘駅→庭代台右回り→泉ヶ丘駅",
    "stop": "原山台３丁",
    "passTime": "12:14",
    "vehicleType": "南海バス(車椅子・ベビーカー・ノンステップ)",
    "updateTime": "2026/07/23 12:15"
  },
  {
    "vehicleNum": "080995",
    "vehicleCd": "118",
    "vehicleCorpCd": "1",
    "running": true,
    "lat": 34.4975,
    "lon": 135.518,
    "route": "泉ヶ丘駅→スマ・エコタウン晴美台→高倉台左回り→泉ヶ丘駅",
    "stop": "三原台１丁",
    "passTime": "12:14",
    "vehicleType": "南海バス(車椅子・ベビーカー・ノンステップ)",
    "updateTime": "2026/07/23 12:15"
  },
  {
    "vehicleNum": "081007",
    "vehicleCd": "127",
    "vehicleCorpCd": "1",
    "running": true,
    "lat": 34.552,
    "lon": 135.481889,
    "route": "泉ヶ丘駅→宮山台中学校前→堺東駅前",
    "stop": "上野芝",
    "passTime": "12:15",
    "vehicleType": "南海バス(車椅子・ベビーカー・ノンステップ)",
    "updateTime": "2026/07/23 12:15"
  },
  {
    "vehicleNum": "081013",
    "vehicleCd": "554",
    "vehicleCorpCd": "1",
    "running": true,
    "lat": 34.563194,
    "lon": 135.493194,
    "route": "堺駅南口→福町→北野田駅前",
    "stop": "三国ヶ丘駅前",
    "passTime": "12:13",
    "vehicleType": "南海バス(車椅子・ベビーカー・ノンステップ)",
    "updateTime": "2026/07/23 12:15"
  },
  {
    "vehicleNum": "081020",
    "vehicleCd": "163",
    "vehicleCorpCd": "1",
    "running": true,
    "lat": 34.564278,
    "lon": 135.4925,
    "route": "北野田駅前→西口園→堺駅南口",
    "stop": "三国ヶ丘駅前",
    "passTime": "12:14",
    "vehicleType": "南海バス(車椅子・ベビーカー・ノンステップ)",
    "updateTime": "2026/07/23 12:15"
  },
  {
    "vehicleNum": "081003",
    "vehicleCd": "610",
    "vehicleCorpCd": "1",
    "running": true,
    "lat": 34.5275,
    "lon": 135.488472,
    "route": "堺東駅前→上野芝→泉ヶ丘駅",
    "stop": "八田荘団地",
    "passTime": "12:14",
    "vehicleType": "南海バス(車椅子・ベビーカー・ノンステップ)",
    "updateTime": "2026/07/23 12:15"
  },
  {
    "vehicleNum": "081044",
    "vehicleCd": "132",
    "vehicleCorpCd": "1",
    "running": true,
    "lat": 34.488,
    "lon": 135.531278,
    "route": "泉ヶ丘駅→帝塚山学院泉ヶ丘校前→金剛駅前",
    "stop": "帝塚山学院泉ケ丘校前",
    "passTime": "12:15",
    "vehicleType": "南海バス(車椅子・ベビーカー・ノンステップ)",
    "updateTime": "2026/07/23 12:15"
  },
  {
    "vehicleNum": "090176",
    "vehicleCd": "101",
    "vehicleCorpCd": "2",
    "running": true,
    "lat": 34.4095,
    "lon": 135.299,
    "route": "イオンモール→ワシントンホテル→イオンモールりんくう泉南",
    "stop": "ワシントンホテル",
    "passTime": "12:13",
    "vehicleType": "南海ウイングバス",
    "updateTime": "2026/07/23 12:15"
  },
  {
    "vehicleNum": "090491",
    "vehicleCd": "50",
    "vehicleCorpCd": "2",
    "running": true,
    "lat": 34.446389,
    "lon": 135.386083,
    "route": "岸和田駅前→上古城→塔原",
    "stop": "東岸和田駅前",
    "passTime": "12:11",
    "vehicleType": "南海ウイングバス(車椅子・ワンステップ)",
    "updateTime": "2026/07/23 12:15"
  },
  {
    "vehicleNum": "091146",
    "vehicleCd": "17",
    "vehicleCorpCd": "2",
    "running": true,
    "lat": 34.423694,
    "lon": 135.409694,
    "route": "白原車庫→河合→上古城→岸和田駅前",
    "stop": "土生滝",
    "passTime": "12:15",
    "vehicleType": "南海ウイングバス(車椅子・ベビーカー・ワンステップ)",
    "updateTime": "2026/07/23 12:15"
  },
  {
    "vehicleNum": "091444",
    "vehicleCd": "107",
    "vehicleCorpCd": "2",
    "running": true,
    "lat": 34.379083,
    "lon": 135.359083,
    "route": "つばさが丘北口→大阪体育大学前→熊取駅前→ダンバラ公園前→泉佐野駅前",
    "stop": "大阪体育大学前",
    "passTime": "12:15",
    "vehicleType": "南海ウイングバス(車椅子・ベビーカー・ノンステップ)",
    "updateTime": "2026/07/23 12:15"
  },
  {
    "vehicleNum": "091581",
    "vehicleCd": "198",
    "vehicleCorpCd": "1",
    "running": true,
    "lat": 34.427194,
    "lon": 135.227278,
    "route": "空港駅→ＦｅｄＥｘ→給油地区",
    "stop": "二期島国際貨物駐車場前",
    "passTime": "12:13",
    "vehicleType": "南海バス(車椅子・ノンステップ)",
    "updateTime": "2026/07/23 12:15"
  },
  {
    "vehicleNum": "091580",
    "vehicleCd": "85",
    "vehicleCorpCd": "2",
    "running": true,
    "lat": 34.368083,
    "lon": 135.270083,
    "route": "泉南市コミュニティバス 山回り",
    "stop": "総合福祉センター",
    "passTime": "12:14",
    "vehicleType": "南海ウイングバス(車椅子・ベビーカー・ノンステップ)",
    "updateTime": "2026/07/23 12:15"
  },
  {
    "vehicleNum": "091738",
    "vehicleCd": "12",
    "vehicleCorpCd": "2",
    "running": true,
    "lat": 34.461889,
    "lon": 135.439694,
    "route": "岸和田駅前→市民病院前→和泉中央駅",
    "stop": "摩湯",
    "passTime": "12:12",
    "vehicleType": "南海ウイングバス(車椅子・ワンステップ)",
    "updateTime": "2026/07/23 12:15"
  },
  {
    "vehicleNum": "091740",
    "vehicleCd": "105",
    "vehicleCorpCd": "2",
    "running": true,
    "lat": 34.473583,
    "lon": 135.396194,
    "route": "和泉中央駅→徳洲会病院→岸和田駅前",
    "stop": "荒木西",
    "passTime": "12:15",
    "vehicleType": "南海ウイングバス(車椅子・ベビーカー・ワンステップ)",
    "updateTime": "2026/07/23 12:15"
  },
  {
    "vehicleNum": "091784",
    "vehicleCd": "119",
    "vehicleCorpCd": "2",
    "running": true,
    "lat": 34.378972,
    "lon": 135.376278,
    "route": "熊取町　自然公園方面循環コース",
    "stop": "永楽ゆめの森公園前",
    "passTime": "12:13",
    "vehicleType": "熊取町コミュニティバス(ジャンプ君号)",
    "updateTime": "2026/07/23 12:15"
  },
  {
    "vehicleNum": "091785",
    "vehicleCd": "120",
    "vehicleCorpCd": "2",
    "running": true,
    "lat": 34.415,
    "lon": 135.358083,
    "route": "熊取町　七山方面循環コース",
    "stop": "七山西",
    "passTime": "12:13",
    "vehicleType": "熊取町コミュニティバス(メジーナちゃん号)",
    "updateTime": "2026/07/23 12:15"
  },
  {
    "vehicleNum": "091893",
    "vehicleCd": "84",
    "vehicleCorpCd": "2",
    "running": true,
    "lat": 34.362694,
    "lon": 135.277389,
    "route": "泉南市コミュニティバス 砂川回り",
    "stop": "砂川駅前通り",
    "passTime": "12:14",
    "vehicleType": "岸和田市コミュニティバス(ローズバス)",
    "updateTime": "2026/07/23 12:15"
  },
  {
    "vehicleNum": "091894",
    "vehicleCd": "3",
    "vehicleCorpCd": "2",
    "running": true,
    "lat": 34.3605,
    "lon": 135.302278,
    "route": "泉南市コミュニティバス 新家回り",
    "stop": "ルナりんくう団地",
    "passTime": "12:14",
    "vehicleType": "泉南市コミュニティバス(紫)",
    "updateTime": "2026/07/23 12:15"
  },
  {
    "vehicleNum": "091895",
    "vehicleCd": "4",
    "vehicleCorpCd": "2",
    "running": true,
    "lat": 34.372389,
    "lon": 135.282,
    "route": "泉南市コミュニティバス 一丘Ａ回り",
    "stop": "一丘団地南",
    "passTime": "12:12",
    "vehicleType": "泉南市コミュニティバス(ピンク)",
    "updateTime": "2026/07/23 12:15"
  },
  {
    "vehicleNum": "092044",
    "vehicleCd": "462",
    "vehicleCorpCd": "1",
    "running": true,
    "lat": 34.450694,
    "lon": 135.572694,
    "route": "ﾓｯｸﾙ 美加～木戸東町～美加",
    "stop": "ラブリーホール前",
    "passTime": "12:10",
    "vehicleType": "南海バス(車椅子・ベビーカー・ノンステップ)",
    "updateTime": "2026/07/23 12:15"
  },
  {
    "vehicleNum": "092141",
    "vehicleCd": "527",
    "vehicleCorpCd": "1",
    "running": true,
    "lat": 34.6085,
    "lon": 135.453694,
    "route": "堺東駅前→ＡＴＣ→海遊館→堺東駅前",
    "stop": "海遊館",
    "passTime": "11:46",
    "vehicleType": "南海バス",
    "updateTime": "2026/07/23 12:15"
  },
  {
    "vehicleNum": "092045",
    "vehicleCd": "463",
    "vehicleCorpCd": "1",
    "running": true,
    "lat": 34.454694,
    "lon": 135.560694,
    "route": "ﾓｯｸﾙ 美加～木戸東町～美加",
    "stop": "市民交流センター前",
    "passTime": "12:15",
    "vehicleType": "南海バス(車椅子・ベビーカー・ノンステップ)",
    "updateTime": "2026/07/23 12:15"
  },
  {
    "vehicleNum": "092140",
    "vehicleCd": "526",
    "vehicleCorpCd": "1",
    "running": true,
    "lat": 34.584778,
    "lon": 135.460694,
    "route": "堺東駅前→ＡＴＣ→海遊館→堺東駅前",
    "stop": "堺駅前",
    "passTime": "12:08",
    "vehicleType": "南海バス",
    "updateTime": "2026/07/23 12:15"
  },
  {
    "vehicleNum": "092205",
    "vehicleCd": "25",
    "vehicleCorpCd": "1",
    "running": true,
    "lat": 34.429889,
    "lon": 135.581694,
    "route": "美加の台駅前→美加の台西→美加の台駅前",
    "stop": "第一公園前",
    "passTime": "12:14",
    "vehicleType": "南海バス(車椅子・ベビーカー・ノンステップ)",
    "updateTime": "2026/07/23 12:15"
  },
  {
    "vehicleNum": "092233",
    "vehicleCd": "533",
    "vehicleCorpCd": "1",
    "running": true,
    "lat": 34.5155,
    "lon": 135.464472,
    "route": "光明池駅→山田→堺東駅前",
    "stop": "山田北",
    "passTime": "12:14",
    "vehicleType": "南海バス(車椅子・ベビーカー・ノンステップ)",
    "updateTime": "2026/07/23 12:15"
  },
  {
    "vehicleNum": "092372",
    "vehicleCd": "159",
    "vehicleCorpCd": "1",
    "running": true,
    "lat": 34.4635,
    "lon": 135.455583,
    "route": "和泉府中駅前→玄関→和泉中央駅→ららぽｰと和泉前",
    "stop": "いぶき野三丁目",
    "passTime": "12:15",
    "vehicleType": "南海バス(車椅子・ベビーカー・ノンステップ)",
    "updateTime": "2026/07/23 12:15"
  },
  {
    "vehicleNum": "092373",
    "vehicleCd": "553",
    "vehicleCorpCd": "1",
    "running": true,
    "lat": 34.469194,
    "lon": 135.469194,
    "route": "堺東駅前→鳳駅前→光明池駅",
    "stop": "変電所前",
    "passTime": "12:14",
    "vehicleType": "南海バス(車椅子・ベビーカー・ノンステップ)",
    "updateTime": "2026/07/23 12:15"
  },
  {
    "vehicleNum": "092384",
    "vehicleCd": "558",
    "vehicleCorpCd": "1",
    "running": true,
    "lat": 34.458389,
    "lon": 135.460278,
    "route": "和泉中央駅→のぞみ野南→美術館",
    "stop": "万町弘法寺前",
    "passTime": "12:15",
    "vehicleType": "南海バス(車椅子・ベビーカー・ノンステップ)",
    "updateTime": "2026/07/23 12:15"
  },
  {
    "vehicleNum": "092394",
    "vehicleCd": "42",
    "vehicleCorpCd": "1",
    "running": true,
    "lat": 34.437583,
    "lon": 135.231278,
    "route": "エアロプラザ→第２ターミナル(国内線・国際線)→エアロプラザ",
    "stop": "エアロプラザ",
    "passTime": "12:10",
    "vehicleType": "南海バス(車椅子・ノンステップ)",
    "updateTime": "2026/07/23 12:15"
  },
  {
    "vehicleNum": "092398",
    "vehicleCd": "41",
    "vehicleCorpCd": "1",
    "running": true,
    "lat": 34.436778,
    "lon": 135.233889,
    "route": "エアロプラザ→第２ターミナル(国内線・国際線)→エアロプラザ",
    "stop": "第2ターミナル国際線",
    "passTime": "12:14",
    "vehicleType": "南海バス(車椅子・ノンステップ)",
    "updateTime": "2026/07/23 12:15"
  },
  {
    "vehicleNum": "092467",
    "vehicleCd": "50",
    "vehicleCorpCd": "1",
    "running": true,
    "lat": 34.445278,
    "lon": 135.553194,
    "route": "河内長野駅前→水落→旭ヶ丘",
    "stop": "上原口",
    "passTime": "12:14",
    "vehicleType": "南海バス(車椅子・ベビーカー・ノンステップ)",
    "updateTime": "2026/07/23 12:15"
  },
  {
    "vehicleNum": "092468",
    "vehicleCd": "51",
    "vehicleCorpCd": "1",
    "running": true,
    "lat": 34.433194,
    "lon": 135.561194,
    "route": "三日市町駅前→南花台１丁目北→南ヶ丘",
    "stop": "南花台１丁目北",
    "passTime": "12:14",
    "vehicleType": "南海バス(車椅子・ベビーカー・ノンステップ)",
    "updateTime": "2026/07/23 12:15"
  },
  {
    "vehicleNum": "092469",
    "vehicleCd": "220",
    "vehicleCorpCd": "1",
    "running": true,
    "lat": 34.439889,
    "lon": 135.578194,
    "route": "金剛山ﾛｰﾌﾟｳｪｲ前→日東町東口→河内長野駅前",
    "stop": "東中学校前（河内長野市）",
    "passTime": "12:14",
    "vehicleType": "南海バス(車椅子・ベビーカー・ノンステップ)",
    "updateTime": "2026/07/23 12:15"
  },
  {
    "vehicleNum": "092498",
    "vehicleCd": "8",
    "vehicleCorpCd": "1",
    "running": true,
    "lat": 34.562278,
    "lon": 135.4745,
    "route": "光明池駅→山田→堺東駅前",
    "stop": "旭ヶ丘北町",
    "passTime": "12:15",
    "vehicleType": "南海バス(車椅子・ベビーカー・ノンステップ)",
    "updateTime": "2026/07/23 12:15"
  },
  {
    "vehicleNum": "092501",
    "vehicleCd": "139",
    "vehicleCorpCd": "2",
    "running": true,
    "lat": 34.457083,
    "lon": 135.396972,
    "route": "ローズバス　左回り",
    "stop": "下松駅前",
    "passTime": "12:15",
    "vehicleType": "岸和田市コミュニティバス(ローズバス)",
    "updateTime": "2026/07/23 12:15"
  },
  {
    "vehicleNum": "092533",
    "vehicleCd": "288",
    "vehicleCorpCd": "1",
    "running": true,
    "lat": 34.488,
    "lon": 135.494278,
    "route": "泉ヶ丘駅→光明池駅→城山台２丁→光明池駅→泉ヶ丘駅",
    "stop": "光明池駅",
    "passTime": "12:09",
    "vehicleType": "南海バス(車椅子・ベビーカー・ノンステップ)",
    "updateTime": "2026/07/23 12:15"
  },
  {
    "vehicleNum": "092561",
    "vehicleCd": "74",
    "vehicleCorpCd": "1",
    "running": true,
    "lat": 34.509,
    "lon": 135.584694,
    "route": "PL病院→金剛駅前（東側）→津々山台2丁目→PL病院",
    "stop": "富田林病院前",
    "passTime": "12:10",
    "vehicleType": "南海バス(車椅子・ベビーカー・ノンステップ)",
    "updateTime": "2026/07/23 12:15"
  },
  {
    "vehicleNum": "092569",
    "vehicleCd": "266",
    "vehicleCorpCd": "1",
    "running": true,
    "lat": 34.456694,
    "lon": 135.448778,
    "route": "和泉中央駅→寺田→泉大津駅前",
    "stop": "唐国南",
    "passTime": "12:13",
    "vehicleType": "南海バス(車椅子・ベビーカー・ノンステップ)",
    "updateTime": "2026/07/23 12:15"
  },
  {
    "vehicleNum": "092580",
    "vehicleCd": "377",
    "vehicleCorpCd": "1",
    "running": true,
    "lat": 34.482889,
    "lon": 135.428389,
    "route": "和泉中央駅→阪本→泉大津駅前",
    "stop": "府中町南",
    "passTime": "12:15",
    "vehicleType": "南海バス(車椅子・ベビーカー・ノンステップ)",
    "updateTime": "2026/07/23 12:15"
  },
  {
    "vehicleNum": "092623",
    "vehicleCd": "15",
    "vehicleCorpCd": "1",
    "running": true,
    "lat": 34.474694,
    "lon": 135.476,
    "route": "泉ヶ丘駅→光明池駅→赤坂台４丁→光明池駅→泉ヶ丘駅",
    "stop": "泉ヶ丘駅（北側）",
    "passTime": "12:04",
    "vehicleType": "南海バス(車椅子・ベビーカー・ノンステップ)",
    "updateTime": "2026/07/23 12:15"
  },
  {
    "vehicleNum": "092587",
    "vehicleCd": "124",
    "vehicleCorpCd": "1",
    "running": true,
    "lat": 34.402889,
    "lon": 135.530472,
    "route": "滝畑ダム→奥河内くろまろの郷→河内長野駅前",
    "stop": "滝尻口",
    "passTime": "12:12",
    "vehicleType": "南海バス(車椅子・ベビーカー・ノンステップ)",
    "updateTime": "2026/07/23 12:15"
  },
  {
    "vehicleNum": "092647",
    "vehicleCd": "587",
    "vehicleCorpCd": "1",
    "running": true,
    "lat": 34.449889,
    "lon": 135.558,
    "route": "旭ヶ丘→水落→河内長野駅前",
    "stop": "上原口",
    "passTime": "12:13",
    "vehicleType": "南海バス(車椅子・ベビーカー・ノンステップ)",
    "updateTime": "2026/07/23 12:15"
  },
  {
    "vehicleNum": "092696",
    "vehicleCd": "589",
    "vehicleCorpCd": "1",
    "running": true,
    "lat": 34.461083,
    "lon": 135.473694,
    "route": "光明池駅→変電所前→公団西口→光明池車庫",
    "stop": "公団西口",
    "passTime": "12:15",
    "vehicleType": "南海バス(車椅子・ベビーカー・ノンステップ)",
    "updateTime": "2026/07/23 12:15"
  },
  {
    "vehicleNum": "092757",
    "vehicleCd": "306",
    "vehicleCorpCd": "1",
    "running": true,
    "lat": 34.433694,
    "lon": 135.582889,
    "route": "三日市町駅前→清見台回り→三日市町駅前",
    "stop": "清見台３丁目",
    "passTime": "12:15",
    "vehicleType": "南海バス(車椅子・ベビーカー・ノンステップ)",
    "updateTime": "2026/07/23 12:15"
  },
  {
    "vehicleNum": "092758",
    "vehicleCd": "363",
    "vehicleCorpCd": "1",
    "running": true,
    "lat": 34.433889,
    "lon": 135.561889,
    "route": "南ヶ丘→南花台４丁目→三日市町駅前",
    "stop": "南花台１丁目北",
    "passTime": "12:15",
    "vehicleType": "南海バス(車椅子・ベビーカー・ノンステップ)",
    "updateTime": "2026/07/23 12:15"
  },
  {
    "vehicleNum": "092763",
    "vehicleCd": "520",
    "vehicleCorpCd": "1",
    "running": true,
    "lat": 34.460083,
    "lon": 135.488389,
    "route": "みずき台２丁目西→光明池駅",
    "stop": "光明台一丁目",
    "passTime": "12:14",
    "vehicleType": "南海バス(車椅子・ベビーカー・ノンステップ)",
    "updateTime": "2026/07/23 12:15"
  },
  {
    "vehicleNum": "092829",
    "vehicleCd": "488",
    "vehicleCorpCd": "1",
    "running": true,
    "lat": 34.484472,
    "lon": 135.425,
    "route": "和泉中央駅→医療センター玄関口→和泉府中駅前",
    "stop": "府中町南",
    "passTime": "12:11",
    "vehicleType": "南海バス(車椅子・ベビーカー・ノンステップ)",
    "updateTime": "2026/07/23 12:15"
  },
  {
    "vehicleNum": "092831",
    "vehicleCd": "417",
    "vehicleCorpCd": "1",
    "running": true,
    "lat": 34.511694,
    "lon": 135.475389,
    "route": "堺東駅前→鳳駅前→国分峠東",
    "stop": "万崎",
    "passTime": "12:13",
    "vehicleType": "南海バス(車椅子・ベビーカー・ノンステップ)",
    "updateTime": "2026/07/23 12:15"
  },
  {
    "vehicleNum": "092856",
    "vehicleCd": "601",
    "vehicleCorpCd": "1",
    "running": true,
    "lat": 34.533,
    "lon": 135.4615,
    "route": "国分峠東→栂・美木多駅→堺東駅前",
    "stop": "鳳駅前",
    "passTime": "12:10",
    "vehicleType": "南海バス(車椅子・ベビーカー・ノンステップ)",
    "updateTime": "2026/07/23 12:15"
  },
  {
    "vehicleNum": "092858",
    "vehicleCd": "320",
    "vehicleCorpCd": "1",
    "running": true,
    "lat": 34.473194,
    "lon": 135.431389,
    "route": "泉大津駅前→和泉府中駅前→和泉中央駅",
    "stop": "寺門",
    "passTime": "12:14",
    "vehicleType": "南海バス(車椅子・ベビーカー・ノンステップ)",
    "updateTime": "2026/07/23 12:15"
  },
  {
    "vehicleNum": "092859",
    "vehicleCd": "32",
    "vehicleCorpCd": "1",
    "running": true,
    "lat": 34.4565,
    "lon": 135.553194,
    "route": "千代→緑→小山田→千代",
    "stop": "中の町",
    "passTime": "12:14",
    "vehicleType": "南海バス(車椅子・ベビーカー・ノンステップ)",
    "updateTime": "2026/07/23 12:15"
  },
  {
    "vehicleNum": "092901",
    "vehicleCd": "356",
    "vehicleCorpCd": "1",
    "running": true,
    "lat": 34.489194,
    "lon": 135.418778,
    "route": "泉大津駅前→和泉府中駅前→和泉中央駅→光明池駅",
    "stop": "泉大津急性期メディカルセンター前",
    "passTime": "12:15",
    "vehicleType": "南海バス(車椅子・ベビーカー・ノンステップ)",
    "updateTime": "2026/07/23 12:15"
  },
  {
    "vehicleNum": "092919",
    "vehicleCd": "230",
    "vehicleCorpCd": "1",
    "running": true,
    "lat": 34.422889,
    "lon": 135.611389,
    "route": "河内長野駅前→日東町東口→金剛山ﾛｰﾌﾟｳｪｲ前",
    "stop": "西端",
    "passTime": "12:15",
    "vehicleType": "南海バス(車椅子・ベビーカー・ノンステップ)",
    "updateTime": "2026/07/23 12:15"
  },
  {
    "vehicleNum": "092936",
    "vehicleCd": "322",
    "vehicleCorpCd": "1",
    "running": true,
    "lat": 34.426778,
    "lon": 135.230694,
    "route": "給油地区→空港駅",
    "stop": "第1輸出ビル前",
    "passTime": "12:15",
    "vehicleType": "南海バス(車椅子・ベビーカー・ノンステップ)",
    "updateTime": "2026/07/23 12:15"
  },
  {
    "vehicleNum": "092937",
    "vehicleCd": "73",
    "vehicleCorpCd": "1",
    "running": true,
    "lat": 34.438583,
    "lon": 135.449889,
    "route": "和泉中央駅→テクノステージセンター前→グリーンポリス前→和泉中央駅",
    "stop": "大阪技術研前",
    "passTime": "12:11",
    "vehicleType": "南海バス(車椅子・ベビーカー・ノンステップ)",
    "updateTime": "2026/07/23 12:15"
  },
  {
    "vehicleNum": "092953",
    "vehicleCd": "122",
    "vehicleCorpCd": "1",
    "running": true,
    "lat": 34.435778,
    "lon": 135.24,
    "route": "給油地区→ＦｅｄＥｘ→空港駅",
    "stop": "機内食前",
    "passTime": "12:10",
    "vehicleType": "南海バス(車椅子・ベビーカー・ノンステップ)",
    "updateTime": "2026/07/23 12:15"
  },
  {
    "vehicleNum": "092976",
    "vehicleCd": "138",
    "vehicleCorpCd": "1",
    "running": true,
    "lat": 34.455083,
    "lon": 135.491194,
    "route": "光明池駅→光明池車庫→和泉中央駅→泉大津駅前",
    "stop": "光明台二丁目",
    "passTime": "12:14",
    "vehicleType": "南海バス(車椅子・ベビーカー・ノンステップ)",
    "updateTime": "2026/07/23 12:15"
  },
  {
    "vehicleNum": "092977",
    "vehicleCd": "608",
    "vehicleCorpCd": "1",
    "running": true,
    "lat": 34.492083,
    "lon": 135.480778,
    "route": "栂・美木多駅→鳳駅前→堺東駅前",
    "stop": "桃山台三丁",
    "passTime": "12:15",
    "vehicleType": "南海バス(車椅子・ベビーカー・ノンステップ)",
    "updateTime": "2026/07/23 12:15"
  },
  {
    "vehicleNum": "093074",
    "vehicleCd": "247",
    "vehicleCorpCd": "1",
    "running": true,
    "lat": 34.4665,
    "lon": 135.463889,
    "route": "和泉中央駅→和泉青葉台→はつが野→和泉中央駅（右回り）",
    "stop": "和泉中央駅",
    "passTime": "12:10",
    "vehicleType": "南海バス(車椅子・ベビーカー・ノンステップ)",
    "updateTime": "2026/07/23 12:15"
  },
  {
    "vehicleNum": "092595",
    "vehicleCd": "326",
    "vehicleCorpCd": "1",
    "running": true,
    "lat": 34.427972,
    "lon": 135.565472,
    "route": "三日→加塩→神納",
    "stop": "加塩",
    "passTime": "12:14",
    "vehicleType": "南海バス(車椅子・ベビーカー・ノンステップ)",
    "updateTime": "2026/07/23 12:15"
  },
  {
    "vehicleNum": "092579",
    "vehicleCd": "579",
    "vehicleCorpCd": "1",
    "running": true,
    "lat": 34.463,
    "lon": 135.561194,
    "route": "千代田駅前→赤峯→荘園町",
    "stop": "南海西友前",
    "passTime": "12:13",
    "vehicleType": "南海バス(車椅子・ベビーカー・ノンステップ)",
    "updateTime": "2026/07/23 12:15"
  }
]