[
  {
    "vehicleNum": "070107",
    "vehicleCd": "405",
    "vehicleCorpCd": "1",
    "running": true,
    "lat": 34.501083,
    "lon": 135.538889,
    "route": "金剛駅前→泉ヶ丘駅→近大キャンパス前→金剛駅前",
    "stop": "近大おおさかメディカルキャンパス前",
    "passTime": "09:35",
    "vehicleType": "泉北コミュニティバス(車椅子・ベビーカー・ノンステップ)",
    "updateTime": "2026/07/22 09:41"
  },
  {
    "vehicleNum": "070106",
    "vehicleCd": "404",
    "vehicleCorpCd": "1",
    "running": true,
    "lat": 34.488583,
    "lon": 135.521972,
    "route": "泉ヶ丘駅→狭山ニュータウンセンター→金剛駅前",
    "stop": "茶山台２丁",
    "passTime": "09:39",
    "vehicleType": "泉北コミュニティバス(車椅子・ベビーカー・ノンステップ)",
    "updateTime": "2026/07/22 09:41"
  },
  {
    "vehicleNum": "070189",
    "vehicleCd": "67",
    "vehicleCorpCd": "1",
    "running": true,
    "lat": 34.576389,
    "lon": 135.4955,
    "route": "河内松原駅前→阪和堺市駅前→堺東駅前",
    "stop": "阪和堺市駅筋",
    "passTime": "09:39",
    "vehicleType": "南海バス(車椅子・ベビーカー・ワンステップ)",
    "updateTime": "2026/07/22 09:41"
  },
  {
    "vehicleNum": "071602",
    "vehicleCd": "109",
    "vehicleCorpCd": "1",
    "running": true,
    "lat": 34.574278,
    "lon": 135.482472,
    "route": "堺東駅前→大小路→堺駅前",
    "stop": "堺市役所前",
    "passTime": "09:40",
    "vehicleType": "堺シャトル(車椅子・ベビーカー・ノンステップ)",
    "updateTime": "2026/07/22 09:41"
  },
  {
    "vehicleNum": "071606",
    "vehicleCd": "413",
    "vehicleCorpCd": "1",
    "running": true,
    "lat": 34.581694,
    "lon": 135.4695,
    "route": "堺駅前→大小路→堺東駅前",
    "stop": "堺駅前",
    "passTime": "09:41",
    "vehicleType": "堺シャトル(車椅子・ベビーカー・ノンステップ)",
    "updateTime": "2026/07/22 09:41"
  },
  {
    "vehicleNum": "080088",
    "vehicleCd": "442",
    "vehicleCorpCd": "1",
    "running": true,
    "lat": 34.495083,
    "lon": 135.559889,
    "route": "金剛駅前→向陽・藤沢回り→金剛駅前",
    "stop": "久野喜台二丁目",
    "passTime": "09:38",
    "vehicleType": "南海バス(車椅子・ベビーカー・ワンステップ)",
    "updateTime": "2026/07/22 09:41"
  },
  {
    "vehicleNum": "080134",
    "vehicleCd": "118",
    "vehicleCorpCd": "2",
    "running": true,
    "lat": 34.4005,
    "lon": 135.363194,
    "route": "熊取駅前→熊取ニュータウン(フリー乗降)",
    "stop": "大原口",
    "passTime": "09:40",
    "vehicleType": "南海ウイングバス(車椅子・ベビーカー・ワンステップ)",
    "updateTime": "2026/07/22 09:41"
  },
  {
    "vehicleNum": "080186",
    "vehicleCd": "39",
    "vehicleCorpCd": "2",
    "running": true,
    "lat": 34.393,
    "lon": 135.347583,
    "route": "泉佐野駅前→ダンバラ公園前→熊取駅前→大阪体育大学前→つばさが丘北口",
    "stop": "中ノ池北",
    "passTime": "09:40",
    "vehicleType": "南海ウイングバス(車椅子・ベビーカー・ノンステップ)",
    "updateTime": "2026/07/22 09:41"
  },
  {
    "vehicleNum": "080187",
    "vehicleCd": "66",
    "vehicleCorpCd": "1",
    "running": true,
    "lat": 34.593583,
    "lon": 135.447889,
    "route": "【急行】瓦町公園前→海浜匠町",
    "stop": "瓦町公園前",
    "passTime": "09:25",
    "vehicleType": "南海バス(車椅子・ベビーカー・ノンステップ)",
    "updateTime": "2026/07/22 09:41"
  },
  {
    "vehicleNum": "080318",
    "vehicleCd": "83",
    "vehicleCorpCd": "1",
    "running": true,
    "lat": 34.605194,
    "lon": 135.473,
    "route": "住之江公園駅前→匠町",
    "stop": "住之江公園駅前",
    "passTime": "09:38",
    "vehicleType": "南海バス(車椅子・ベビーカー・ワンステップ)",
    "updateTime": "2026/07/22 09:41"
  },
  {
    "vehicleNum": "080270",
    "vehicleCd": "86",
    "vehicleCorpCd": "2",
    "running": true,
    "lat": 34.328278,
    "lon": 135.215694,
    "route": "箱作駅前→桃の木台回り→箱作駅前",
    "stop": "桃の木台５丁目",
    "passTime": "09:40",
    "vehicleType": "南海バス(車椅子・ワンステップ)",
    "updateTime": "2026/07/22 09:41"
  },
  {
    "vehicleNum": "080315",
    "vehicleCd": "80",
    "vehicleCorpCd": "1",
    "running": true,
    "lat": 34.600389,
    "lon": 135.449694,
    "route": "匠町→住之江公園駅前→匠町",
    "stop": "堺浜南",
    "passTime": "09:38",
    "vehicleType": "南海バス(車椅子・ベビーカー・ワンステップ)",
    "updateTime": "2026/07/22 09:41"
  },
  {
    "vehicleNum": "080345",
    "vehicleCd": "121",
    "vehicleCorpCd": "2",
    "running": true,
    "lat": 34.402278,
    "lon": 135.353083,
    "route": "熊取ニュータウン→熊取駅前→上瓦屋町→泉佐野駅前（フリー乗降）",
    "stop": "熊取役場前",
    "passTime": "09:41",
    "vehicleType": "南海ウイングバス",
    "updateTime": "2026/07/22 09:41"
  },
  {
    "vehicleNum": "080381",
    "vehicleCd": "88",
    "vehicleCorpCd": "1",
    "running": true,
    "lat": 34.582389,
    "lon": 135.459194,
    "route": "堺東駅前→ＡＴＣ／フェリー→堺東駅前",
    "stop": "南港フェリーターミナル",
    "passTime": "09:23",
    "vehicleType": "南海バス(車椅子・ワンステップ)",
    "updateTime": "2026/07/22 09:41"
  },
  {
    "vehicleNum": "080483",
    "vehicleCd": "157",
    "vehicleCorpCd": "1",
    "running": true,
    "lat": 34.533194,
    "lon": 135.462694,
    "route": "堺市立総合医療センター前→鳳駅前→石津川駅前",
    "stop": "鳳駅前",
    "passTime": "09:38",
    "vehicleType": "南海バス(車椅子・ベビーカー・ノンステップ)",
    "updateTime": "2026/07/22 09:41"
  },
  {
    "vehicleNum": "080594",
    "vehicleCd": "437",
    "vehicleCorpCd": "1",
    "running": true,
    "lat": 34.5525,
    "lon": 135.541889,
    "route": "美原区役所→野遠→地下鉄新金岡駅前",
    "stop": "石原",
    "passTime": "09:40",
    "vehicleType": "南海バス(車椅子・ベビーカー・ノンステップ)",
    "updateTime": "2026/07/22 09:41"
  },
  {
    "vehicleNum": "080629",
    "vehicleCd": "447",
    "vehicleCorpCd": "1",
    "running": true,
    "lat": 34.564083,
    "lon": 135.518083,
    "route": "地下鉄新金岡駅前→野遠→美原区役所",
    "stop": "金岡口",
    "passTime": "09:40",
    "vehicleType": "南海バス(車椅子・ベビーカー・ノンステップ)",
    "updateTime": "2026/07/22 09:41"
  },
  {
    "vehicleNum": "080644",
    "vehicleCd": "452",
    "vehicleCorpCd": "1",
    "running": true,
    "lat": 34.560694,
    "lon": 135.469694,
    "route": "堺駅南口→堺駅前",
    "stop": "協和町",
    "passTime": "09:39",
    "vehicleType": "南海バス(車椅子・ベビーカー・ノンステップ)",
    "updateTime": "2026/07/22 09:41"
  },
  {
    "vehicleNum": "080651",
    "vehicleCd": "455",
    "vehicleCorpCd": "1",
    "running": true,
    "lat": 34.556583,
    "lon": 135.541778,
    "route": "北野田駅前→菩提→地下鉄新金岡駅前",
    "stop": "出屋敷",
    "passTime": "09:39",
    "vehicleType": "南海バス",
    "updateTime": "2026/07/22 09:41"
  },
  {
    "vehicleNum": "080652",
    "vehicleCd": "456",
    "vehicleCorpCd": "1",
    "running": true,
    "lat": 34.538278,
    "lon": 135.560694,
    "route": "美原区役所→初芝駅前→美原区役所",
    "stop": "美原区役所前",
    "passTime": "09:38",
    "vehicleType": "南海バス",
    "updateTime": "2026/07/22 09:41"
  },
  {
    "vehicleNum": "080671",
    "vehicleCd": "465",
    "vehicleCorpCd": "1",
    "running": true,
    "lat": 34.574778,
    "lon": 135.514,
    "route": "堺駅南口→労災病院前→阪和堺市駅前",
    "stop": "蔵前西",
    "passTime": "09:40",
    "vehicleType": "南海バス(車椅子・ベビーカー・ノンステップ)",
    "updateTime": "2026/07/22 09:41"
  },
  {
    "vehicleNum": "080703",
    "vehicleCd": "219",
    "vehicleCorpCd": "1",
    "running": true,
    "lat": 34.584583,
    "lon": 135.496889,
    "route": "河内天美駅前→天美我堂→堺東駅前",
    "stop": "愛泉学園前",
    "passTime": "09:41",
    "vehicleType": "南海バス(車椅子・ベビーカー・ノンステップ)",
    "updateTime": "2026/07/22 09:41"
  },
  {
    "vehicleNum": "080705",
    "vehicleCd": "542",
    "vehicleCorpCd": "1",
    "running": true,
    "lat": 34.595972,
    "lon": 135.479583,
    "route": "堺東→住之江公園→堺東",
    "stop": "イオンモール堺鉄砲町",
    "passTime": "09:37",
    "vehicleType": "南海バス(車椅子・ベビーカー・ノンステップ)",
    "updateTime": "2026/07/22 09:41"
  },
  {
    "vehicleNum": "080706",
    "vehicleCd": "543",
    "vehicleCorpCd": "1",
    "running": true,
    "lat": 34.564778,
    "lon": 135.476583,
    "route": "堺駅前→堺駅南口",
    "stop": "大仙中町",
    "passTime": "09:40",
    "vehicleType": "南海バス(車椅子・ベビーカー・ノンステップ)",
    "updateTime": "2026/07/22 09:41"
  },
  {
    "vehicleNum": "080708",
    "vehicleCd": "537",
    "vehicleCorpCd": "1",
    "running": true,
    "lat": 34.4855,
    "lon": 135.503278,
    "route": "泉ヶ丘駅→鉢ヶ峯→泉ヶ丘駅",
    "stop": "南片蔵",
    "passTime": "09:40",
    "vehicleType": "南海バス(車椅子・ベビーカー・ノンステップ)",
    "updateTime": "2026/07/22 09:41"
  },
  {
    "vehicleNum": "080744",
    "vehicleCd": "550",
    "vehicleCorpCd": "1",
    "running": true,
    "lat": 34.484889,
    "lon": 135.4915,
    "route": "栂・美木多駅→庭代台右回り→泉ヶ丘駅",
    "stop": "栂・美木多駅",
    "passTime": "09:40",
    "vehicleType": "南海バス(車椅子・ベビーカー・ノンステップ)",
    "updateTime": "2026/07/22 09:41"
  },
  {
    "vehicleNum": "080745",
    "vehicleCd": "57",
    "vehicleCorpCd": "1",
    "running": true,
    "lat": 34.498389,
    "lon": 135.547583,
    "route": "泉ヶ丘駅→狭山ニュータウンセンター→金剛駅前",
    "stop": "亀の甲",
    "passTime": "09:41",
    "vehicleType": "南海バス(車椅子・ベビーカー・ノンステップ)",
    "updateTime": "2026/07/22 09:41"
  },
  {
    "vehicleNum": "080747",
    "vehicleCd": "161",
    "vehicleCorpCd": "1",
    "running": true,
    "lat": 34.543778,
    "lon": 135.5265,
    "route": "美原区役所前→船戸下→初芝駅前→中もず駅前",
    "stop": "初芝駅前",
    "passTime": "09:38",
    "vehicleType": "南海バス(車椅子・ベビーカー・ノンステップ)",
    "updateTime": "2026/07/22 09:41"
  },
  {
    "vehicleNum": "080753",
    "vehicleCd": "552",
    "vehicleCorpCd": "1",
    "running": true,
    "lat": 34.490889,
    "lon": 135.503694,
    "route": "泉ヶ丘駅→若松台左回り→泉ヶ丘駅",
    "stop": "泉北高校前",
    "passTime": "09:40",
    "vehicleType": "南海バス(車椅子・ベビーカー・ノンステップ)",
    "updateTime": "2026/07/22 09:41"
  },
  {
    "vehicleNum": "080755",
    "vehicleCd": "170",
    "vehicleCorpCd": "1",
    "running": true,
    "lat": 34.475889,
    "lon": 135.543,
    "route": "金剛駅前→狭山ニュータウンセンター→泉ヶ丘駅",
    "stop": "大野台四丁目",
    "passTime": "09:40",
    "vehicleType": "南海バス(車椅子・ベビーカー・ノンステップ)",
    "updateTime": "2026/07/22 09:41"
  },
  {
    "vehicleNum": "080756",
    "vehicleCd": "315",
    "vehicleCorpCd": "1",
    "running": true,
    "lat": 34.495889,
    "lon": 135.512389,
    "route": "金剛駅前→帝塚山学院泉ヶ丘校前→泉ヶ丘駅前",
    "stop": "茶山台２丁",
    "passTime": "09:38",
    "vehicleType": "南海バス(車椅子・ベビーカー・ノンステップ)",
    "updateTime": "2026/07/22 09:41"
  },
  {
    "vehicleNum": "080758",
    "vehicleCd": "511",
    "vehicleCorpCd": "1",
    "running": true,
    "lat": 34.487778,
    "lon": 135.531389,
    "route": "泉ヶ丘駅→晴美台右回り→泉ヶ丘駅",
    "stop": "帝塚山学院泉ケ丘校前",
    "passTime": "09:40",
    "vehicleType": "南海バス(車椅子・ベビーカー・ノンステップ)",
    "updateTime": "2026/07/22 09:41"
  },
  {
    "vehicleNum": "080697",
    "vehicleCd": "461",
    "vehicleCorpCd": "1",
    "running": true,
    "lat": 34.567389,
    "lon": 135.505694,
    "route": "堺東駅前→労災病院前→白鷺駅前（循環）",
    "stop": "金岡公園前",
    "passTime": "09:41",
    "vehicleType": "南海バス",
    "updateTime": "2026/07/22 09:41"
  },
  {
    "vehicleNum": "080761",
    "vehicleCd": "560",
    "vehicleCorpCd": "1",
    "running": true,
    "lat": 34.574778,
    "lon": 135.480694,
    "route": "河内松原駅前→阪和堺市駅前→堺駅前",
    "stop": "瓦町公園前",
    "passTime": "09:38",
    "vehicleType": "南海バス(車椅子・ベビーカー・ノンステップ)",
    "updateTime": "2026/07/22 09:41"
  },
  {
    "vehicleNum": "080763",
    "vehicleCd": "562",
    "vehicleCorpCd": "1",
    "running": true,
    "lat": 34.543583,
    "lon": 135.485972,
    "route": "中もず駅前→北条→深井駅→中老人福祉センター",
    "stop": "もず陵南町西",
    "passTime": "09:37",
    "vehicleType": "南海バス(車椅子・ベビーカー・ノンステップ)",
    "updateTime": "2026/07/22 09:41"
  },
  {
    "vehicleNum": "080788",
    "vehicleCd": "299",
    "vehicleCorpCd": "1",
    "running": true,
    "lat": 34.581694,
    "lon": 135.476278,
    "route": "海浜匠町→匠町→堺駅西口→堺東駅前→阪和堺市駅前",
    "stop": "花田口",
    "passTime": "09:40",
    "vehicleType": "南海バス(車椅子・ベビーカー・ノンステップ)",
    "updateTime": "2026/07/22 09:41"
  },
  {
    "vehicleNum": "080766",
    "vehicleCd": "565",
    "vehicleCorpCd": "1",
    "running": true,
    "lat": 34.549889,
    "lon": 135.478194,
    "route": "堺東駅前→堀上緑町１丁→堺東駅前",
    "stop": "上野芝駅前",
    "passTime": "09:41",
    "vehicleType": "南海バス(車椅子・ベビーカー・ノンステップ)",
    "updateTime": "2026/07/22 09:41"
  },
  {
    "vehicleNum": "080767",
    "vehicleCd": "566",
    "vehicleCorpCd": "1",
    "running": true,
    "lat": 34.527,
    "lon": 135.505,
    "route": "北野田駅前→福町→深井駅→鳳駅前",
    "stop": "畑山",
    "passTime": "09:40",
    "vehicleType": "南海バス(車椅子・ベビーカー・ノンステップ)",
    "updateTime": "2026/07/22 09:41"
  },
  {
    "vehicleNum": "080790",
    "vehicleCd": "106",
    "vehicleCorpCd": "1",
    "running": true,
    "lat": 34.59,
    "lon": 135.479,
    "route": "堺駅西口→錦綾町→堺東駅前",
    "stop": "内川橋",
    "passTime": "09:41",
    "vehicleType": "南海バス(車椅子・ベビーカー・ノンステップ)",
    "updateTime": "2026/07/22 09:41"
  },
  {
    "vehicleNum": "080791",
    "vehicleCd": "61",
    "vehicleCorpCd": "1",
    "running": true,
    "lat": 34.568194,
    "lon": 135.4905,
    "route": "堺駅南口→労災病院前→地下鉄新金岡駅前",
    "stop": "永山園",
    "passTime": "09:39",
    "vehicleType": "南海バス(車椅子・ベビーカー・ノンステップ)",
    "updateTime": "2026/07/22 09:41"
  },
  {
    "vehicleNum": "080792",
    "vehicleCd": "302",
    "vehicleCorpCd": "1",
    "running": true,
    "lat": 34.555194,
    "lon": 135.5095,
    "route": "中もず駅前→初芝駅前→船戸下→美原区役所前",
    "stop": "蟻ヶ池",
    "passTime": "09:41",
    "vehicleType": "南海バス(車椅子・ベビーカー・ノンステップ)",
    "updateTime": "2026/07/22 09:41"
  },
  {
    "vehicleNum": "080796",
    "vehicleCd": "108",
    "vehicleCorpCd": "1",
    "running": true,
    "lat": 34.554889,
    "lon": 135.510194,
    "route": "初芝駅前→一条通→堺駅南口",
    "stop": "蟻ヶ池",
    "passTime": "09:40",
    "vehicleType": "南海バス(車椅子・ベビーカー・ノンステップ)",
    "updateTime": "2026/07/22 09:41"
  },
  {
    "vehicleNum": "080795",
    "vehicleCd": "43",
    "vehicleCorpCd": "1",
    "running": true,
    "lat": 34.594472,
    "lon": 135.458472,
    "route": "堺駅西口→匠町",
    "stop": "塩浜町",
    "passTime": "09:39",
    "vehicleType": "南海バス(車椅子・ベビーカー・ノンステップ)",
    "updateTime": "2026/07/22 09:41"
  },
  {
    "vehicleNum": "080799",
    "vehicleCd": "339",
    "vehicleCorpCd": "1",
    "running": true,
    "lat": 34.565694,
    "lon": 135.500694,
    "route": "地下鉄新金岡駅前→労災病院前→近畿中央呼吸器センター前→堺駅南口",
    "stop": "黒土口",
    "passTime": "09:41",
    "vehicleType": "南海バス(車椅子・ベビーカー・ノンステップ)",
    "updateTime": "2026/07/22 09:41"
  },
  {
    "vehicleNum": "080800",
    "vehicleCd": "304",
    "vehicleCorpCd": "1",
    "running": true,
    "lat": 34.575083,
    "lon": 135.555889,
    "route": "堺駅前→堺東駅前→河内松原駅前",
    "stop": "高見の里駅前",
    "passTime": "09:37",
    "vehicleType": "南海バス(車椅子・ベビーカー・ノンステップ)",
    "updateTime": "2026/07/22 09:41"
  },
  {
    "vehicleNum": "080807",
    "vehicleCd": "223",
    "vehicleCorpCd": "1",
    "running": true,
    "lat": 34.562194,
    "lon": 135.519389,
    "route": "堺東駅前→労災病院前→白鷺駅前（循環）",
    "stop": "金岡口",
    "passTime": "09:41",
    "vehicleType": "南海バス(車椅子・ベビーカー・ノンステップ)",
    "updateTime": "2026/07/22 09:41"
  },
  {
    "vehicleNum": "080809",
    "vehicleCd": "215",
    "vehicleCorpCd": "1",
    "running": true,
    "lat": 34.575278,
    "lon": 135.522278,
    "route": "堺東駅前→河内松原駅前",
    "stop": "南花田町",
    "passTime": "09:40",
    "vehicleType": "南海バス(車椅子・ベビーカー・ノンステップ)",
    "updateTime": "2026/07/22 09:41"
  },
  {
    "vehicleNum": "080814",
    "vehicleCd": "193",
    "vehicleCorpCd": "1",
    "running": true,
    "lat": 34.496278,
    "lon": 135.512472,
    "route": "泉ヶ丘駅→晴美台右回り→泉ヶ丘駅",
    "stop": "茶山台２丁",
    "passTime": "09:39",
    "vehicleType": "南海バス(車椅子・ベビーカー・ノンステップ)",
    "updateTime": "2026/07/22 09:41"
  },
  {
    "vehicleNum": "080822",
    "vehicleCd": "576",
    "vehicleCorpCd": "1",
    "running": true,
    "lat": 34.528694,
    "lon": 135.488194,
    "route": "堺東駅前→上野芝→泉ヶ丘駅",
    "stop": "堀上",
    "passTime": "09:40",
    "vehicleType": "南海バス(車椅子・ベビーカー・ノンステップ)",
    "updateTime": "2026/07/22 09:41"
  },
  {
    "vehicleNum": "080825",
    "vehicleCd": "261",
    "vehicleCorpCd": "1",
    "running": true,
    "lat": 34.514083,
    "lon": 135.511083,
    "route": "深井駅→田園→泉ヶ丘駅",
    "stop": "田園北口",
    "passTime": "09:41",
    "vehicleType": "南海バス(車椅子・ベビーカー・ノンステップ)",
    "updateTime": "2026/07/22 09:41"
  },
  {
    "vehicleNum": "080836",
    "vehicleCd": "268",
    "vehicleCorpCd": "1",
    "running": true,
    "lat": 34.5805,
    "lon": 135.469583,
    "route": "堺駅前→堺駅南口",
    "stop": "堺駅前",
    "passTime": "09:40",
    "vehicleType": "南海バス(車椅子・ベビーカー・ノンステップ)",
    "updateTime": "2026/07/22 09:41"
  },
  {
    "vehicleNum": "080838",
    "vehicleCd": "129",
    "vehicleCorpCd": "1",
    "running": true,
    "lat": 34.568694,
    "lon": 135.501778,
    "route": "三国ヶ丘駅前→近畿中央呼吸器センター前",
    "stop": "黒土口",
    "passTime": "09:39",
    "vehicleType": "南海バス(車椅子・ベビーカー・ノンステップ)",
    "updateTime": "2026/07/22 09:41"
  },
  {
    "vehicleNum": "080844",
    "vehicleCd": "581",
    "vehicleCorpCd": "1",
    "running": true,
    "lat": 34.500889,
    "lon": 135.578389,
    "route": "金剛駅前→向陽・藤沢回り→金剛駅前",
    "stop": "藤沢台１丁目",
    "passTime": "09:40",
    "vehicleType": "南海バス(車椅子・ベビーカー・ノンステップ)",
    "updateTime": "2026/07/22 09:41"
  },
  {
    "vehicleNum": "080846",
    "vehicleCd": "224",
    "vehicleCorpCd": "1",
    "running": true,
    "lat": 34.500694,
    "lon": 135.574278,
    "route": "金剛駅前→高辺台小学校前→金剛駅前",
    "stop": "津々山台１丁目北",
    "passTime": "09:40",
    "vehicleType": "南海バス(車椅子・ベビーカー・ノンステップ)",
    "updateTime": "2026/07/22 09:41"
  },
  {
    "vehicleNum": "080850",
    "vehicleCd": "24",
    "vehicleCorpCd": "1",
    "running": true,
    "lat": 34.463083,
    "lon": 135.506389,
    "route": "栂・美木多駅→御池台回り→泉ヶ丘駅",
    "stop": "御池台４丁",
    "passTime": "09:40",
    "vehicleType": "南海バス(車椅子・ベビーカー・ノンステップ)",
    "updateTime": "2026/07/22 09:41"
  },
  {
    "vehicleNum": "080847",
    "vehicleCd": "583",
    "vehicleCorpCd": "1",
    "running": true,
    "lat": 34.521083,
    "lon": 135.475694,
    "route": "泉ヶ丘駅→泉北２号線→堺市立総合医療センター前→津久野駅前",
    "stop": "八田西団地",
    "passTime": "09:39",
    "vehicleType": "南海バス(車椅子・ベビーカー・ノンステップ)",
    "updateTime": "2026/07/22 09:41"
  },
  {
    "vehicleNum": "080855",
    "vehicleCd": "16",
    "vehicleCorpCd": "1",
    "running": true,
    "lat": 34.496194,
    "lon": 135.5135,
    "route": "金剛駅前→狭山ニュータウンセンター→泉ヶ丘駅",
    "stop": "茶山台２丁",
    "passTime": "09:38",
    "vehicleType": "南海バス(車椅子・ベビーカー・ノンステップ)",
    "updateTime": "2026/07/22 09:41"
  },
  {
    "vehicleNum": "080865",
    "vehicleCd": "504",
    "vehicleCorpCd": "1",
    "running": true,
    "lat": 34.536778,
    "lon": 135.547,
    "route": "美原区役所前→船戸下→初芝駅前→中もず駅前",
    "stop": "北余部",
    "passTime": "09:41",
    "vehicleType": "南海バス(車椅子・ベビーカー・ノンステップ)",
    "updateTime": "2026/07/22 09:41"
  },
  {
    "vehicleNum": "080864",
    "vehicleCd": "146",
    "vehicleCorpCd": "1",
    "running": true,
    "lat": 34.574694,
    "lon": 135.510278,
    "route": "阪和堺市駅前→労災病院前→近畿中央呼吸器センター前→堺駅南口",
    "stop": "公園北口",
    "passTime": "09:40",
    "vehicleType": "南海バス(車椅子・ベビーカー・ノンステップ)",
    "updateTime": "2026/07/22 09:41"
  },
  {
    "vehicleNum": "080867",
    "vehicleCd": "364",
    "vehicleCorpCd": "1",
    "running": true,
    "lat": 34.4975,
    "lon": 135.519389,
    "route": "泉ヶ丘駅→スマ・エコタウン晴美台→高倉台右回り→泉ヶ丘駅",
    "stop": "三原台１丁",
    "passTime": "09:41",
    "vehicleType": "南海バス(車椅子・ベビーカー・ノンステップ)",
    "updateTime": "2026/07/22 09:41"
  },
  {
    "vehicleNum": "080868",
    "vehicleCd": "237",
    "vehicleCorpCd": "1",
    "running": true,
    "lat": 34.495278,
    "lon": 135.511,
    "route": "栂・美木多駅→庭代台右回り→泉ヶ丘駅",
    "stop": "栂・美木多駅",
    "passTime": "09:34",
    "vehicleType": "南海バス(車椅子・ベビーカー・ノンステップ)",
    "updateTime": "2026/07/22 09:41"
  },
  {
    "vehicleNum": "080873",
    "vehicleCd": "144",
    "vehicleCorpCd": "1",
    "running": true,
    "lat": 34.476972,
    "lon": 135.548389,
    "route": "泉ヶ丘駅→狭山ニュータウンセンター→金剛駅前",
    "stop": "大野口",
    "passTime": "09:40",
    "vehicleType": "南海バス(車椅子・ベビーカー・ノンステップ)",
    "updateTime": "2026/07/22 09:41"
  },
  {
    "vehicleNum": "080878",
    "vehicleCd": "368",
    "vehicleCorpCd": "1",
    "running": true,
    "lat": 34.532778,
    "lon": 135.519889,
    "route": "堺駅南口→福町→北野田駅前",
    "stop": "下草尾",
    "passTime": "09:40",
    "vehicleType": "南海バス(車椅子・ベビーカー・ノンステップ)",
    "updateTime": "2026/07/22 09:41"
  },
  {
    "vehicleNum": "080882",
    "vehicleCd": "343",
    "vehicleCorpCd": "1",
    "running": true,
    "lat": 34.497889,
    "lon": 135.510889,
    "route": "津久野駅前→堺市立総合医療センター前→泉北２号線→泉ヶ丘駅",
    "stop": "竹城台３丁",
    "passTime": "09:38",
    "vehicleType": "南海バス(車椅子・ベビーカー・ノンステップ)",
    "updateTime": "2026/07/22 09:41"
  },
  {
    "vehicleNum": "080895",
    "vehicleCd": "167",
    "vehicleCorpCd": "1",
    "running": true,
    "lat": 34.553083,
    "lon": 135.559194,
    "route": "北野田駅前→多治井北（循環）→北野田駅前",
    "stop": "真福寺公園前",
    "passTime": "09:41",
    "vehicleType": "南海バス(車椅子・ベビーカー・ノンステップ)",
    "updateTime": "2026/07/22 09:41"
  },
  {
    "vehicleNum": "080894",
    "vehicleCd": "350",
    "vehicleCorpCd": "1",
    "running": true,
    "lat": 34.544083,
    "lon": 135.530194,
    "route": "美原区役所→初芝駅前→美原区役所",
    "stop": "初芝中",
    "passTime": "09:41",
    "vehicleType": "南海バス(車椅子・ベビーカー・ノンステップ)",
    "updateTime": "2026/07/22 09:41"
  },
  {
    "vehicleNum": "080904",
    "vehicleCd": "362",
    "vehicleCorpCd": "1",
    "running": true,
    "lat": 34.548,
    "lon": 135.484194,
    "route": "東山車庫前→小阪→堺東駅前",
    "stop": "向ヶ丘",
    "passTime": "09:40",
    "vehicleType": "南海バス(車椅子・ベビーカー・ノンステップ)",
    "updateTime": "2026/07/22 09:41"
  },
  {
    "vehicleNum": "080902",
    "vehicleCd": "76",
    "vehicleCorpCd": "1",
    "running": true,
    "lat": 34.597083,
    "lon": 135.442389,
    "route": "【急行】阪和堺市駅前→海浜匠町",
    "stop": "阪和堺市駅前",
    "passTime": "09:21",
    "vehicleType": "南海バス(車椅子・ベビーカー・ワンステップ)",
    "updateTime": "2026/07/22 09:41"
  },
  {
    "vehicleNum": "080907",
    "vehicleCd": "499",
    "vehicleCorpCd": "1",
    "running": true,
    "lat": 34.510083,
    "lon": 135.4975,
    "route": "津久野駅前→堺市立総合医療センター前→八田荘団地→泉ヶ丘駅",
    "stop": "宮山台４丁",
    "passTime": "09:40",
    "vehicleType": "南海バス(車椅子・ベビーカー・ノンステップ)",
    "updateTime": "2026/07/22 09:41"
  },
  {
    "vehicleNum": "080911",
    "vehicleCd": "240",
    "vehicleCorpCd": "1",
    "running": true,
    "lat": 34.574694,
    "lon": 135.480778,
    "route": "堺駅前→堺東駅前→河内松原駅前",
    "stop": "堺東駅前",
    "passTime": "09:39",
    "vehicleType": "南海バス(車椅子・ベビーカー・ノンステップ)",
    "updateTime": "2026/07/22 09:41"
  },
  {
    "vehicleNum": "080918",
    "vehicleCd": "419",
    "vehicleCorpCd": "1",
    "running": true,
    "lat": 34.574389,
    "lon": 135.482583,
    "route": "阪和堺市駅前→堺東駅前→堺駅西口→匠町",
    "stop": "堺東駅前",
    "passTime": "09:38",
    "vehicleType": "南海バス(車椅子・ベビーカー・ノンステップ)",
    "updateTime": "2026/07/22 09:41"
  },
  {
    "vehicleNum": "080934",
    "vehicleCd": "594",
    "vehicleCorpCd": "1",
    "running": true,
    "lat": 34.578583,
    "lon": 135.467889,
    "route": "堺駅南口→堺駅前",
    "stop": "堺駅南口",
    "passTime": "09:40",
    "vehicleType": "南海バス(車椅子・ベビーカー・ノンステップ)",
    "updateTime": "2026/07/22 09:41"
  },
  {
    "vehicleNum": "080921",
    "vehicleCd": "143",
    "vehicleCorpCd": "1",
    "running": true,
    "lat": 34.488389,
    "lon": 135.516583,
    "route": "泉ヶ丘駅→槙塚台右回り→泉ヶ丘駅",
    "stop": "茶山台センター",
    "passTime": "09:40",
    "vehicleType": "南海バス(車椅子・ベビーカー・ノンステップ)",
    "updateTime": "2026/07/22 09:41"
  },
  {
    "vehicleNum": "080937",
    "vehicleCd": "595",
    "vehicleCorpCd": "1",
    "running": true,
    "lat": 34.553778,
    "lon": 135.502083,
    "route": "堺駅南口→三国ヶ丘駅前→北野田駅前",
    "stop": "中もず駅前（南側）",
    "passTime": "09:34",
    "vehicleType": "南海バス(車椅子・ベビーカー・ノンステップ)",
    "updateTime": "2026/07/22 09:41"
  },
  {
    "vehicleNum": "080948",
    "vehicleCd": "276",
    "vehicleCorpCd": "1",
    "running": true,
    "lat": 34.584583,
    "lon": 135.486889,
    "route": "堺東駅前→錦綾町→河内天美駅前",
    "stop": "北庄町",
    "passTime": "09:40",
    "vehicleType": "南海バス(車椅子・ベビーカー・ノンステップ)",
    "updateTime": "2026/07/22 09:41"
  },
  {
    "vehicleNum": "080956",
    "vehicleCd": "71",
    "vehicleCorpCd": "1",
    "running": true,
    "lat": 34.597389,
    "lon": 135.463,
    "route": "堺東駅前→ＡＴＣ→海遊館→堺東駅前",
    "stop": "堺駅前",
    "passTime": "09:33",
    "vehicleType": "南海バス",
    "updateTime": "2026/07/22 09:41"
  },
  {
    "vehicleNum": "080958",
    "vehicleCd": "603",
    "vehicleCorpCd": "1",
    "running": true,
    "lat": 34.614694,
    "lon": 135.436889,
    "route": "堺東駅前→ＡＴＣ→堺東駅前",
    "stop": "ポートタウン東",
    "passTime": "09:35",
    "vehicleType": "南海バス",
    "updateTime": "2026/07/22 09:41"
  },
  {
    "vehicleNum": "080967",
    "vehicleCd": "605",
    "vehicleCorpCd": "1",
    "running": true,
    "lat": 34.535389,
    "lon": 135.565,
    "route": "初芝駅前→平尾→初芝駅前",
    "stop": "美原高校前",
    "passTime": "09:39",
    "vehicleType": "南海バス(車椅子・ベビーカー・ノンステップ)",
    "updateTime": "2026/07/22 09:41"
  },
  {
    "vehicleNum": "080977",
    "vehicleCd": "388",
    "vehicleCorpCd": "1",
    "running": true,
    "lat": 34.561083,
    "lon": 135.484194,
    "route": "あみだ池→深井駅→もず駅前→堺東駅前",
    "stop": "堺市博物館前",
    "passTime": "09:41",
    "vehicleType": "南海バス(車椅子・ベビーカー・ノンステップ)",
    "updateTime": "2026/07/22 09:41"
  },
  {
    "vehicleNum": "080989",
    "vehicleCd": "259",
    "vehicleCorpCd": "1",
    "running": true,
    "lat": 34.557694,
    "lon": 135.470778,
    "route": "堺東駅前→堀上緑町１丁→堺東駅前",
    "stop": "緑ヶ丘",
    "passTime": "09:40",
    "vehicleType": "南海バス(車椅子・ベビーカー・ノンステップ)",
    "updateTime": "2026/07/22 09:41"
  },
  {
    "vehicleNum": "080994",
    "vehicleCd": "130",
    "vehicleCorpCd": "1",
    "running": true,
    "lat": 34.5195,
    "lon": 135.478194,
    "route": "津久野駅前→堺市立総合医療センター前→泉北２号線→泉ヶ丘駅",
    "stop": "八田西団地",
    "passTime": "09:40",
    "vehicleType": "南海バス(車椅子・ベビーカー・ノンステップ)",
    "updateTime": "2026/07/22 09:41"
  },
  {
    "vehicleNum": "080996",
    "vehicleCd": "191",
    "vehicleCorpCd": "1",
    "running": true,
    "lat": 34.536583,
    "lon": 135.547583,
    "route": "初芝駅前→平尾→初芝駅前",
    "stop": "北余部",
    "passTime": "09:40",
    "vehicleType": "南海バス(車椅子・ベビーカー・ノンステップ)",
    "updateTime": "2026/07/22 09:41"
  },
  {
    "vehicleNum": "080999",
    "vehicleCd": "493",
    "vehicleCorpCd": "1",
    "running": true,
    "lat": 34.570778,
    "lon": 135.480194,
    "route": "北野田駅前→西口園→堺駅南口",
    "stop": "一条通",
    "passTime": "09:41",
    "vehicleType": "南海バス(車椅子・ベビーカー・ノンステップ)",
    "updateTime": "2026/07/22 09:41"
  },
  {
    "vehicleNum": "081005",
    "vehicleCd": "272",
    "vehicleCorpCd": "1",
    "running": true,
    "lat": 34.561278,
    "lon": 135.473778,
    "route": "堺東駅前→上野芝駅前→東山車庫前",
    "stop": "旭ヶ丘北町",
    "passTime": "09:41",
    "vehicleType": "南海バス(車椅子・ベビーカー・ノンステップ)",
    "updateTime": "2026/07/22 09:41"
  },
  {
    "vehicleNum": "081008",
    "vehicleCd": "47",
    "vehicleCorpCd": "1",
    "running": true,
    "lat": 34.523694,
    "lon": 135.541,
    "route": "北野田駅前→西口園→堺駅南口",
    "stop": "北野田駅前",
    "passTime": "09:40",
    "vehicleType": "南海バス(車椅子・ベビーカー・ノンステップ)",
    "updateTime": "2026/07/22 09:41"
  },
  {
    "vehicleNum": "081006",
    "vehicleCd": "54",
    "vehicleCorpCd": "1",
    "running": true,
    "lat": 34.514889,
    "lon": 135.493694,
    "route": "泉ヶ丘駅→宮山台中学校前→堺東駅前",
    "stop": "伏尾",
    "passTime": "09:39",
    "vehicleType": "南海バス(車椅子・ベビーカー・ノンステップ)",
    "updateTime": "2026/07/22 09:41"
  },
  {
    "vehicleNum": "081014",
    "vehicleCd": "229",
    "vehicleCorpCd": "1",
    "running": true,
    "lat": 34.523694,
    "lon": 135.542,
    "route": "深井駅→東山車庫前→北野田駅前",
    "stop": "大美野噴水前",
    "passTime": "09:36",
    "vehicleType": "南海バス(車椅子・ベビーカー・ノンステップ)",
    "updateTime": "2026/07/22 09:41"
  },
  {
    "vehicleNum": "081015",
    "vehicleCd": "136",
    "vehicleCorpCd": "1",
    "running": true,
    "lat": 34.539778,
    "lon": 135.514194,
    "route": "北野田駅前→福町→堺駅南口",
    "stop": "新家町",
    "passTime": "09:41",
    "vehicleType": "南海バス(車椅子・ベビーカー・ノンステップ)",
    "updateTime": "2026/07/22 09:41"
  },
  {
    "vehicleNum": "081024",
    "vehicleCd": "270",
    "vehicleCorpCd": "1",
    "running": true,
    "lat": 34.575389,
    "lon": 135.484083,
    "route": "泉ヶ丘駅→宮山台中学校前→堺東駅前",
    "stop": "一条通",
    "passTime": "09:37",
    "vehicleType": "南海バス(車椅子・ベビーカー・ノンステップ)",
    "updateTime": "2026/07/22 09:41"
  },
  {
    "vehicleNum": "081034",
    "vehicleCd": "120",
    "vehicleCorpCd": "1",
    "running": true,
    "lat": 34.498194,
    "lon": 135.548,
    "route": "金剛駅前→狭山ニュータウンセンター→泉ヶ丘駅",
    "stop": "亀の甲",
    "passTime": "09:41",
    "vehicleType": "南海バス(車椅子・ベビーカー・ノンステップ)",
    "updateTime": "2026/07/22 09:41"
  },
  {
    "vehicleNum": "081035",
    "vehicleCd": "491",
    "vehicleCorpCd": "1",
    "running": true,
    "lat": 34.515694,
    "lon": 135.492778,
    "route": "泉ヶ丘駅→八田荘団地→堺市立総合医療センター前→津久野駅前",
    "stop": "天の橋",
    "passTime": "09:41",
    "vehicleType": "南海バス(車椅子・ベビーカー・ノンステップ)",
    "updateTime": "2026/07/22 09:41"
  },
  {
    "vehicleNum": "081039",
    "vehicleCd": "253",
    "vehicleCorpCd": "1",
    "running": true,
    "lat": 34.564583,
    "lon": 135.492389,
    "route": "堺駅南口→福町→北野田駅前",
    "stop": "永山園",
    "passTime": "09:39",
    "vehicleType": "南海バス(車椅子・ベビーカー・ノンステップ)",
    "updateTime": "2026/07/22 09:41"
  },
  {
    "vehicleNum": "081041",
    "vehicleCd": "611",
    "vehicleCorpCd": "1",
    "running": true,
    "lat": 34.485083,
    "lon": 135.525194,
    "route": "泉ヶ丘駅→帝塚山学院泉ヶ丘校前→金剛駅前",
    "stop": "槙塚台１丁",
    "passTime": "09:40",
    "vehicleType": "南海バス(車椅子・ベビーカー・ノンステップ)",
    "updateTime": "2026/07/22 09:41"
  },
  {
    "vehicleNum": "081020",
    "vehicleCd": "163",
    "vehicleCorpCd": "1",
    "running": true,
    "lat": 34.497778,
    "lon": 135.510278,
    "route": "泉ヶ丘駅→田園→深井駅",
    "stop": "泉ヶ丘駅（北側）",
    "passTime": "09:40",
    "vehicleType": "南海バス(車椅子・ベビーカー・ノンステップ)",
    "updateTime": "2026/07/22 09:41"
  },
  {
    "vehicleNum": "081045",
    "vehicleCd": "188",
    "vehicleCorpCd": "1",
    "running": true,
    "lat": 34.528194,
    "lon": 135.470472,
    "route": "深井駅→鈴の宮団地→堺市立総合医療センター前→津久野駅前",
    "stop": "毛穴南",
    "passTime": "09:41",
    "vehicleType": "南海バス(車椅子・ベビーカー・ノンステップ)",
    "updateTime": "2026/07/22 09:41"
  },
  {
    "vehicleNum": "090104",
    "vehicleCd": "53",
    "vehicleCorpCd": "2",
    "running": true,
    "lat": 34.459889,
    "lon": 135.379194,
    "route": "白原車庫→河合→上古城→岸和田駅前",
    "stop": "上古城",
    "passTime": "09:37",
    "vehicleType": "南海ウイングバス(車椅子・ベビーカー・ワンステップ)",
    "updateTime": "2026/07/22 09:41"
  },
  {
    "vehicleNum": "090144",
    "vehicleCd": "82",
    "vehicleCorpCd": "2",
    "running": true,
    "lat": 34.454694,
    "lon": 135.401694,
    "route": "道の駅愛彩ランド→下松駅前",
    "stop": "桜ヶ丘",
    "passTime": "09:41",
    "vehicleType": "南海ウイングバス(車椅子・ベビーカー・ワンステップ)",
    "updateTime": "2026/07/22 09:41"
  },
  {
    "vehicleNum": "090170",
    "vehicleCd": "117",
    "vehicleCorpCd": "2",
    "running": true,
    "lat": 34.461194,
    "lon": 135.3795,
    "route": "岸和田駅前→徳洲会病院→和泉中央駅",
    "stop": "岸和田駅前",
    "passTime": "09:40",
    "vehicleType": "南海ウイングバス",
    "updateTime": "2026/07/22 09:41"
  },
  {
    "vehicleNum": "090103",
    "vehicleCd": "49",
    "vehicleCorpCd": "2",
    "running": true,
    "lat": 34.46,
    "lon": 135.455,
    "route": "和泉中央駅→市民病院前→岸和田駅前",
    "stop": "和泉中央駅",
    "passTime": "09:39",
    "vehicleType": "南海ウイングバス(車椅子・ベビーカー・ワンステップ)",
    "updateTime": "2026/07/22 09:41"
  },
  {
    "vehicleNum": "090176",
    "vehicleCd": "101",
    "vehicleCorpCd": "2",
    "running": true,
    "lat": 34.411694,
    "lon": 135.301778,
    "route": "関西エアポートワシントンホテル→イオンりんくう",
    "stop": "ワシントンホテル",
    "passTime": "09:40",
    "vehicleType": "南海ウイングバス",
    "updateTime": "2026/07/22 09:41"
  },
  {
    "vehicleNum": "090331",
    "vehicleCd": "197",
    "vehicleCorpCd": "1",
    "running": true,
    "lat": 34.425389,
    "lon": 135.228694,
    "route": "給油地区→空港駅",
    "stop": "第2代理店ビル前",
    "passTime": "09:41",
    "vehicleType": "南海バス(車椅子・ベビーカー・ワンステップ)",
    "updateTime": "2026/07/22 09:41"
  },
  {
    "vehicleNum": "090289",
    "vehicleCd": "9",
    "vehicleCorpCd": "2",
    "running": true,
    "lat": 34.368778,
    "lon": 135.293778,
    "route": "泉南市コミュニティバス 新家回り",
    "stop": "朝日住宅",
    "passTime": "09:41",
    "vehicleType": "南海ウイングバス(車椅子・ベビーカー・ノンステップ)",
    "updateTime": "2026/07/22 09:41"
  },
  {
    "vehicleNum": "091146",
    "vehicleCd": "17",
    "vehicleCorpCd": "2",
    "running": true,
    "lat": 34.402278,
    "lon": 135.332778,
    "route": "つばさが丘北口→大阪体育大学前→熊取駅前→ダンバラ公園前→泉佐野駅前",
    "stop": "佐野台口",
    "passTime": "09:38",
    "vehicleType": "南海ウイングバス(車椅子・ベビーカー・ワンステップ)",
    "updateTime": "2026/07/22 09:41"
  },
  {
    "vehicleNum": "091186",
    "vehicleCd": "106",
    "vehicleCorpCd": "2",
    "running": true,
    "lat": 34.463083,
    "lon": 135.4075,
    "route": "岸和田駅前→内畑→白原車庫",
    "stop": "久米田",
    "passTime": "09:41",
    "vehicleType": "南海ウイングバス(車椅子・ベビーカー・ワンステップ)",
    "updateTime": "2026/07/22 09:41"
  },
  {
    "vehicleNum": "091580",
    "vehicleCd": "85",
    "vehicleCorpCd": "2",
    "running": true,
    "lat": 34.334278,
    "lon": 135.292,
    "route": "泉南市コミュニティバス 山回り",
    "stop": "西童子",
    "passTime": "09:41",
    "vehicleType": "南海ウイングバス(車椅子・ベビーカー・ノンステップ)",
    "updateTime": "2026/07/22 09:41"
  },
  {
    "vehicleNum": "091581",
    "vehicleCd": "198",
    "vehicleCorpCd": "1",
    "running": true,
    "lat": 34.430278,
    "lon": 135.231889,
    "route": "空港駅→ＦｅｄＥｘ→給油地区",
    "stop": "空港駅",
    "passTime": "09:38",
    "vehicleType": "南海バス(車椅子・ノンステップ)",
    "updateTime": "2026/07/22 09:41"
  },
  {
    "vehicleNum": "091600",
    "vehicleCd": "201",
    "vehicleCorpCd": "1",
    "running": true,
    "lat": 34.428278,
    "lon": 135.229278,
    "route": "給油地区→ＦｅｄＥｘ→空港駅",
    "stop": "大阪国際郵便局前",
    "passTime": "09:39",
    "vehicleType": "南海バス(車椅子・ノンステップ)",
    "updateTime": "2026/07/22 09:41"
  },
  {
    "vehicleNum": "091736",
    "vehicleCd": "65",
    "vehicleCorpCd": "2",
    "running": true,
    "lat": 34.396083,
    "lon": 135.359583,
    "route": "泉佐野駅前→泉陽ヶ丘→熊取駅前→山の手台→小谷→熊取駅前→泉陽ヶ丘→泉佐野駅前",
    "stop": "山の手台口",
    "passTime": "09:41",
    "vehicleType": "南海ウイングバス(車椅子・ワンステップ)",
    "updateTime": "2026/07/22 09:41"
  },
  {
    "vehicleNum": "091744",
    "vehicleCd": "148",
    "vehicleCorpCd": "2",
    "running": true,
    "lat": 34.438472,
    "lon": 135.399278,
    "route": "岸和田駅前→天神山・一の宮循環　左回り→岸和田駅前",
    "stop": "神須屋",
    "passTime": "09:40",
    "vehicleType": "南海ウイングバス(車椅子・ベビーカー・ワンステップ)",
    "updateTime": "2026/07/22 09:41"
  },
  {
    "vehicleNum": "091746",
    "vehicleCd": "8",
    "vehicleCorpCd": "2",
    "running": true,
    "lat": 34.356889,
    "lon": 135.366,
    "route": "泉佐野駅前→野々地蔵北→日根野駅前→犬鳴山",
    "stop": "境界橋",
    "passTime": "09:40",
    "vehicleType": "南海ウイングバス(車椅子・ベビーカー・ワンステップ)",
    "updateTime": "2026/07/22 09:41"
  },
  {
    "vehicleNum": "091784",
    "vehicleCd": "119",
    "vehicleCorpCd": "2",
    "running": true,
    "lat": 34.4015,
    "lon": 135.345083,
    "route": "熊取町　青葉台方面循環コース",
    "stop": "紺屋",
    "passTime": "09:40",
    "vehicleType": "熊取町コミュニティバス(ジャンプ君号)",
    "updateTime": "2026/07/22 09:41"
  },
  {
    "vehicleNum": "091785",
    "vehicleCd": "120",
    "vehicleCorpCd": "2",
    "running": true,
    "lat": 34.395083,
    "lon": 135.3735,
    "route": "熊取町　つばさが丘循環コース",
    "stop": "小谷",
    "passTime": "09:40",
    "vehicleType": "熊取町コミュニティバス(メジーナちゃん号)",
    "updateTime": "2026/07/22 09:41"
  },
  {
    "vehicleNum": "091895",
    "vehicleCd": "4",
    "vehicleCorpCd": "2",
    "running": true,
    "lat": 34.372389,
    "lon": 135.282194,
    "route": "泉南市コミュニティバス 一丘Ａ回り",
    "stop": "一丘団地南",
    "passTime": "09:39",
    "vehicleType": "泉南市コミュニティバス(ピンク)",
    "updateTime": "2026/07/22 09:41"
  },
  {
    "vehicleNum": "092044",
    "vehicleCd": "462",
    "vehicleCorpCd": "1",
    "running": true,
    "lat": 34.454083,
    "lon": 135.566583,
    "route": "ﾓｯｸﾙ 美加～木戸東町～美加",
    "stop": "ラブリーホール前",
    "passTime": "09:40",
    "vehicleType": "南海バス(車椅子・ベビーカー・ノンステップ)",
    "updateTime": "2026/07/22 09:41"
  },
  {
    "vehicleNum": "092135",
    "vehicleCd": "525",
    "vehicleCorpCd": "1",
    "running": true,
    "lat": 34.437583,
    "lon": 135.231278,
    "route": "エアロプラザ→第２ターミナル(国内線・国際線)→エアロプラザ",
    "stop": "エアロプラザ",
    "passTime": "09:36",
    "vehicleType": "南海バス",
    "updateTime": "2026/07/22 09:41"
  },
  {
    "vehicleNum": "092046",
    "vehicleCd": "464",
    "vehicleCorpCd": "1",
    "running": true,
    "lat": 34.454889,
    "lon": 135.560583,
    "route": "ﾓｯｸﾙ 美加～木戸東町～美加",
    "stop": "市民交流センター前",
    "passTime": "09:41",
    "vehicleType": "南海バス(車椅子・ベビーカー・ノンステップ)",
    "updateTime": "2026/07/22 09:41"
  },
  {
    "vehicleNum": "092141",
    "vehicleCd": "527",
    "vehicleCorpCd": "1",
    "running": true,
    "lat": 34.628278,
    "lon": 135.420889,
    "route": "堺東駅前→ＡＴＣ→堺東駅前",
    "stop": "堺駅前",
    "passTime": "09:18",
    "vehicleType": "南海バス",
    "updateTime": "2026/07/22 09:41"
  },
  {
    "vehicleNum": "092204",
    "vehicleCd": "416",
    "vehicleCorpCd": "1",
    "running": true,
    "lat": 34.4675,
    "lon": 135.564389,
    "route": "緑ヶ丘北町→千代田駅前",
    "stop": "南海西友前",
    "passTime": "09:40",
    "vehicleType": "南海バス",
    "updateTime": "2026/07/22 09:41"
  },
  {
    "vehicleNum": "092205",
    "vehicleCd": "25",
    "vehicleCorpCd": "1",
    "running": true,
    "lat": 34.452194,
    "lon": 135.554778,
    "route": "千代→緑→小山田→千代",
    "stop": "神社前（河内長野市）",
    "passTime": "09:41",
    "vehicleType": "南海バス(車椅子・ベビーカー・ノンステップ)",
    "updateTime": "2026/07/22 09:41"
  },
  {
    "vehicleNum": "092372",
    "vehicleCd": "159",
    "vehicleCorpCd": "1",
    "running": true,
    "lat": 34.444778,
    "lon": 135.470278,
    "route": "和泉中央駅→和泉青葉台→はつが野→和泉中央駅（右回り）",
    "stop": "和泉青葉台口",
    "passTime": "09:41",
    "vehicleType": "南海バス(車椅子・ベビーカー・ノンステップ)",
    "updateTime": "2026/07/22 09:41"
  },
  {
    "vehicleNum": "092382",
    "vehicleCd": "556",
    "vehicleCorpCd": "1",
    "running": true,
    "lat": 34.470889,
    "lon": 135.442389,
    "route": "和泉府中駅前→玄関→和泉中央駅→ららぽｰと和泉前",
    "stop": "弥生町一丁目",
    "passTime": "09:40",
    "vehicleType": "南海バス(車椅子・ベビーカー・ノンステップ)",
    "updateTime": "2026/07/22 09:41"
  },
  {
    "vehicleNum": "092394",
    "vehicleCd": "42",
    "vehicleCorpCd": "1",
    "running": true,
    "lat": 34.4395,
    "lon": 135.246278,
    "route": "エアロプラザ→第２ターミナル(国内線・国際線)→エアロプラザ",
    "stop": "第2ターミナル国際線",
    "passTime": "09:36",
    "vehicleType": "南海バス(車椅子・ノンステップ)",
    "updateTime": "2026/07/22 09:41"
  },
  {
    "vehicleNum": "092384",
    "vehicleCd": "558",
    "vehicleCorpCd": "1",
    "running": true,
    "lat": 34.557778,
    "lon": 135.470778,
    "route": "堺東駅前→鳳駅前→光明池駅",
    "stop": "緑ヶ丘",
    "passTime": "09:41",
    "vehicleType": "南海バス(車椅子・ベビーカー・ノンステップ)",
    "updateTime": "2026/07/22 09:41"
  },
  {
    "vehicleNum": "092454",
    "vehicleCd": "125",
    "vehicleCorpCd": "2",
    "running": true,
    "lat": 34.380889,
    "lon": 135.282389,
    "route": "泉南市コミュニティバス 岡田A回り",
    "stop": "中小路",
    "passTime": "09:40",
    "vehicleType": "泉南市コミュニティバス(橙)",
    "updateTime": "2026/07/22 09:41"
  },
  {
    "vehicleNum": "092482",
    "vehicleCd": "528",
    "vehicleCorpCd": "1",
    "running": true,
    "lat": 34.412778,
    "lon": 135.571889,
    "route": "三日市町駅前→南青葉台→三日市町駅前",
    "stop": "南青葉台",
    "passTime": "09:40",
    "vehicleType": "南海バス(車椅子・ベビーカー・ノンステップ)",
    "updateTime": "2026/07/22 09:41"
  },
  {
    "vehicleNum": "092502",
    "vehicleCd": "140",
    "vehicleCorpCd": "2",
    "running": true,
    "lat": 34.4685,
    "lon": 135.398694,
    "route": "ローズバス　右回り",
    "stop": "総合体育館前",
    "passTime": "09:39",
    "vehicleType": "岸和田市コミュニティバス(ローズバス)",
    "updateTime": "2026/07/22 09:41"
  },
  {
    "vehicleNum": "092470",
    "vehicleCd": "105",
    "vehicleCorpCd": "1",
    "running": true,
    "lat": 34.421194,
    "lon": 135.586778,
    "route": "美加の台駅前→美加の台口→美加の台駅前",
    "stop": "美加の台中",
    "passTime": "09:41",
    "vehicleType": "南海バス(車椅子・ベビーカー・ノンステップ)",
    "updateTime": "2026/07/22 09:41"
  },
  {
    "vehicleNum": "092533",
    "vehicleCd": "288",
    "vehicleCorpCd": "1",
    "running": true,
    "lat": 34.466,
    "lon": 135.485,
    "route": "光明池車庫→城山台５丁→光明池駅",
    "stop": "城山台五丁",
    "passTime": "09:41",
    "vehicleType": "南海バス(車椅子・ベビーカー・ノンステップ)",
    "updateTime": "2026/07/22 09:41"
  },
  {
    "vehicleNum": "092570",
    "vehicleCd": "577",
    "vehicleCorpCd": "1",
    "running": true,
    "lat": 34.494278,
    "lon": 135.412083,
    "route": "和泉中央駅→寺田→泉大津駅前",
    "stop": "我孫子",
    "passTime": "09:40",
    "vehicleType": "南海バス(車椅子・ベビーカー・ノンステップ)",
    "updateTime": "2026/07/22 09:41"
  },
  {
    "vehicleNum": "092577",
    "vehicleCd": "578",
    "vehicleCorpCd": "1",
    "running": true,
    "lat": 34.452083,
    "lon": 135.568972,
    "route": "長野→天野山→旭",
    "stop": "河内長野駅前",
    "passTime": "09:38",
    "vehicleType": "南海バス(車椅子・ベビーカー・ノンステップ)",
    "updateTime": "2026/07/22 09:41"
  },
  {
    "vehicleNum": "092578",
    "vehicleCd": "147",
    "vehicleCorpCd": "1",
    "running": true,
    "lat": 34.439194,
    "lon": 135.606278,
    "route": "河内長野駅前→河合寺→小吹台",
    "stop": "小吹台西口",
    "passTime": "09:40",
    "vehicleType": "南海バス(車椅子・ベビーカー・ノンステップ)",
    "updateTime": "2026/07/22 09:41"
  },
  {
    "vehicleNum": "092572",
    "vehicleCd": "313",
    "vehicleCorpCd": "1",
    "running": true,
    "lat": 34.481583,
    "lon": 135.480583,
    "route": "光明池駅→新檜尾台センター→光明池駅",
    "stop": "新檜尾台一丁",
    "passTime": "09:41",
    "vehicleType": "南海バス(車椅子・ベビーカー・ノンステップ)",
    "updateTime": "2026/07/22 09:41"
  },
  {
    "vehicleNum": "092579",
    "vehicleCd": "579",
    "vehicleCorpCd": "1",
    "running": true,
    "lat": 34.419778,
    "lon": 135.559278,
    "route": "南ヶ丘→南花台４丁目→三日市町駅前",
    "stop": "大矢船中町",
    "passTime": "09:40",
    "vehicleType": "南海バス(車椅子・ベビーカー・ノンステップ)",
    "updateTime": "2026/07/22 09:41"
  },
  {
    "vehicleNum": "092580",
    "vehicleCd": "377",
    "vehicleCorpCd": "1",
    "running": true,
    "lat": 34.533,
    "lon": 135.461694,
    "route": "国分峠東→栂・美木多駅→堺東駅前",
    "stop": "西堺警察署前",
    "passTime": "09:40",
    "vehicleType": "南海バス(車椅子・ベビーカー・ノンステップ)",
    "updateTime": "2026/07/22 09:41"
  },
  {
    "vehicleNum": "092587",
    "vehicleCd": "124",
    "vehicleCorpCd": "1",
    "running": true,
    "lat": 34.500778,
    "lon": 135.574583,
    "route": "PL病院→金剛駅前（東側）→寺池台3丁目→PL病院",
    "stop": "公園前",
    "passTime": "09:38",
    "vehicleType": "南海バス(車椅子・ベビーカー・ノンステップ)",
    "updateTime": "2026/07/22 09:41"
  },
  {
    "vehicleNum": "092620",
    "vehicleCd": "311",
    "vehicleCorpCd": "1",
    "running": true,
    "lat": 34.436583,
    "lon": 135.571,
    "route": "三日市町駅前→清見台回り→三日市町駅前",
    "stop": "三日市町駅前通",
    "passTime": "09:39",
    "vehicleType": "南海バス(車椅子・ベビーカー・ノンステップ)",
    "updateTime": "2026/07/22 09:41"
  },
  {
    "vehicleNum": "092647",
    "vehicleCd": "587",
    "vehicleCorpCd": "1",
    "running": true,
    "lat": 34.434278,
    "lon": 135.542278,
    "route": "旭ヶ丘→水落→河内長野駅前",
    "stop": "畑集会所前",
    "passTime": "09:41",
    "vehicleType": "南海バス(車椅子・ベビーカー・ノンステップ)",
    "updateTime": "2026/07/22 09:41"
  },
  {
    "vehicleNum": "092623",
    "vehicleCd": "15",
    "vehicleCorpCd": "1",
    "running": true,
    "lat": 34.461,
    "lon": 135.456083,
    "route": "泉大津駅前→和泉府中駅前→和泉中央駅→光明池駅",
    "stop": "和泉中央駅",
    "passTime": "09:41",
    "vehicleType": "南海バス(車椅子・ベビーカー・ノンステップ)",
    "updateTime": "2026/07/22 09:41"
  },
  {
    "vehicleNum": "092711",
    "vehicleCd": "355",
    "vehicleCorpCd": "1",
    "running": true,
    "lat": 34.575,
    "lon": 135.484,
    "route": "栂・美木多駅→鳳駅前→堺東駅前",
    "stop": "一条通",
    "passTime": "09:38",
    "vehicleType": "南海バス(車椅子・ベビーカー・ノンステップ)",
    "updateTime": "2026/07/22 09:41"
  },
  {
    "vehicleNum": "092762",
    "vehicleCd": "570",
    "vehicleCorpCd": "1",
    "running": true,
    "lat": 34.476389,
    "lon": 135.477583,
    "route": "光明池駅→赤坂台４丁→光明池駅→泉ヶ丘駅",
    "stop": "光明池駅",
    "passTime": "09:37",
    "vehicleType": "南海バス(車椅子・ベビーカー・ノンステップ)",
    "updateTime": "2026/07/22 09:41"
  },
  {
    "vehicleNum": "092763",
    "vehicleCd": "520",
    "vehicleCorpCd": "1",
    "running": true,
    "lat": 34.468,
    "lon": 135.481389,
    "route": "光明池駅→城山台５丁→光明池車庫",
    "stop": "城山台口",
    "passTime": "09:40",
    "vehicleType": "南海バス(車椅子・ベビーカー・ノンステップ)",
    "updateTime": "2026/07/22 09:41"
  },
  {
    "vehicleNum": "092829",
    "vehicleCd": "488",
    "vehicleCorpCd": "1",
    "running": true,
    "lat": 34.478194,
    "lon": 135.4675,
    "route": "堺東駅前→鳳駅前→光明池駅",
    "stop": "下伏屋",
    "passTime": "09:39",
    "vehicleType": "南海バス(車椅子・ベビーカー・ノンステップ)",
    "updateTime": "2026/07/22 09:41"
  },
  {
    "vehicleNum": "092859",
    "vehicleCd": "32",
    "vehicleCorpCd": "1",
    "running": true,
    "lat": 34.459694,
    "lon": 135.548472,
    "route": "千代田駅前→赤峯→荘園町",
    "stop": "荘園町",
    "passTime": "09:39",
    "vehicleType": "南海バス(車椅子・ベビーカー・ノンステップ)",
    "updateTime": "2026/07/22 09:41"
  },
  {
    "vehicleNum": "092860",
    "vehicleCd": "379",
    "vehicleCorpCd": "1",
    "running": true,
    "lat": 34.4015,
    "lon": 135.530278,
    "route": "河内長野駅前→奥河内くろまろの郷→滝畑ダム",
    "stop": "滝尻口",
    "passTime": "09:41",
    "vehicleType": "南海バス(車椅子・ベビーカー・ノンステップ)",
    "updateTime": "2026/07/22 09:41"
  },
  {
    "vehicleNum": "092900",
    "vehicleCd": "604",
    "vehicleCorpCd": "1",
    "running": true,
    "lat": 34.492778,
    "lon": 135.414083,
    "route": "泉大津駅前→和泉府中駅前→和泉中央駅",
    "stop": "池浦",
    "passTime": "09:40",
    "vehicleType": "南海バス(車椅子・ベビーカー・ノンステップ)",
    "updateTime": "2026/07/22 09:41"
  },
  {
    "vehicleNum": "092856",
    "vehicleCd": "601",
    "vehicleCorpCd": "1",
    "running": true,
    "lat": 34.456889,
    "lon": 135.459,
    "route": "美術館前→のぞみ野南→和泉中央駅",
    "stop": "石尾山",
    "passTime": "09:41",
    "vehicleType": "南海バス(車椅子・ベビーカー・ノンステップ)",
    "updateTime": "2026/07/22 09:41"
  },
  {
    "vehicleNum": "092901",
    "vehicleCd": "356",
    "vehicleCorpCd": "1",
    "running": true,
    "lat": 34.429083,
    "lon": 135.450194,
    "route": "和泉中央駅→テクノステージセンター前→グリーンポリス前→和泉中央駅",
    "stop": "テクノステージ口",
    "passTime": "09:41",
    "vehicleType": "南海バス(車椅子・ベビーカー・ノンステップ)",
    "updateTime": "2026/07/22 09:42"
  },
  {
    "vehicleNum": "092915",
    "vehicleCd": "346",
    "vehicleCorpCd": "1",
    "running": true,
    "lat": 34.448194,
    "lon": 135.576083,
    "route": "こんごう福祉→長野",
    "stop": "河内長野駅前",
    "passTime": "09:38",
    "vehicleType": "南海バス(車椅子・ベビーカー・ノンステップ)",
    "updateTime": "2026/07/22 09:42"
  },
  {
    "vehicleNum": "092917",
    "vehicleCd": "40",
    "vehicleCorpCd": "1",
    "running": true,
    "lat": 34.4025,
    "lon": 135.532278,
    "route": "河内長野駅前→奥河内くろまろの郷→滝畑ダム",
    "stop": "清掃工場前",
    "passTime": "09:38",
    "vehicleType": "南海バス(車椅子・ベビーカー・ノンステップ)",
    "updateTime": "2026/07/22 09:42"
  },
  {
    "vehicleNum": "092913",
    "vehicleCd": "154",
    "vehicleCorpCd": "1",
    "running": true,
    "lat": 34.557583,
    "lon": 135.470583,
    "route": "光明池駅→山田→堺東駅前",
    "stop": "緑ヶ丘",
    "passTime": "09:41",
    "vehicleType": "南海バス(車椅子・ベビーカー・ノンステップ)",
    "updateTime": "2026/07/22 09:42"
  },
  {
    "vehicleNum": "092918",
    "vehicleCd": "114",
    "vehicleCorpCd": "1",
    "running": true,
    "lat": 34.533278,
    "lon": 135.463083,
    "route": "堺東駅前→鳳駅前→光明池駅",
    "stop": "西区役所前",
    "passTime": "09:39",
    "vehicleType": "南海バス(車椅子・ベビーカー・ノンステップ)",
    "updateTime": "2026/07/22 09:42"
  },
  {
    "vehicleNum": "092950",
    "vehicleCd": "257",
    "vehicleCorpCd": "1",
    "running": true,
    "lat": 34.447278,
    "lon": 135.493,
    "route": "光明池駅→城山台５丁→みずき台２丁目西",
    "stop": "みずき台一丁目",
    "passTime": "09:41",
    "vehicleType": "南海バス(車椅子・ベビーカー・ノンステップ)",
    "updateTime": "2026/07/22 09:42"
  },
  {
    "vehicleNum": "092953",
    "vehicleCd": "122",
    "vehicleCorpCd": "1",
    "running": true,
    "lat": 34.422694,
    "lon": 135.225194,
    "route": "空港駅→給油地区",
    "stop": "ANA車輌整備工場前",
    "passTime": "09:41",
    "vehicleType": "南海バス(車椅子・ベビーカー・ノンステップ)",
    "updateTime": "2026/07/22 09:42"
  },
  {
    "vehicleNum": "092974",
    "vehicleCd": "260",
    "vehicleCorpCd": "1",
    "running": true,
    "lat": 34.456778,
    "lon": 135.449,
    "route": "和泉中央駅→寺田→泉大津駅前",
    "stop": "唐国南",
    "passTime": "09:41",
    "vehicleType": "南海バス(車椅子・ベビーカー・ノンステップ)",
    "updateTime": "2026/07/22 09:42"
  },
  {
    "vehicleNum": "092976",
    "vehicleCd": "138",
    "vehicleCorpCd": "1",
    "running": true,
    "lat": 34.478472,
    "lon": 135.432194,
    "route": "和泉中央駅→医療センター玄関口→和泉府中駅前",
    "stop": "和泉市立総合医療センター前",
    "passTime": "09:40",
    "vehicleType": "南海バス(車椅子・ベビーカー・ノンステップ)",
    "updateTime": "2026/07/22 09:42"
  },
  {
    "vehicleNum": "092977",
    "vehicleCd": "608",
    "vehicleCorpCd": "1",
    "running": true,
    "lat": 34.506889,
    "lon": 135.466194,
    "route": "光明池駅→山田→堺東駅前",
    "stop": "山田",
    "passTime": "09:41",
    "vehicleType": "南海バス(車椅子・ベビーカー・ノンステップ)",
    "updateTime": "2026/07/22 09:42"
  },
  {
    "vehicleNum": "092978",
    "vehicleCd": "325",
    "vehicleCorpCd": "1",
    "running": true,
    "lat": 34.458778,
    "lon": 135.447583,
    "route": "泉大津駅前→和泉府中駅前→和泉中央駅",
    "stop": "唐国",
    "passTime": "09:40",
    "vehicleType": "南海バス(車椅子・ベビーカー・ノンステップ)",
    "updateTime": "2026/07/22 09:42"
  },
  {
    "vehicleNum": "093003",
    "vehicleCd": "111",
    "vehicleCorpCd": "1",
    "running": true,
    "lat": 34.455,
    "lon": 135.473972,
    "route": "和泉中央駅→はつが野→和泉青葉台→和泉中央駅（左回り）",
    "stop": "川中",
    "passTime": "09:41",
    "vehicleType": "南海バス(車椅子・ベビーカー・ノンステップ)",
    "updateTime": "2026/07/22 09:42"
  },
  {
    "vehicleNum": "093032",
    "vehicleCd": "231",
    "vehicleCorpCd": "1",
    "running": true,
    "lat": 34.436,
    "lon": 135.2355,
    "route": "エアロプラザ→第２ターミナル(国内線・国際線)→エアロプラザ",
    "stop": "第2ターミナル国際線",
    "passTime": "09:40",
    "vehicleType": "南海バス",
    "updateTime": "2026/07/22 09:42"
  },
  {
    "vehicleNum": "093071",
    "vehicleCd": "274",
    "vehicleCorpCd": "1",
    "running": true,
    "lat": 34.487583,
    "lon": 135.424,
    "route": "光明池駅→光明池車庫→和泉中央駅→泉大津駅前",
    "stop": "府中町南",
    "passTime": "09:36",
    "vehicleType": "南海バス(車椅子・ベビーカー・ノンステップ)",
    "updateTime": "2026/07/22 09:42"
  },
  {
    "vehicleNum": "093073",
    "vehicleCd": "370",
    "vehicleCorpCd": "1",
    "running": true,
    "lat": 34.483278,
    "lon": 135.424278,
    "route": "泉大津駅前→和泉府中駅前→和泉中央駅",
    "stop": "和泉府中駅前",
    "passTime": "09:38",
    "vehicleType": "南海バス(車椅子・ベビーカー・ノンステップ)",
    "updateTime": "2026/07/22 09:42"
  },
  {
    "vehicleNum": "093113",
    "vehicleCd": "133",
    "vehicleCorpCd": "1",
    "running": true,
    "lat": 34.515778,
    "lon": 135.472278,
    "route": "堺東駅前→鳳駅前→栂・美木多駅",
    "stop": "福泉小学校前",
    "passTime": "09:39",
    "vehicleType": "南海バス(車椅子・ベビーカー・ノンステップ)",
    "updateTime": "2026/07/22 09:42"
  },
  {
    "vehicleNum": "093114",
    "vehicleCd": "262",
    "vehicleCorpCd": "1",
    "running": true,
    "lat": 34.526778,
    "lon": 135.462278,
    "route": "堺東駅前→鳳駅前→光明池駅",
    "stop": "上北",
    "passTime": "09:41",
    "vehicleType": "南海バス(車椅子・ベビーカー・ノンステップ)",
    "updateTime": "2026/07/22 09:42"
  }
]