[
  {
    "vehicleNum": "070101",
    "vehicleCd": "400",
    "vehicleCorpCd": "1",
    "running": true,
    "lat": 34.492694,
    "lon": 135.543694,
    "route": "泉ヶ丘駅→狭山ニュータウンセンター→金剛駅前",
    "stop": "今熊",
    "passTime": "20:41",
    "vehicleType": "泉北コミュニティバス(車椅子・ベビーカー・ノンステップ)",
    "updateTime": "2026/07/22 20:42"
  },
  {
    "vehicleNum": "070106",
    "vehicleCd": "404",
    "vehicleCorpCd": "1",
    "running": true,
    "lat": 34.484194,
    "lon": 135.537889,
    "route": "金剛駅前→狭山ニュータウンセンター→泉ヶ丘駅",
    "stop": "西山台南",
    "passTime": "20:40",
    "vehicleType": "泉北コミュニティバス(車椅子・ベビーカー・ノンステップ)",
    "updateTime": "2026/07/22 20:42"
  },
  {
    "vehicleNum": "070107",
    "vehicleCd": "405",
    "vehicleCorpCd": "1",
    "running": true,
    "lat": 34.486889,
    "lon": 135.523083,
    "route": "金剛駅前→狭山ニュータウンセンター→泉ヶ丘駅",
    "stop": "槙塚台１丁",
    "passTime": "20:41",
    "vehicleType": "泉北コミュニティバス(車椅子・ベビーカー・ノンステップ)",
    "updateTime": "2026/07/22 20:42"
  },
  {
    "vehicleNum": "071606",
    "vehicleCd": "413",
    "vehicleCorpCd": "1",
    "running": true,
    "lat": 34.574278,
    "lon": 135.483694,
    "route": "堺駅前→大小路→堺東駅前",
    "stop": "熊野小学校前",
    "passTime": "20:39",
    "vehicleType": "堺シャトル(車椅子・ベビーカー・ノンステップ)",
    "updateTime": "2026/07/22 20:42"
  },
  {
    "vehicleNum": "080105",
    "vehicleCd": "127",
    "vehicleCorpCd": "2",
    "running": true,
    "lat": 34.4555,
    "lon": 135.384389,
    "route": "岸和田駅前→天神山・一の宮循環　左回り→岸和田駅前",
    "stop": "岸和田駅前",
    "passTime": "20:40",
    "vehicleType": "南海ウイングバス(車椅子・ベビーカー・ワンステップ)",
    "updateTime": "2026/07/22 20:42"
  },
  {
    "vehicleNum": "080146",
    "vehicleCd": "6",
    "vehicleCorpCd": "2",
    "running": true,
    "lat": 34.410694,
    "lon": 135.319583,
    "route": "泉佐野駅前→泉陽ヶ丘→熊取駅前→山の手台→小谷→野田中央",
    "stop": "泉佐野駅前",
    "passTime": "20:40",
    "vehicleType": "南海ウイングバス(車椅子・ワンステップ)",
    "updateTime": "2026/07/22 20:42"
  },
  {
    "vehicleNum": "080171",
    "vehicleCd": "40",
    "vehicleCorpCd": "2",
    "running": true,
    "lat": 34.463083,
    "lon": 135.407583,
    "route": "岸和田駅前→内畑→白原車庫",
    "stop": "久米田",
    "passTime": "20:41",
    "vehicleType": "南海ウイングバス(車椅子・ベビーカー・ワンステップ)",
    "updateTime": "2026/07/22 20:42"
  },
  {
    "vehicleNum": "080184",
    "vehicleCd": "34",
    "vehicleCorpCd": "2",
    "running": true,
    "lat": 34.404194,
    "lon": 135.345194,
    "route": "熊取ニュータウン→熊取駅前→上瓦屋町→泉佐野駅前（フリー乗降）",
    "stop": "青年会場前",
    "passTime": "20:41",
    "vehicleType": "南海ウイングバス(車椅子・ベビーカー・ノンステップ)",
    "updateTime": "2026/07/22 20:42"
  },
  {
    "vehicleNum": "080186",
    "vehicleCd": "39",
    "vehicleCorpCd": "2",
    "running": true,
    "lat": 34.326278,
    "lon": 135.220194,
    "route": "箱作駅前→桃の木台回り→箱作駅前",
    "stop": "桃の木台小学校前",
    "passTime": "20:42",
    "vehicleType": "南海ウイングバス(車椅子・ベビーカー・ノンステップ)",
    "updateTime": "2026/07/22 20:42"
  },
  {
    "vehicleNum": "080321",
    "vehicleCd": "14",
    "vehicleCorpCd": "2",
    "running": true,
    "lat": 34.388778,
    "lon": 135.352778,
    "route": "泉佐野駅前→ダンバラ公園前→熊取駅前→大阪体育大学前",
    "stop": "熊取団地",
    "passTime": "20:40",
    "vehicleType": "南海ウイングバス(車椅子・ワンステップ)",
    "updateTime": "2026/07/22 20:42"
  },
  {
    "vehicleNum": "080322",
    "vehicleCd": "116",
    "vehicleCorpCd": "2",
    "running": true,
    "lat": 34.386694,
    "lon": 135.271694,
    "route": "イオンモール→ポート→イオンモールりんくう泉南",
    "stop": "イオンモールりんくう泉南",
    "passTime": "20:40",
    "vehicleType": "南海ウイングバス(車椅子・ワンステップ)",
    "updateTime": "2026/07/22 20:42"
  },
  {
    "vehicleNum": "080345",
    "vehicleCd": "121",
    "vehicleCorpCd": "2",
    "running": true,
    "lat": 34.402083,
    "lon": 135.344889,
    "route": "大阪体育大学前→熊取駅前",
    "stop": "大久保",
    "passTime": "20:42",
    "vehicleType": "南海ウイングバス",
    "updateTime": "2026/07/22 20:42"
  },
  {
    "vehicleNum": "080381",
    "vehicleCd": "88",
    "vehicleCorpCd": "1",
    "running": true,
    "lat": 34.575194,
    "lon": 135.479778,
    "route": "堺東駅前→フェリー→ＡＴＣ",
    "stop": "堺東駅前",
    "passTime": "20:40",
    "vehicleType": "南海バス(車椅子・ワンステップ)",
    "updateTime": "2026/07/22 20:42"
  },
  {
    "vehicleNum": "080628",
    "vehicleCd": "445",
    "vehicleCorpCd": "1",
    "running": true,
    "lat": 34.545889,
    "lon": 135.554694,
    "route": "地下鉄新金岡駅前→野遠→美原区役所",
    "stop": "太井",
    "passTime": "20:40",
    "vehicleType": "南海バス(車椅子・ベビーカー・ノンステップ)",
    "updateTime": "2026/07/22 20:42"
  },
  {
    "vehicleNum": "080629",
    "vehicleCd": "447",
    "vehicleCorpCd": "1",
    "running": true,
    "lat": 34.559778,
    "lon": 135.525278,
    "route": "美原区役所→野遠→地下鉄新金岡駅前",
    "stop": "大泉緑地前",
    "passTime": "20:41",
    "vehicleType": "南海バス(車椅子・ベビーカー・ノンステップ)",
    "updateTime": "2026/07/22 20:42"
  },
  {
    "vehicleNum": "080652",
    "vehicleCd": "456",
    "vehicleCorpCd": "1",
    "running": true,
    "lat": 34.539778,
    "lon": 135.547083,
    "route": "北野田駅前→多治井北（循環）→北野田駅前",
    "stop": "北余部北",
    "passTime": "20:41",
    "vehicleType": "南海バス",
    "updateTime": "2026/07/22 20:42"
  },
  {
    "vehicleNum": "080670",
    "vehicleCd": "507",
    "vehicleCorpCd": "1",
    "running": true,
    "lat": 34.593,
    "lon": 135.453389,
    "route": "匠町→堺駅西口→堺東駅前→阪和堺市駅前",
    "stop": "匠町",
    "passTime": "20:40",
    "vehicleType": "南海バス(車椅子・ベビーカー・ノンステップ)",
    "updateTime": "2026/07/22 20:42"
  },
  {
    "vehicleNum": "080671",
    "vehicleCd": "465",
    "vehicleCorpCd": "1",
    "running": true,
    "lat": 34.570694,
    "lon": 135.481694,
    "route": "堺東駅前→白鷺駅前→堺東駅前（循環）",
    "stop": "堺東駅前",
    "passTime": "20:40",
    "vehicleType": "南海バス(車椅子・ベビーカー・ノンステップ)",
    "updateTime": "2026/07/22 20:42"
  },
  {
    "vehicleNum": "080734",
    "vehicleCd": "415",
    "vehicleCorpCd": "1",
    "running": true,
    "lat": 34.547889,
    "lon": 135.542,
    "route": "美原区役所→初芝駅前→美原区役所",
    "stop": "菩提",
    "passTime": "20:42",
    "vehicleType": "南海バス",
    "updateTime": "2026/07/22 20:42"
  },
  {
    "vehicleNum": "080746",
    "vehicleCd": "395",
    "vehicleCorpCd": "1",
    "running": true,
    "lat": 34.500194,
    "lon": 135.570694,
    "route": "金剛駅前→向陽・藤沢回り→金剛駅前",
    "stop": "金剛高校前",
    "passTime": "20:40",
    "vehicleType": "南海バス(車椅子・ベビーカー・ノンステップ)",
    "updateTime": "2026/07/22 20:42"
  },
  {
    "vehicleNum": "080750",
    "vehicleCd": "103",
    "vehicleCorpCd": "1",
    "running": true,
    "lat": 34.577194,
    "lon": 135.491694,
    "route": "匠町→堺駅西口→堺東駅前→阪和堺市駅前",
    "stop": "田出井町",
    "passTime": "20:41",
    "vehicleType": "南海バス(車椅子・ベビーカー・ノンステップ)",
    "updateTime": "2026/07/22 20:42"
  },
  {
    "vehicleNum": "080703",
    "vehicleCd": "219",
    "vehicleCorpCd": "1",
    "running": true,
    "lat": 34.574194,
    "lon": 135.478778,
    "route": "堺駅前→堺駅南口",
    "stop": "堺東駅前",
    "passTime": "20:40",
    "vehicleType": "南海バス(車椅子・ベビーカー・ノンステップ)",
    "updateTime": "2026/07/22 20:42"
  },
  {
    "vehicleNum": "080764",
    "vehicleCd": "563",
    "vehicleCorpCd": "1",
    "running": true,
    "lat": 34.523,
    "lon": 135.537583,
    "route": "北野田駅前→福町→堺駅南口",
    "stop": "大美野噴水前",
    "passTime": "20:42",
    "vehicleType": "南海バス(車椅子・ベビーカー・ノンステップ)",
    "updateTime": "2026/07/22 20:42"
  },
  {
    "vehicleNum": "080765",
    "vehicleCd": "564",
    "vehicleCorpCd": "1",
    "running": true,
    "lat": 34.523083,
    "lon": 135.5375,
    "route": "堺駅南口→福町→北野田駅前",
    "stop": "大美野噴水前",
    "passTime": "20:42",
    "vehicleType": "南海バス(車椅子・ベビーカー・ノンステップ)",
    "updateTime": "2026/07/22 20:42"
  },
  {
    "vehicleNum": "080792",
    "vehicleCd": "302",
    "vehicleCorpCd": "1",
    "running": true,
    "lat": 34.576889,
    "lon": 135.497,
    "route": "【急行】海浜匠町→堺東駅前→阪和堺市駅前",
    "stop": "瓦町公園前",
    "passTime": "20:36",
    "vehicleType": "南海バス(車椅子・ベビーカー・ノンステップ)",
    "updateTime": "2026/07/22 20:42"
  },
  {
    "vehicleNum": "080790",
    "vehicleCd": "106",
    "vehicleCorpCd": "1",
    "running": true,
    "lat": 34.602083,
    "lon": 135.4515,
    "route": "堺駅西口→錦綾町→堺東駅前",
    "stop": "Jグリーン堺南口",
    "passTime": "20:41",
    "vehicleType": "南海バス(車椅子・ベビーカー・ノンステップ)",
    "updateTime": "2026/07/22 20:42"
  },
  {
    "vehicleNum": "080794",
    "vehicleCd": "344",
    "vehicleCorpCd": "1",
    "running": true,
    "lat": 34.579778,
    "lon": 135.485389,
    "route": "河内天美駅前→天美我堂→堺東駅前",
    "stop": "中向陽町",
    "passTime": "20:42",
    "vehicleType": "南海バス(車椅子・ベビーカー・ノンステップ)",
    "updateTime": "2026/07/22 20:42"
  },
  {
    "vehicleNum": "080795",
    "vehicleCd": "43",
    "vehicleCorpCd": "1",
    "running": true,
    "lat": 34.565778,
    "lon": 135.500778,
    "route": "堺東駅前→白鷺駅前→堺東駅前（循環）",
    "stop": "黒土口",
    "passTime": "20:42",
    "vehicleType": "南海バス(車椅子・ベビーカー・ノンステップ)",
    "updateTime": "2026/07/22 20:42"
  },
  {
    "vehicleNum": "080807",
    "vehicleCd": "223",
    "vehicleCorpCd": "1",
    "running": true,
    "lat": 34.595583,
    "lon": 135.458278,
    "route": "堺東駅前→材木町→堺駅西口",
    "stop": "八幡町",
    "passTime": "20:42",
    "vehicleType": "南海バス(車椅子・ベビーカー・ノンステップ)",
    "updateTime": "2026/07/22 20:42"
  },
  {
    "vehicleNum": "080809",
    "vehicleCd": "215",
    "vehicleCorpCd": "1",
    "running": true,
    "lat": 34.5855,
    "lon": 135.490278,
    "route": "堺東駅前→錦綾町→河内天美駅前",
    "stop": "錦綾町",
    "passTime": "20:40",
    "vehicleType": "南海バス(車椅子・ベビーカー・ノンステップ)",
    "updateTime": "2026/07/22 20:42"
  },
  {
    "vehicleNum": "080808",
    "vehicleCd": "216",
    "vehicleCorpCd": "1",
    "running": true,
    "lat": 34.574694,
    "lon": 135.510389,
    "route": "堺駅前→堺東駅前→河内松原駅前",
    "stop": "公園北口",
    "passTime": "20:42",
    "vehicleType": "南海バス(車椅子・ベビーカー・ノンステップ)",
    "updateTime": "2026/07/22 20:42"
  },
  {
    "vehicleNum": "080806",
    "vehicleCd": "307",
    "vehicleCorpCd": "1",
    "running": true,
    "lat": 34.574583,
    "lon": 135.506389,
    "route": "河内松原駅前→阪和堺市駅前→堺駅前",
    "stop": "警察学校前（堺市）",
    "passTime": "20:42",
    "vehicleType": "南海バス(車椅子・ベビーカー・ノンステップ)",
    "updateTime": "2026/07/22 20:42"
  },
  {
    "vehicleNum": "080814",
    "vehicleCd": "193",
    "vehicleCorpCd": "1",
    "running": true,
    "lat": 34.4975,
    "lon": 135.501778,
    "route": "津久野駅前→堺市立総合医療センター前→泉北２号線→泉ヶ丘駅",
    "stop": "竹城台センター",
    "passTime": "20:42",
    "vehicleType": "南海バス(車椅子・ベビーカー・ノンステップ)",
    "updateTime": "2026/07/22 20:42"
  },
  {
    "vehicleNum": "080825",
    "vehicleCd": "261",
    "vehicleCorpCd": "1",
    "running": true,
    "lat": 34.5555,
    "lon": 135.501194,
    "route": "堺駅南口→三国ヶ丘駅前→北野田駅前",
    "stop": "中もず駅前（南側）",
    "passTime": "20:40",
    "vehicleType": "南海バス(車椅子・ベビーカー・ノンステップ)",
    "updateTime": "2026/07/22 20:42"
  },
  {
    "vehicleNum": "080838",
    "vehicleCd": "129",
    "vehicleCorpCd": "1",
    "running": true,
    "lat": 34.594,
    "lon": 135.446389,
    "route": "【急行】海浜匠町→堺東駅前→阪和堺市駅前",
    "stop": "海浜匠町",
    "passTime": "20:36",
    "vehicleType": "南海バス(車椅子・ベビーカー・ノンステップ)",
    "updateTime": "2026/07/22 20:42"
  },
  {
    "vehicleNum": "080845",
    "vehicleCd": "319",
    "vehicleCorpCd": "1",
    "running": true,
    "lat": 34.552889,
    "lon": 135.472778,
    "route": "堺東駅前→津久野駅前→堀上緑町一丁→津久野駅前",
    "stop": "南陵通４丁",
    "passTime": "20:41",
    "vehicleType": "南海バス(車椅子・ベビーカー・ノンステップ)",
    "updateTime": "2026/07/22 20:42"
  },
  {
    "vehicleNum": "080851",
    "vehicleCd": "439",
    "vehicleCorpCd": "1",
    "running": true,
    "lat": 34.503083,
    "lon": 135.582583,
    "route": "金剛駅前→向陽・藤沢回り→金剛駅前",
    "stop": "中央センター前",
    "passTime": "20:39",
    "vehicleType": "南海バス(車椅子・ベビーカー・ノンステップ)",
    "updateTime": "2026/07/22 20:42"
  },
  {
    "vehicleNum": "080855",
    "vehicleCd": "16",
    "vehicleCorpCd": "1",
    "running": true,
    "lat": 34.511083,
    "lon": 135.4955,
    "route": "津久野駅前→堺市立総合医療センター前→八田荘団地→泉ヶ丘駅",
    "stop": "伏尾",
    "passTime": "20:41",
    "vehicleType": "南海バス(車椅子・ベビーカー・ノンステップ)",
    "updateTime": "2026/07/22 20:42"
  },
  {
    "vehicleNum": "080863",
    "vehicleCd": "249",
    "vehicleCorpCd": "1",
    "running": true,
    "lat": 34.565583,
    "lon": 135.492889,
    "route": "堺駅南口→地下鉄新金岡駅前",
    "stop": "三国ヶ丘駅前",
    "passTime": "20:42",
    "vehicleType": "南海バス(車椅子・ベビーカー・ノンステップ)",
    "updateTime": "2026/07/22 20:42"
  },
  {
    "vehicleNum": "080864",
    "vehicleCd": "146",
    "vehicleCorpCd": "1",
    "running": true,
    "lat": 34.564583,
    "lon": 135.463889,
    "route": "堺駅南口→堺駅前",
    "stop": "東湊電停前",
    "passTime": "20:42",
    "vehicleType": "南海バス(車椅子・ベビーカー・ノンステップ)",
    "updateTime": "2026/07/22 20:42"
  },
  {
    "vehicleNum": "080866",
    "vehicleCd": "497",
    "vehicleCorpCd": "1",
    "running": true,
    "lat": 34.494889,
    "lon": 135.579,
    "route": "金剛駅前→高辺台小学校前→金剛駅前",
    "stop": "津々山台２丁目",
    "passTime": "20:41",
    "vehicleType": "南海バス(車椅子・ベビーカー・ノンステップ)",
    "updateTime": "2026/07/22 20:42"
  },
  {
    "vehicleNum": "080876",
    "vehicleCd": "390",
    "vehicleCorpCd": "1",
    "running": true,
    "lat": 34.523194,
    "lon": 135.537583,
    "route": "深井駅→東山車庫前→北野田駅前",
    "stop": "大美野噴水前",
    "passTime": "20:42",
    "vehicleType": "南海バス(車椅子・ベビーカー・ノンステップ)",
    "updateTime": "2026/07/22 20:42"
  },
  {
    "vehicleNum": "080898",
    "vehicleCd": "501",
    "vehicleCorpCd": "1",
    "running": true,
    "lat": 34.600389,
    "lon": 135.425083,
    "route": "【急行】海浜匠町→堺駅西口",
    "stop": "海浜匠町",
    "passTime": "20:41",
    "vehicleType": "南海バス(車椅子・ベビーカー・ワンステップ)",
    "updateTime": "2026/07/22 20:42"
  },
  {
    "vehicleNum": "080899",
    "vehicleCd": "498",
    "vehicleCorpCd": "1",
    "running": true,
    "lat": 34.586694,
    "lon": 135.484889,
    "route": "【急行】海浜匠町→堺東駅前→阪和堺市駅前",
    "stop": "海浜匠町",
    "passTime": "20:24",
    "vehicleType": "南海バス(車椅子・ベビーカー・ワンステップ)",
    "updateTime": "2026/07/22 20:42"
  },
  {
    "vehicleNum": "080902",
    "vehicleCd": "76",
    "vehicleCorpCd": "1",
    "running": true,
    "lat": 34.588,
    "lon": 135.469389,
    "route": "【急行】海浜匠町→堺駅西口",
    "stop": "海浜匠町",
    "passTime": "20:29",
    "vehicleType": "南海バス(車椅子・ベビーカー・ワンステップ)",
    "updateTime": "2026/07/22 20:42"
  },
  {
    "vehicleNum": "080907",
    "vehicleCd": "499",
    "vehicleCorpCd": "1",
    "running": true,
    "lat": 34.490583,
    "lon": 135.542583,
    "route": "金剛駅前→狭山ニュータウンセンター→泉ヶ丘駅",
    "stop": "西山台北",
    "passTime": "20:41",
    "vehicleType": "南海バス(車椅子・ベビーカー・ノンステップ)",
    "updateTime": "2026/07/22 20:42"
  },
  {
    "vehicleNum": "080905",
    "vehicleCd": "353",
    "vehicleCorpCd": "1",
    "running": true,
    "lat": 34.500278,
    "lon": 135.530278,
    "route": "泉ヶ丘駅→スマ・エコタウン晴美台→高倉台左回り→泉ヶ丘駅",
    "stop": "堺東高校前",
    "passTime": "20:41",
    "vehicleType": "南海バス(車椅子・ベビーカー・ノンステップ)",
    "updateTime": "2026/07/22 20:42"
  },
  {
    "vehicleNum": "080911",
    "vehicleCd": "240",
    "vehicleCorpCd": "1",
    "running": true,
    "lat": 34.565194,
    "lon": 135.517583,
    "route": "地下鉄新金岡駅前→堺駅南口",
    "stop": "北区役所前",
    "passTime": "20:41",
    "vehicleType": "南海バス(車椅子・ベビーカー・ノンステップ)",
    "updateTime": "2026/07/22 20:42"
  },
  {
    "vehicleNum": "080913",
    "vehicleCd": "128",
    "vehicleCorpCd": "1",
    "running": true,
    "lat": 34.593389,
    "lon": 135.458,
    "route": "阪和堺市駅前→堺東駅前→堺駅西口→匠町→海浜匠町",
    "stop": "塩浜町",
    "passTime": "20:41",
    "vehicleType": "南海バス(車椅子・ベビーカー・ノンステップ)",
    "updateTime": "2026/07/22 20:42"
  },
  {
    "vehicleNum": "080917",
    "vehicleCd": "70",
    "vehicleCorpCd": "1",
    "running": true,
    "lat": 34.475889,
    "lon": 135.508194,
    "route": "泉ヶ丘駅→鉢ヶ峯→泉ヶ丘駅",
    "stop": "泉田中",
    "passTime": "20:42",
    "vehicleType": "南海バス(車椅子・ベビーカー・ノンステップ)",
    "updateTime": "2026/07/22 20:42"
  },
  {
    "vehicleNum": "080935",
    "vehicleCd": "593",
    "vehicleCorpCd": "1",
    "running": true,
    "lat": 34.601194,
    "lon": 135.462694,
    "route": "匠町→住之江公園駅前→匠町",
    "stop": "松屋大和川通",
    "passTime": "20:41",
    "vehicleType": "南海バス(車椅子・ベビーカー・ノンステップ)",
    "updateTime": "2026/07/22 20:42"
  },
  {
    "vehicleNum": "080936",
    "vehicleCd": "22",
    "vehicleCorpCd": "1",
    "running": true,
    "lat": 34.473,
    "lon": 135.501389,
    "route": "栂・美木多駅→庭代台左回り→栂・美木多駅",
    "stop": "庭代台３丁",
    "passTime": "20:41",
    "vehicleType": "南海バス(車椅子・ベビーカー・ノンステップ)",
    "updateTime": "2026/07/22 20:42"
  },
  {
    "vehicleNum": "080958",
    "vehicleCd": "603",
    "vehicleCorpCd": "1",
    "running": true,
    "lat": 34.578389,
    "lon": 135.483583,
    "route": "ＡＴＣ→堺東駅前",
    "stop": "堺駅前",
    "passTime": "20:36",
    "vehicleType": "南海バス",
    "updateTime": "2026/07/22 20:42"
  },
  {
    "vehicleNum": "080967",
    "vehicleCd": "605",
    "vehicleCorpCd": "1",
    "running": true,
    "lat": 34.5375,
    "lon": 135.545278,
    "route": "中もず駅前→平尾・美原区役所前→中もず駅前",
    "stop": "北余部",
    "passTime": "20:41",
    "vehicleType": "南海バス(車椅子・ベビーカー・ノンステップ)",
    "updateTime": "2026/07/22 20:42"
  },
  {
    "vehicleNum": "080995",
    "vehicleCd": "118",
    "vehicleCorpCd": "1",
    "running": true,
    "lat": 34.487778,
    "lon": 135.522389,
    "route": "泉ヶ丘駅→晴美台右回り→泉ヶ丘駅",
    "stop": "茶山台南口",
    "passTime": "20:42",
    "vehicleType": "南海バス(車椅子・ベビーカー・ノンステップ)",
    "updateTime": "2026/07/22 20:42"
  },
  {
    "vehicleNum": "080996",
    "vehicleCd": "191",
    "vehicleCorpCd": "1",
    "running": true,
    "lat": 34.541778,
    "lon": 135.468194,
    "route": "津久野駅前→堀上緑町一丁→津久野駅前→堺東駅前",
    "stop": "堺市立総合医療センター東",
    "passTime": "20:37",
    "vehicleType": "南海バス(車椅子・ベビーカー・ノンステップ)",
    "updateTime": "2026/07/22 20:42"
  },
  {
    "vehicleNum": "080999",
    "vehicleCd": "493",
    "vehicleCorpCd": "1",
    "running": true,
    "lat": 34.5385,
    "lon": 135.542389,
    "route": "初芝駅前→平尾・美原区役所前→中もず駅前",
    "stop": "余部西口",
    "passTime": "20:41",
    "vehicleType": "南海バス(車椅子・ベビーカー・ノンステップ)",
    "updateTime": "2026/07/22 20:42"
  },
  {
    "vehicleNum": "081003",
    "vehicleCd": "610",
    "vehicleCorpCd": "1",
    "running": true,
    "lat": 34.518083,
    "lon": 135.490778,
    "route": "泉ヶ丘駅→宮山台中学校前→堺東駅前",
    "stop": "天の橋",
    "passTime": "20:40",
    "vehicleType": "南海バス(車椅子・ベビーカー・ノンステップ)",
    "updateTime": "2026/07/22 20:42"
  },
  {
    "vehicleNum": "081006",
    "vehicleCd": "54",
    "vehicleCorpCd": "1",
    "running": true,
    "lat": 34.553083,
    "lon": 135.502778,
    "route": "北野田駅前→西口園→堺駅南口",
    "stop": "中もず駅前通",
    "passTime": "20:42",
    "vehicleType": "南海バス(車椅子・ベビーカー・ノンステップ)",
    "updateTime": "2026/07/22 20:42"
  },
  {
    "vehicleNum": "081007",
    "vehicleCd": "127",
    "vehicleCorpCd": "1",
    "running": true,
    "lat": 34.549778,
    "lon": 135.479694,
    "route": "堺東駅前→上野芝駅前→東山車庫前",
    "stop": "南陵通４丁",
    "passTime": "20:41",
    "vehicleType": "南海バス(車椅子・ベビーカー・ノンステップ)",
    "updateTime": "2026/07/22 20:42"
  },
  {
    "vehicleNum": "081019",
    "vehicleCd": "267",
    "vehicleCorpCd": "1",
    "running": true,
    "lat": 34.508083,
    "lon": 135.513083,
    "route": "深井駅→田園→泉ヶ丘駅",
    "stop": "田園南",
    "passTime": "20:42",
    "vehicleType": "南海バス(車椅子・ベビーカー・ノンステップ)",
    "updateTime": "2026/07/22 20:42"
  },
  {
    "vehicleNum": "081017",
    "vehicleCd": "135",
    "vehicleCorpCd": "1",
    "running": true,
    "lat": 34.477389,
    "lon": 135.54,
    "route": "泉ヶ丘駅→狭山ニュータウンセンター→金剛駅前",
    "stop": "南第二小学校前",
    "passTime": "20:42",
    "vehicleType": "南海バス(車椅子・ベビーカー・ノンステップ)",
    "updateTime": "2026/07/22 20:42"
  },
  {
    "vehicleNum": "081021",
    "vehicleCd": "243",
    "vehicleCorpCd": "1",
    "running": true,
    "lat": 34.576778,
    "lon": 135.470583,
    "route": "堺駅南口→福町→北野田駅前",
    "stop": "川尻",
    "passTime": "20:41",
    "vehicleType": "南海バス(車椅子・ベビーカー・ノンステップ)",
    "updateTime": "2026/07/22 20:42"
  },
  {
    "vehicleNum": "081024",
    "vehicleCd": "270",
    "vehicleCorpCd": "1",
    "running": true,
    "lat": 34.508583,
    "lon": 135.494472,
    "route": "堺東駅前→上野芝→泉ヶ丘駅",
    "stop": "宮山台３丁",
    "passTime": "20:42",
    "vehicleType": "南海バス(車椅子・ベビーカー・ノンステップ)",
    "updateTime": "2026/07/22 20:42"
  },
  {
    "vehicleNum": "081035",
    "vehicleCd": "491",
    "vehicleCorpCd": "1",
    "running": true,
    "lat": 34.460278,
    "lon": 135.505389,
    "route": "栂・美木多駅→御池台回り→栂・美木多駅",
    "stop": "御池台４丁南",
    "passTime": "20:42",
    "vehicleType": "南海バス(車椅子・ベビーカー・ノンステップ)",
    "updateTime": "2026/07/22 20:42"
  },
  {
    "vehicleNum": "081036",
    "vehicleCd": "293",
    "vehicleCorpCd": "1",
    "running": true,
    "lat": 34.496889,
    "lon": 135.513278,
    "route": "泉ヶ丘駅→晴美台右回り→泉ヶ丘駅",
    "stop": "泉ヶ丘駅（南側）",
    "passTime": "20:42",
    "vehicleType": "南海バス(車椅子・ベビーカー・ノンステップ)",
    "updateTime": "2026/07/22 20:42"
  },
  {
    "vehicleNum": "081037",
    "vehicleCd": "236",
    "vehicleCorpCd": "1",
    "running": true,
    "lat": 34.4955,
    "lon": 135.515083,
    "route": "金剛駅前→帝塚山学院泉ヶ丘校前→泉ヶ丘駅前",
    "stop": "茶山台２丁",
    "passTime": "20:40",
    "vehicleType": "南海バス(車椅子・ベビーカー・ノンステップ)",
    "updateTime": "2026/07/22 20:42"
  },
  {
    "vehicleNum": "090160",
    "vehicleCd": "72",
    "vehicleCorpCd": "2",
    "running": true,
    "lat": 34.456694,
    "lon": 135.449,
    "route": "和泉中央駅→荒木町→岸和田駅前",
    "stop": "唐国南",
    "passTime": "20:42",
    "vehicleType": "南海ウイングバス(車椅子・ワンステップ)",
    "updateTime": "2026/07/22 20:42"
  },
  {
    "vehicleNum": "090331",
    "vehicleCd": "197",
    "vehicleCorpCd": "1",
    "running": true,
    "lat": 34.440389,
    "lon": 135.247889,
    "route": "ポートターミナル→第２ターミナル",
    "stop": "ポートターミナル",
    "passTime": "20:39",
    "vehicleType": "南海バス(車椅子・ベビーカー・ワンステップ)",
    "updateTime": "2026/07/22 20:42"
  },
  {
    "vehicleNum": "091581",
    "vehicleCd": "198",
    "vehicleCorpCd": "1",
    "running": true,
    "lat": 34.425389,
    "lon": 135.228694,
    "route": "空港駅→国際循環→空港駅",
    "stop": "第2代理店ビル前",
    "passTime": "20:41",
    "vehicleType": "南海バス(車椅子・ノンステップ)",
    "updateTime": "2026/07/22 20:42"
  },
  {
    "vehicleNum": "091595",
    "vehicleCd": "199",
    "vehicleCorpCd": "1",
    "running": true,
    "lat": 34.425083,
    "lon": 135.229,
    "route": "空港駅→ＦｅｄＥｘ→給油地区",
    "stop": "第2代理店ビル前",
    "passTime": "20:42",
    "vehicleType": "南海バス(車椅子・ノンステップ)",
    "updateTime": "2026/07/22 20:42"
  },
  {
    "vehicleNum": "091747",
    "vehicleCd": "333",
    "vehicleCorpCd": "1",
    "running": true,
    "lat": 34.447389,
    "lon": 135.558694,
    "route": "滝畑ダム→奥河内くろまろの郷→河内長野駅前",
    "stop": "下高向",
    "passTime": "17:12",
    "vehicleType": "南海バス(車椅子・ベビーカー・ワンステップ)",
    "updateTime": "2026/07/22 20:42"
  },
  {
    "vehicleNum": "091910",
    "vehicleCd": "441",
    "vehicleCorpCd": "1",
    "running": true,
    "lat": 34.435778,
    "lon": 135.235083,
    "route": "エアロプラザ→第２ターミナル(国内線・国際線)→エアロプラザ",
    "stop": "第2ターミナル国際線",
    "passTime": "20:41",
    "vehicleType": "南海バス(車椅子・ノンステップ)",
    "updateTime": "2026/07/22 20:42"
  },
  {
    "vehicleNum": "092205",
    "vehicleCd": "25",
    "vehicleCorpCd": "1",
    "running": true,
    "lat": 34.439778,
    "lon": 135.582778,
    "route": "小吹台→河内長野駅前",
    "stop": "日東町東口",
    "passTime": "20:42",
    "vehicleType": "南海バス(車椅子・ベビーカー・ノンステップ)",
    "updateTime": "2026/07/22 20:42"
  },
  {
    "vehicleNum": "092235",
    "vehicleCd": "535",
    "vehicleCorpCd": "1",
    "running": true,
    "lat": 34.458583,
    "lon": 135.479889,
    "route": "松尾寺→のぞみ野南→和泉中央駅",
    "stop": "緑ヶ丘団地",
    "passTime": "15:19",
    "vehicleType": "南海バス(車椅子・ベビーカー・ノンステップ)",
    "updateTime": "2026/07/22 20:42"
  },
  {
    "vehicleNum": "092234",
    "vehicleCd": "534",
    "vehicleCorpCd": "1",
    "running": true,
    "lat": 34.458583,
    "lon": 135.489389,
    "route": "光明池駅→城山台５丁→みずき台２丁目西",
    "stop": "光明台一丁目",
    "passTime": "20:42",
    "vehicleType": "南海バス(車椅子・ベビーカー・ノンステップ)",
    "updateTime": "2026/07/22 20:42"
  },
  {
    "vehicleNum": "092382",
    "vehicleCd": "556",
    "vehicleCorpCd": "1",
    "running": true,
    "lat": 34.494972,
    "lon": 135.411472,
    "route": "泉大津駅前→和泉中央駅→和泉青葉台",
    "stop": "池浦",
    "passTime": "20:42",
    "vehicleType": "南海バス(車椅子・ベビーカー・ノンステップ)",
    "updateTime": "2026/07/22 20:42"
  },
  {
    "vehicleNum": "092398",
    "vehicleCd": "41",
    "vehicleCorpCd": "1",
    "running": true,
    "lat": 34.436083,
    "lon": 135.241583,
    "route": "エアロプラザ→第２ターミナル(国内線・国際線)→エアロプラザ",
    "stop": "第2ターミナル国際線",
    "passTime": "20:37",
    "vehicleType": "南海バス(車椅子・ノンステップ)",
    "updateTime": "2026/07/22 20:42"
  },
  {
    "vehicleNum": "092467",
    "vehicleCd": "50",
    "vehicleCorpCd": "1",
    "running": true,
    "lat": 34.415278,
    "lon": 135.560083,
    "route": "三日市町駅前→南花台１丁目北→大矢船西町",
    "stop": "大矢船南町",
    "passTime": "20:42",
    "vehicleType": "南海バス(車椅子・ベビーカー・ノンステップ)",
    "updateTime": "2026/07/22 20:42"
  },
  {
    "vehicleNum": "092534",
    "vehicleCd": "265",
    "vehicleCorpCd": "1",
    "running": true,
    "lat": 34.460389,
    "lon": 135.455778,
    "route": "泉大津駅前→和泉府中駅前→和泉中央駅→光明池駅",
    "stop": "和泉中央駅",
    "passTime": "20:41",
    "vehicleType": "南海バス(車椅子・ベビーカー・ノンステップ)",
    "updateTime": "2026/07/22 20:42"
  },
  {
    "vehicleNum": "092569",
    "vehicleCd": "266",
    "vehicleCorpCd": "1",
    "running": true,
    "lat": 34.490194,
    "lon": 135.466278,
    "route": "堺東駅前→鳳駅前→光明池駅",
    "stop": "檜尾山北",
    "passTime": "20:42",
    "vehicleType": "南海バス(車椅子・ベビーカー・ノンステップ)",
    "updateTime": "2026/07/22 20:42"
  },
  {
    "vehicleNum": "092579",
    "vehicleCd": "579",
    "vehicleCorpCd": "1",
    "running": true,
    "lat": 34.447194,
    "lon": 135.543694,
    "route": "千代→緑→小山田→千代",
    "stop": "緑ヶ丘中町",
    "passTime": "20:42",
    "vehicleType": "南海バス(車椅子・ベビーカー・ノンステップ)",
    "updateTime": "2026/07/22 20:42"
  },
  {
    "vehicleNum": "092580",
    "vehicleCd": "377",
    "vehicleCorpCd": "1",
    "running": true,
    "lat": 34.425083,
    "lon": 135.452472,
    "route": "和泉中央駅→テクノステージセンター前→直行→和泉中央駅",
    "stop": "テクノステージ北",
    "passTime": "20:42",
    "vehicleType": "南海バス(車椅子・ベビーカー・ノンステップ)",
    "updateTime": "2026/07/22 20:42"
  },
  {
    "vehicleNum": "092595",
    "vehicleCd": "326",
    "vehicleCorpCd": "1",
    "running": true,
    "lat": 34.421583,
    "lon": 135.585778,
    "route": "美加の台駅前→美加の台西→美加の台駅前",
    "stop": "美加の台中",
    "passTime": "20:42",
    "vehicleType": "南海バス(車椅子・ベビーカー・ノンステップ)",
    "updateTime": "2026/07/22 20:42"
  },
  {
    "vehicleNum": "092734",
    "vehicleCd": "289",
    "vehicleCorpCd": "1",
    "running": true,
    "lat": 34.450194,
    "lon": 135.574694,
    "route": "河内長野駅前→河合寺→小吹台",
    "stop": "河内長野駅前",
    "passTime": "20:37",
    "vehicleType": "南海バス(車椅子・ベビーカー・ノンステップ)",
    "updateTime": "2026/07/22 20:43"
  },
  {
    "vehicleNum": "092763",
    "vehicleCd": "520",
    "vehicleCorpCd": "1",
    "running": true,
    "lat": 34.496583,
    "lon": 135.412694,
    "route": "和泉中央駅→寺田→泉大津駅前",
    "stop": "池浦",
    "passTime": "20:41",
    "vehicleType": "南海バス(車椅子・ベビーカー・ノンステップ)",
    "updateTime": "2026/07/22 20:43"
  },
  {
    "vehicleNum": "092856",
    "vehicleCd": "601",
    "vehicleCorpCd": "1",
    "running": true,
    "lat": 34.446,
    "lon": 135.462083,
    "route": "和泉中央駅→はつが野→和泉青葉台→和泉中央駅（左回り）",
    "stop": "はつが野二丁目",
    "passTime": "20:42",
    "vehicleType": "南海バス(車椅子・ベビーカー・ノンステップ)",
    "updateTime": "2026/07/22 20:43"
  },
  {
    "vehicleNum": "092863",
    "vehicleCd": "371",
    "vehicleCorpCd": "1",
    "running": true,
    "lat": 34.459,
    "lon": 135.479694,
    "route": "国分峠東→栂・美木多駅→堺東駅前",
    "stop": "山戸",
    "passTime": "16:17",
    "vehicleType": "南海バス(車椅子・ベビーカー・ノンステップ)",
    "updateTime": "2026/07/22 20:43"
  },
  {
    "vehicleNum": "092872",
    "vehicleCd": "500",
    "vehicleCorpCd": "1",
    "running": true,
    "lat": 34.443278,
    "lon": 135.445583,
    "route": "テクノステージセンター前→府立産技研前→和泉中央駅",
    "stop": "ららぽーと和泉前",
    "passTime": "20:38",
    "vehicleType": "南海バス(車椅子・ベビーカー・ノンステップ)",
    "updateTime": "2026/07/22 20:43"
  },
  {
    "vehicleNum": "092917",
    "vehicleCd": "40",
    "vehicleCorpCd": "1",
    "running": true,
    "lat": 34.398,
    "lon": 135.5255,
    "route": "河内長野駅前→滝畑ダム",
    "stop": "滝畑ダムサイト",
    "passTime": "20:38",
    "vehicleType": "南海バス(車椅子・ベビーカー・ノンステップ)",
    "updateTime": "2026/07/22 20:43"
  },
  {
    "vehicleNum": "092936",
    "vehicleCd": "322",
    "vehicleCorpCd": "1",
    "running": true,
    "lat": 34.424889,
    "lon": 135.225389,
    "route": "給油地区→直行→空港駅",
    "stop": "浄化センター前",
    "passTime": "20:42",
    "vehicleType": "南海バス(車椅子・ベビーカー・ノンステップ)",
    "updateTime": "2026/07/22 20:43"
  },
  {
    "vehicleNum": "092918",
    "vehicleCd": "114",
    "vehicleCorpCd": "1",
    "running": true,
    "lat": 34.469,
    "lon": 135.459472,
    "route": "光明池駅→光明池車庫→和泉中央駅→泉大津駅前",
    "stop": "池田下",
    "passTime": "20:42",
    "vehicleType": "南海バス(車椅子・ベビーカー・ノンステップ)",
    "updateTime": "2026/07/22 20:43"
  },
  {
    "vehicleNum": "092937",
    "vehicleCd": "73",
    "vehicleCorpCd": "1",
    "running": true,
    "lat": 34.524278,
    "lon": 135.462278,
    "route": "光明池駅→山田→堺東駅前",
    "stop": "上",
    "passTime": "20:42",
    "vehicleType": "南海バス(車椅子・ベビーカー・ノンステップ)",
    "updateTime": "2026/07/22 20:43"
  },
  {
    "vehicleNum": "092952",
    "vehicleCd": "113",
    "vehicleCorpCd": "1",
    "running": true,
    "lat": 34.445889,
    "lon": 135.461972,
    "route": "和泉中央駅→はつが野六丁目→和泉中央駅",
    "stop": "はつが野二丁目",
    "passTime": "20:42",
    "vehicleType": "南海バス(車椅子・ベビーカー・ノンステップ)",
    "updateTime": "2026/07/22 20:43"
  },
  {
    "vehicleNum": "092974",
    "vehicleCd": "260",
    "vehicleCorpCd": "1",
    "running": true,
    "lat": 34.505472,
    "lon": 135.453083,
    "route": "北信太駅筋→鶴山台団地→北信太駅筋",
    "stop": "信太中学校前",
    "passTime": "20:41",
    "vehicleType": "南海バス(車椅子・ベビーカー・ノンステップ)",
    "updateTime": "2026/07/22 20:43"
  },
  {
    "vehicleNum": "092975",
    "vehicleCd": "115",
    "vehicleCorpCd": "1",
    "running": true,
    "lat": 34.483278,
    "lon": 135.424278,
    "route": "泉大津駅前→和泉府中駅前→和泉中央駅",
    "stop": "和泉市役所前",
    "passTime": "20:42",
    "vehicleType": "南海バス(車椅子・ベビーカー・ノンステップ)",
    "updateTime": "2026/07/22 20:43"
  },
  {
    "vehicleNum": "092977",
    "vehicleCd": "608",
    "vehicleCorpCd": "1",
    "running": true,
    "lat": 34.480278,
    "lon": 135.43,
    "route": "ららぽーと和泉前→和泉中央駅→和泉府中駅前",
    "stop": "和泉市立総合医療センター前",
    "passTime": "20:41",
    "vehicleType": "南海バス(車椅子・ベビーカー・ノンステップ)",
    "updateTime": "2026/07/22 20:43"
  },
  {
    "vehicleNum": "092978",
    "vehicleCd": "325",
    "vehicleCorpCd": "1",
    "running": true,
    "lat": 34.457083,
    "lon": 135.448389,
    "route": "泉大津駅前→和泉府中駅前→和泉中央駅",
    "stop": "唐国",
    "passTime": "20:40",
    "vehicleType": "南海バス(車椅子・ベビーカー・ノンステップ)",
    "updateTime": "2026/07/22 20:43"
  },
  {
    "vehicleNum": "093003",
    "vehicleCd": "111",
    "vehicleCorpCd": "1",
    "running": true,
    "lat": 34.453278,
    "lon": 135.460194,
    "route": "和泉中央駅→のぞみ野南→美術館",
    "stop": "のぞみ野中央",
    "passTime": "20:42",
    "vehicleType": "南海バス(車椅子・ベビーカー・ノンステップ)",
    "updateTime": "2026/07/22 20:43"
  },
  {
    "vehicleNum": "093032",
    "vehicleCd": "231",
    "vehicleCorpCd": "1",
    "running": true,
    "lat": 34.431278,
    "lon": 135.233194,
    "route": "エアロプラザ→第２ターミナル(国内線・国際線)→エアロプラザ",
    "stop": "エアロプラザ",
    "passTime": "20:40",
    "vehicleType": "南海バス",
    "updateTime": "2026/07/22 20:43"
  },
  {
    "vehicleNum": "093054",
    "vehicleCd": "396",
    "vehicleCorpCd": "1",
    "running": true,
    "lat": 34.552194,
    "lon": 135.465194,
    "route": "堺東駅前→鳳駅前→光明池駅",
    "stop": "神石橋",
    "passTime": "20:42",
    "vehicleType": "南海バス(車椅子・ベビーカー・ノンステップ)",
    "updateTime": "2026/07/22 20:43"
  },
  {
    "vehicleNum": "093071",
    "vehicleCd": "274",
    "vehicleCorpCd": "1",
    "running": true,
    "lat": 34.459694,
    "lon": 135.459,
    "route": "美術館前→のぞみ野南→和泉中央駅",
    "stop": "万町弘法寺前",
    "passTime": "20:41",
    "vehicleType": "南海バス(車椅子・ベビーカー・ノンステップ)",
    "updateTime": "2026/07/22 20:43"
  }
]