[
  {
    "vehicleNum": "070107",
    "vehicleCd": "405",
    "vehicleCorpCd": "1",
    "running": true,
    "lat": 34.497583,
    "lon": 135.543694,
    "route": "泉ヶ丘駅→狭山ニュータウンセンター→金剛駅前",
    "stop": "狭山西小学校前",
    "passTime": "13:44",
    "vehicleType": "泉北コミュニティバス(車椅子・ベビーカー・ノンステップ)",
    "updateTime": "2026/07/21 13:45"
  },
  {
    "vehicleNum": "070103",
    "vehicleCd": "425",
    "vehicleCorpCd": "1",
    "running": true,
    "lat": 34.485194,
    "lon": 135.530778,
    "route": "金剛駅前→狭山ニュータウンセンター→泉ヶ丘駅",
    "stop": "槙塚台３丁",
    "passTime": "13:44",
    "vehicleType": "泉北コミュニティバス(車椅子・ベビーカー・ノンステップ)",
    "updateTime": "2026/07/21 13:45"
  },
  {
    "vehicleNum": "070104",
    "vehicleCd": "402",
    "vehicleCorpCd": "1",
    "running": true,
    "lat": 34.480278,
    "lon": 135.541,
    "route": "泉ヶ丘駅→狭山ニュータウンセンター→金剛駅前",
    "stop": "大野台五丁目",
    "passTime": "13:44",
    "vehicleType": "泉北コミュニティバス(車椅子・ベビーカー・ノンステップ)",
    "updateTime": "2026/07/21 13:45"
  },
  {
    "vehicleNum": "070189",
    "vehicleCd": "67",
    "vehicleCorpCd": "1",
    "running": true,
    "lat": 34.577778,
    "lon": 135.497389,
    "route": "河内松原駅前→阪和堺市駅前→堺東駅前",
    "stop": "阪和堺市駅筋",
    "passTime": "13:39",
    "vehicleType": "南海バス(車椅子・ベビーカー・ワンステップ)",
    "updateTime": "2026/07/21 13:45"
  },
  {
    "vehicleNum": "071601",
    "vehicleCd": "408",
    "vehicleCorpCd": "1",
    "running": true,
    "lat": 34.578583,
    "lon": 135.474694,
    "route": "堺駅前→大小路→堺東駅前",
    "stop": "大小路",
    "passTime": "13:44",
    "vehicleType": "堺シャトル(車椅子・ベビーカー・ノンステップ)",
    "updateTime": "2026/07/21 13:45"
  },
  {
    "vehicleNum": "080088",
    "vehicleCd": "442",
    "vehicleCorpCd": "1",
    "running": true,
    "lat": 34.495083,
    "lon": 135.5585,
    "route": "金剛駅前→泉ヶ丘駅→近大キャンパス前→金剛駅前",
    "stop": "金剛駅前（西側）",
    "passTime": "13:45",
    "vehicleType": "南海バス(車椅子・ベビーカー・ワンステップ)",
    "updateTime": "2026/07/21 13:45"
  },
  {
    "vehicleNum": "071607",
    "vehicleCd": "414",
    "vehicleCorpCd": "1",
    "running": true,
    "lat": 34.5785,
    "lon": 135.474583,
    "route": "堺東駅前→大小路→堺駅前",
    "stop": "大小路",
    "passTime": "13:44",
    "vehicleType": "堺シャトル(車椅子・ベビーカー・ノンステップ)",
    "updateTime": "2026/07/21 13:45"
  },
  {
    "vehicleNum": "080146",
    "vehicleCd": "6",
    "vehicleCorpCd": "2",
    "running": true,
    "lat": 34.403889,
    "lon": 135.359778,
    "route": "熊取駅前→熊取ニュータウン(フリー乗降)",
    "stop": "希望が丘中",
    "passTime": "13:44",
    "vehicleType": "南海ウイングバス(車椅子・ワンステップ)",
    "updateTime": "2026/07/21 13:45"
  },
  {
    "vehicleNum": "080171",
    "vehicleCd": "40",
    "vehicleCorpCd": "2",
    "running": true,
    "lat": 34.446778,
    "lon": 135.385583,
    "route": "岸和田駅前→天神山・一の宮循環　左回り→岸和田駅前",
    "stop": "土生",
    "passTime": "13:42",
    "vehicleType": "南海ウイングバス(車椅子・ベビーカー・ワンステップ)",
    "updateTime": "2026/07/21 13:45"
  },
  {
    "vehicleNum": "080178",
    "vehicleCd": "56",
    "vehicleCorpCd": "2",
    "running": true,
    "lat": 34.4565,
    "lon": 135.448278,
    "route": "和泉中央駅→徳洲会病院→岸和田駅前",
    "stop": "唐国南",
    "passTime": "13:43",
    "vehicleType": "南海ウイングバス(車椅子・ベビーカー・ワンステップ)",
    "updateTime": "2026/07/21 13:45"
  },
  {
    "vehicleNum": "080179",
    "vehicleCd": "66",
    "vehicleCorpCd": "2",
    "running": true,
    "lat": 34.411472,
    "lon": 135.330083,
    "route": "泉佐野駅前→泉陽ヶ丘→熊取駅前→山の手台→小谷→熊取駅前→泉陽ヶ丘→泉佐野駅前",
    "stop": "泉佐野市役所前",
    "passTime": "13:44",
    "vehicleType": "南海ウイングバス(車椅子・ワンステップ)",
    "updateTime": "2026/07/21 13:45"
  },
  {
    "vehicleNum": "080187",
    "vehicleCd": "66",
    "vehicleCorpCd": "1",
    "running": true,
    "lat": 34.5755,
    "lon": 135.471278,
    "route": "堺駅南口→堺駅前",
    "stop": "宿院",
    "passTime": "13:44",
    "vehicleType": "南海バス(車椅子・ベビーカー・ノンステップ)",
    "updateTime": "2026/07/21 13:45"
  },
  {
    "vehicleNum": "080319",
    "vehicleCd": "84",
    "vehicleCorpCd": "1",
    "running": true,
    "lat": 34.599278,
    "lon": 135.468889,
    "route": "匠町→住之江公園駅前→匠町",
    "stop": "松屋大和川通３丁",
    "passTime": "13:45",
    "vehicleType": "南海バス(車椅子・ベビーカー・ワンステップ)",
    "updateTime": "2026/07/21 13:45"
  },
  {
    "vehicleNum": "080412",
    "vehicleCd": "115",
    "vehicleCorpCd": "2",
    "running": true,
    "lat": 34.408,
    "lon": 135.325194,
    "route": "つばさが丘北口→大阪体育大学前→熊取駅前→ダンバラ公園前→泉佐野駅前",
    "stop": "泉佐野市役所前",
    "passTime": "13:43",
    "vehicleType": "南海ウイングバス(車椅子・ベビーカー・ノンステップ)",
    "updateTime": "2026/07/21 13:45"
  },
  {
    "vehicleNum": "080627",
    "vehicleCd": "446",
    "vehicleCorpCd": "1",
    "running": true,
    "lat": 34.538389,
    "lon": 135.542472,
    "route": "北野田駅前→多治井北（循環）→北野田駅前",
    "stop": "余部西口",
    "passTime": "13:44",
    "vehicleType": "南海バス(車椅子・ベビーカー・ノンステップ)",
    "updateTime": "2026/07/21 13:45"
  },
  {
    "vehicleNum": "080628",
    "vehicleCd": "445",
    "vehicleCorpCd": "1",
    "running": true,
    "lat": 34.529778,
    "lon": 135.547889,
    "route": "地下鉄新金岡駅前→野遠→北野田駅前",
    "stop": "北野田北口",
    "passTime": "13:44",
    "vehicleType": "南海バス(車椅子・ベビーカー・ノンステップ)",
    "updateTime": "2026/07/21 13:45"
  },
  {
    "vehicleNum": "080629",
    "vehicleCd": "447",
    "vehicleCorpCd": "1",
    "running": true,
    "lat": 34.552389,
    "lon": 135.541889,
    "route": "美原区役所→初芝駅前→美原区役所",
    "stop": "石原",
    "passTime": "13:45",
    "vehicleType": "南海バス(車椅子・ベビーカー・ノンステップ)",
    "updateTime": "2026/07/21 13:45"
  },
  {
    "vehicleNum": "080652",
    "vehicleCd": "456",
    "vehicleCorpCd": "1",
    "running": true,
    "lat": 34.543778,
    "lon": 135.548472,
    "route": "地下鉄新金岡駅前→野遠→美原区役所",
    "stop": "大饗",
    "passTime": "13:44",
    "vehicleType": "南海バス",
    "updateTime": "2026/07/21 13:45"
  },
  {
    "vehicleNum": "080671",
    "vehicleCd": "465",
    "vehicleCorpCd": "1",
    "running": true,
    "lat": 34.599278,
    "lon": 135.468889,
    "route": "匠町→住之江公園駅前→匠町",
    "stop": "松屋大和川通３丁",
    "passTime": "13:45",
    "vehicleType": "南海バス(車椅子・ベビーカー・ノンステップ)",
    "updateTime": "2026/07/21 13:45"
  },
  {
    "vehicleNum": "080706",
    "vehicleCd": "543",
    "vehicleCorpCd": "1",
    "running": true,
    "lat": 34.607083,
    "lon": 135.473083,
    "route": "堺東→住之江公園→堺東",
    "stop": "住之江公園駅前",
    "passTime": "13:43",
    "vehicleType": "南海バス(車椅子・ベビーカー・ノンステップ)",
    "updateTime": "2026/07/21 13:45"
  },
  {
    "vehicleNum": "080710",
    "vehicleCd": "18",
    "vehicleCorpCd": "2",
    "running": true,
    "lat": 34.404083,
    "lon": 135.345278,
    "route": "熊取ニュータウン→熊取駅前→上瓦屋町→泉佐野駅前（フリー乗降）",
    "stop": "青年会場前",
    "passTime": "13:44",
    "vehicleType": "南海ウイングバス(車椅子・ベビーカー・ノンステップ)",
    "updateTime": "2026/07/21 13:45"
  },
  {
    "vehicleNum": "080734",
    "vehicleCd": "415",
    "vehicleCorpCd": "1",
    "running": true,
    "lat": 34.543972,
    "lon": 135.556194,
    "route": "美原区役所→初芝駅前→美原区役所",
    "stop": "美原区役所前",
    "passTime": "13:40",
    "vehicleType": "南海バス",
    "updateTime": "2026/07/21 13:45"
  },
  {
    "vehicleNum": "080744",
    "vehicleCd": "550",
    "vehicleCorpCd": "1",
    "running": true,
    "lat": 34.512694,
    "lon": 135.494889,
    "route": "泉ヶ丘駅→八田荘団地→堺市立総合医療センター前→津久野駅前",
    "stop": "伏尾",
    "passTime": "13:43",
    "vehicleType": "南海バス(車椅子・ベビーカー・ノンステップ)",
    "updateTime": "2026/07/21 13:45"
  },
  {
    "vehicleNum": "080751",
    "vehicleCd": "551",
    "vehicleCorpCd": "1",
    "running": true,
    "lat": 34.565694,
    "lon": 135.492889,
    "route": "堺東駅前→労災病院前→白鷺駅前（循環）",
    "stop": "向陵中町",
    "passTime": "13:41",
    "vehicleType": "南海バス(車椅子・ベビーカー・ノンステップ)",
    "updateTime": "2026/07/21 13:45"
  },
  {
    "vehicleNum": "080753",
    "vehicleCd": "552",
    "vehicleCorpCd": "1",
    "running": true,
    "lat": 34.493889,
    "lon": 135.531278,
    "route": "泉ヶ丘駅→晴美台右回り→泉ヶ丘駅",
    "stop": "高倉台４丁",
    "passTime": "13:41",
    "vehicleType": "南海バス(車椅子・ベビーカー・ノンステップ)",
    "updateTime": "2026/07/21 13:45"
  },
  {
    "vehicleNum": "080754",
    "vehicleCd": "428",
    "vehicleCorpCd": "1",
    "running": true,
    "lat": 34.485194,
    "lon": 135.530778,
    "route": "はるみ小学校前→帝塚山学院泉ヶ丘校前→泉ヶ丘駅",
    "stop": "帝塚山学院泉ケ丘校前",
    "passTime": "13:43",
    "vehicleType": "南海バス(車椅子・ベビーカー・ノンステップ)",
    "updateTime": "2026/07/21 13:45"
  },
  {
    "vehicleNum": "080760",
    "vehicleCd": "559",
    "vehicleCorpCd": "1",
    "running": true,
    "lat": 34.545694,
    "lon": 135.524278,
    "route": "中もず駅前→初芝駅前→船戸下→美原区役所前",
    "stop": "引野",
    "passTime": "13:43",
    "vehicleType": "南海バス(車椅子・ベビーカー・ノンステップ)",
    "updateTime": "2026/07/21 13:45"
  },
  {
    "vehicleNum": "080761",
    "vehicleCd": "560",
    "vehicleCorpCd": "1",
    "running": true,
    "lat": 34.547083,
    "lon": 135.522583,
    "route": "美原区役所前→船戸下→初芝駅前→中もず駅前",
    "stop": "引野",
    "passTime": "13:44",
    "vehicleType": "南海バス(車椅子・ベビーカー・ノンステップ)",
    "updateTime": "2026/07/21 13:45"
  },
  {
    "vehicleNum": "080762",
    "vehicleCd": "561",
    "vehicleCorpCd": "1",
    "running": true,
    "lat": 34.583,
    "lon": 135.515194,
    "route": "地下鉄北花田駅前→蔵前西→ＪＲ堺市駅前→地下鉄北花田駅前",
    "stop": "地下鉄北花田駅前",
    "passTime": "13:45",
    "vehicleType": "南海バス(車椅子・ベビーカー・ノンステップ)",
    "updateTime": "2026/07/21 13:45"
  },
  {
    "vehicleNum": "080764",
    "vehicleCd": "563",
    "vehicleCorpCd": "1",
    "running": true,
    "lat": 34.536694,
    "lon": 135.547,
    "route": "初芝駅前→平尾→初芝駅前",
    "stop": "北余部",
    "passTime": "13:45",
    "vehicleType": "南海バス(車椅子・ベビーカー・ノンステップ)",
    "updateTime": "2026/07/21 13:45"
  },
  {
    "vehicleNum": "080765",
    "vehicleCd": "564",
    "vehicleCorpCd": "1",
    "running": true,
    "lat": 34.505694,
    "lon": 135.513778,
    "route": "泉ヶ丘駅→田園→深井駅",
    "stop": "三原台北",
    "passTime": "13:43",
    "vehicleType": "南海バス(車椅子・ベビーカー・ノンステップ)",
    "updateTime": "2026/07/21 13:45"
  },
  {
    "vehicleNum": "080767",
    "vehicleCd": "566",
    "vehicleCorpCd": "1",
    "running": true,
    "lat": 34.522694,
    "lon": 135.542889,
    "route": "北野田駅前→福町→深井駅",
    "stop": "北野田駅前",
    "passTime": "13:45",
    "vehicleType": "南海バス(車椅子・ベビーカー・ノンステップ)",
    "updateTime": "2026/07/21 13:45"
  },
  {
    "vehicleNum": "080787",
    "vehicleCd": "301",
    "vehicleCorpCd": "1",
    "running": true,
    "lat": 34.566278,
    "lon": 135.5015,
    "route": "堺駅南口→近畿中央呼吸器センター前→労災病院前→地下鉄新金岡駅前",
    "stop": "黒土口",
    "passTime": "13:44",
    "vehicleType": "南海バス(車椅子・ベビーカー・ノンステップ)",
    "updateTime": "2026/07/21 13:45"
  },
  {
    "vehicleNum": "080791",
    "vehicleCd": "61",
    "vehicleCorpCd": "1",
    "running": true,
    "lat": 34.568083,
    "lon": 135.485194,
    "route": "地下鉄新金岡駅前→労災病院前→近畿中央呼吸器センター前→堺駅南口",
    "stop": "永山園",
    "passTime": "13:44",
    "vehicleType": "南海バス(車椅子・ベビーカー・ノンステップ)",
    "updateTime": "2026/07/21 13:45"
  },
  {
    "vehicleNum": "080796",
    "vehicleCd": "108",
    "vehicleCorpCd": "1",
    "running": true,
    "lat": 34.559278,
    "lon": 135.519389,
    "route": "堺東駅前→労災病院前→白鷺駅前（循環）",
    "stop": "金岡神社前",
    "passTime": "13:44",
    "vehicleType": "南海バス(車椅子・ベビーカー・ノンステップ)",
    "updateTime": "2026/07/21 13:45"
  },
  {
    "vehicleNum": "080795",
    "vehicleCd": "43",
    "vehicleCorpCd": "1",
    "running": true,
    "lat": 34.563889,
    "lon": 135.463889,
    "route": "堺駅南口→堺駅前",
    "stop": "高砂町",
    "passTime": "13:42",
    "vehicleType": "南海バス(車椅子・ベビーカー・ノンステップ)",
    "updateTime": "2026/07/21 13:45"
  },
  {
    "vehicleNum": "080798",
    "vehicleCd": "107",
    "vehicleCorpCd": "1",
    "running": true,
    "lat": 34.576194,
    "lon": 135.471,
    "route": "河内松原駅前→阪和堺市駅前→堺駅前",
    "stop": "宿院",
    "passTime": "13:44",
    "vehicleType": "南海バス(車椅子・ベビーカー・ノンステップ)",
    "updateTime": "2026/07/21 13:45"
  },
  {
    "vehicleNum": "080799",
    "vehicleCd": "339",
    "vehicleCorpCd": "1",
    "running": true,
    "lat": 34.574889,
    "lon": 135.540278,
    "route": "堺東駅前→河内松原駅前",
    "stop": "布忍駅筋",
    "passTime": "13:44",
    "vehicleType": "南海バス(車椅子・ベビーカー・ノンステップ)",
    "updateTime": "2026/07/21 13:45"
  },
  {
    "vehicleNum": "080800",
    "vehicleCd": "304",
    "vehicleCorpCd": "1",
    "running": true,
    "lat": 34.5735,
    "lon": 135.476472,
    "route": "堺駅前→堺駅南口",
    "stop": "堺東駅前",
    "passTime": "13:40",
    "vehicleType": "南海バス(車椅子・ベビーカー・ノンステップ)",
    "updateTime": "2026/07/21 13:45"
  },
  {
    "vehicleNum": "080822",
    "vehicleCd": "576",
    "vehicleCorpCd": "1",
    "running": true,
    "lat": 34.564083,
    "lon": 135.476694,
    "route": "あみだ池→深井駅→もず駅前→堺東駅前",
    "stop": "大仙中町",
    "passTime": "13:44",
    "vehicleType": "南海バス(車椅子・ベビーカー・ノンステップ)",
    "updateTime": "2026/07/21 13:45"
  },
  {
    "vehicleNum": "080813",
    "vehicleCd": "269",
    "vehicleCorpCd": "1",
    "running": true,
    "lat": 34.578583,
    "lon": 135.468194,
    "route": "堺駅前→堺東駅前→河内松原駅前",
    "stop": "堺駅前",
    "passTime": "13:43",
    "vehicleType": "南海バス(車椅子・ベビーカー・ノンステップ)",
    "updateTime": "2026/07/21 13:45"
  },
  {
    "vehicleNum": "080826",
    "vehicleCd": "152",
    "vehicleCorpCd": "1",
    "running": true,
    "lat": 34.570778,
    "lon": 135.480278,
    "route": "北野田駅前→福町→堺駅南口",
    "stop": "一条通",
    "passTime": "13:44",
    "vehicleType": "南海バス(車椅子・ベビーカー・ノンステップ)",
    "updateTime": "2026/07/21 13:45"
  },
  {
    "vehicleNum": "080836",
    "vehicleCd": "268",
    "vehicleCorpCd": "1",
    "running": true,
    "lat": 34.576889,
    "lon": 135.497,
    "route": "堺駅前→堺東駅前→河内松原駅前",
    "stop": "田出井町",
    "passTime": "13:43",
    "vehicleType": "南海バス(車椅子・ベビーカー・ノンステップ)",
    "updateTime": "2026/07/21 13:45"
  },
  {
    "vehicleNum": "080837",
    "vehicleCd": "351",
    "vehicleCorpCd": "1",
    "running": true,
    "lat": 34.549389,
    "lon": 135.479694,
    "route": "東山車庫前→小阪→堺東駅前",
    "stop": "上野芝駅前",
    "passTime": "13:42",
    "vehicleType": "南海バス(車椅子・ベビーカー・ノンステップ)",
    "updateTime": "2026/07/21 13:45"
  },
  {
    "vehicleNum": "080844",
    "vehicleCd": "581",
    "vehicleCorpCd": "1",
    "running": true,
    "lat": 34.489778,
    "lon": 135.542389,
    "route": "金剛駅前→狭山ニュータウンセンター→泉ヶ丘駅",
    "stop": "西山台北",
    "passTime": "13:44",
    "vehicleType": "南海バス(車椅子・ベビーカー・ノンステップ)",
    "updateTime": "2026/07/21 13:45"
  },
  {
    "vehicleNum": "080854",
    "vehicleCd": "17",
    "vehicleCorpCd": "1",
    "running": true,
    "lat": 34.574583,
    "lon": 135.4995,
    "route": "堺駅南口→近畿中央呼吸器センター前→労災病院前→阪和堺市駅前",
    "stop": "阪和堺市駅筋",
    "passTime": "13:45",
    "vehicleType": "南海バス(車椅子・ベビーカー・ノンステップ)",
    "updateTime": "2026/07/21 13:45"
  },
  {
    "vehicleNum": "080857",
    "vehicleCd": "226",
    "vehicleCorpCd": "1",
    "running": true,
    "lat": 34.574694,
    "lon": 135.484194,
    "route": "堺東駅前→錦綾町→堺駅西口",
    "stop": "堺東駅前",
    "passTime": "13:45",
    "vehicleType": "南海バス(車椅子・ベビーカー・ノンステップ)",
    "updateTime": "2026/07/21 13:45"
  },
  {
    "vehicleNum": "080863",
    "vehicleCd": "249",
    "vehicleCorpCd": "1",
    "running": true,
    "lat": 34.599278,
    "lon": 135.428389,
    "route": "海浜匠町→匠町→堺駅西口→堺東駅前→阪和堺市駅前",
    "stop": "海浜匠町",
    "passTime": "13:45",
    "vehicleType": "南海バス(車椅子・ベビーカー・ノンステップ)",
    "updateTime": "2026/07/21 13:45"
  },
  {
    "vehicleNum": "080869",
    "vehicleCd": "316",
    "vehicleCorpCd": "1",
    "running": true,
    "lat": 34.490278,
    "lon": 135.499083,
    "route": "泉ヶ丘駅→鉢ヶ峯→泉ヶ丘駅",
    "stop": "栂",
    "passTime": "13:43",
    "vehicleType": "南海バス(車椅子・ベビーカー・ノンステップ)",
    "updateTime": "2026/07/21 13:45"
  },
  {
    "vehicleNum": "080873",
    "vehicleCd": "144",
    "vehicleCorpCd": "1",
    "running": true,
    "lat": 34.464278,
    "lon": 135.502083,
    "route": "泉ヶ丘駅→御池台回り→泉ヶ丘駅",
    "stop": "御池台センター",
    "passTime": "13:45",
    "vehicleType": "南海バス(車椅子・ベビーカー・ノンステップ)",
    "updateTime": "2026/07/21 13:45"
  },
  {
    "vehicleNum": "080877",
    "vehicleCd": "588",
    "vehicleCorpCd": "1",
    "running": true,
    "lat": 34.522083,
    "lon": 135.528778,
    "route": "堺駅南口→福町→北野田駅前",
    "stop": "福町",
    "passTime": "13:45",
    "vehicleType": "南海バス(車椅子・ベビーカー・ノンステップ)",
    "updateTime": "2026/07/21 13:45"
  },
  {
    "vehicleNum": "080879",
    "vehicleCd": "359",
    "vehicleCorpCd": "1",
    "running": true,
    "lat": 34.530778,
    "lon": 135.452472,
    "route": "堺東駅前→鳳西町南",
    "stop": "鳳西町北",
    "passTime": "13:45",
    "vehicleType": "南海バス(車椅子・ベビーカー・ノンステップ)",
    "updateTime": "2026/07/21 13:45"
  },
  {
    "vehicleNum": "080880",
    "vehicleCd": "360",
    "vehicleCorpCd": "1",
    "running": true,
    "lat": 34.563472,
    "lon": 135.440194,
    "route": "石津川駅前→臨港７区→臨港６区→石津川駅前",
    "stop": "築港新町３丁",
    "passTime": "13:44",
    "vehicleType": "南海バス(車椅子・ベビーカー・ノンステップ)",
    "updateTime": "2026/07/21 13:45"
  },
  {
    "vehicleNum": "080884",
    "vehicleCd": "116",
    "vehicleCorpCd": "1",
    "running": true,
    "lat": 34.538583,
    "lon": 135.470694,
    "route": "泉ヶ丘駅→泉北２号線→堺市立総合医療センター前→津久野駅前",
    "stop": "平岡西口",
    "passTime": "13:43",
    "vehicleType": "南海バス(車椅子・ベビーカー・ノンステップ)",
    "updateTime": "2026/07/21 13:45"
  },
  {
    "vehicleNum": "080895",
    "vehicleCd": "167",
    "vehicleCorpCd": "1",
    "running": true,
    "lat": 34.544278,
    "lon": 135.544,
    "route": "美原区役所→野遠→地下鉄新金岡駅前",
    "stop": "太井",
    "passTime": "13:42",
    "vehicleType": "南海バス(車椅子・ベビーカー・ノンステップ)",
    "updateTime": "2026/07/21 13:45"
  },
  {
    "vehicleNum": "080904",
    "vehicleCd": "362",
    "vehicleCorpCd": "1",
    "running": true,
    "lat": 34.533,
    "lon": 135.461694,
    "route": "堺市立総合医療センター前→鳳駅前→石津川駅前",
    "stop": "西区役所前",
    "passTime": "13:43",
    "vehicleType": "南海バス(車椅子・ベビーカー・ノンステップ)",
    "updateTime": "2026/07/21 13:45"
  },
  {
    "vehicleNum": "080905",
    "vehicleCd": "353",
    "vehicleCorpCd": "1",
    "running": true,
    "lat": 34.507278,
    "lon": 135.4895,
    "route": "津久野駅前→堺市立総合医療センター前→泉北２号線→泉ヶ丘駅",
    "stop": "小代常念寺前",
    "passTime": "13:44",
    "vehicleType": "南海バス(車椅子・ベビーカー・ノンステップ)",
    "updateTime": "2026/07/21 13:45"
  },
  {
    "vehicleNum": "080911",
    "vehicleCd": "240",
    "vehicleCorpCd": "1",
    "running": true,
    "lat": 34.569278,
    "lon": 135.515583,
    "route": "阪和堺市駅前→労災病院前→近畿中央呼吸器センター前→堺駅南口",
    "stop": "郵便局前（堺市）",
    "passTime": "13:44",
    "vehicleType": "南海バス(車椅子・ベビーカー・ノンステップ)",
    "updateTime": "2026/07/21 13:45"
  },
  {
    "vehicleNum": "080912",
    "vehicleCd": "372",
    "vehicleCorpCd": "1",
    "running": true,
    "lat": 34.584278,
    "lon": 135.499583,
    "route": "堺東駅前→錦綾町→河内天美駅前",
    "stop": "愛泉学園前",
    "passTime": "13:44",
    "vehicleType": "南海バス(車椅子・ベビーカー・ノンステップ)",
    "updateTime": "2026/07/21 13:45"
  },
  {
    "vehicleNum": "080913",
    "vehicleCd": "128",
    "vehicleCorpCd": "1",
    "running": true,
    "lat": 34.580194,
    "lon": 135.465083,
    "route": "堺駅前→堺駅南口",
    "stop": "堺駅南口",
    "passTime": "13:43",
    "vehicleType": "南海バス(車椅子・ベビーカー・ノンステップ)",
    "updateTime": "2026/07/21 13:45"
  },
  {
    "vehicleNum": "080927",
    "vehicleCd": "79",
    "vehicleCorpCd": "1",
    "running": true,
    "lat": 34.496278,
    "lon": 135.5095,
    "route": "泉ヶ丘駅→庭代台右回り→泉ヶ丘駅",
    "stop": "栂・美木多駅",
    "passTime": "13:40",
    "vehicleType": "南海バス(車椅子・ベビーカー・ノンステップ)",
    "updateTime": "2026/07/21 13:45"
  },
  {
    "vehicleNum": "080935",
    "vehicleCd": "593",
    "vehicleCorpCd": "1",
    "running": true,
    "lat": 34.574889,
    "lon": 135.542278,
    "route": "河内松原駅前→阪和堺市駅前→堺駅前",
    "stop": "高見の里駅前",
    "passTime": "13:43",
    "vehicleType": "南海バス(車椅子・ベビーカー・ノンステップ)",
    "updateTime": "2026/07/21 13:45"
  },
  {
    "vehicleNum": "080937",
    "vehicleCd": "595",
    "vehicleCorpCd": "1",
    "running": true,
    "lat": 34.5645,
    "lon": 135.4925,
    "route": "堺駅南口→三国ヶ丘駅前→北野田駅前",
    "stop": "三国ヶ丘駅前",
    "passTime": "13:44",
    "vehicleType": "南海バス(車椅子・ベビーカー・ノンステップ)",
    "updateTime": "2026/07/21 13:45"
  },
  {
    "vehicleNum": "080950",
    "vehicleCd": "513",
    "vehicleCorpCd": "1",
    "running": true,
    "lat": 34.583278,
    "lon": 135.515083,
    "route": "河内松原駅前→蔵前町→イオンモール堺北花田",
    "stop": "新堀町",
    "passTime": "13:41",
    "vehicleType": "南海バス(車椅子・ベビーカー・ノンステップ)",
    "updateTime": "2026/07/21 13:45"
  },
  {
    "vehicleNum": "080948",
    "vehicleCd": "276",
    "vehicleCorpCd": "1",
    "running": true,
    "lat": 34.584583,
    "lon": 135.496889,
    "route": "河内天美駅前→天美我堂→堺東駅前",
    "stop": "愛泉学園前",
    "passTime": "13:45",
    "vehicleType": "南海バス(車椅子・ベビーカー・ノンステップ)",
    "updateTime": "2026/07/21 13:45"
  },
  {
    "vehicleNum": "080994",
    "vehicleCd": "130",
    "vehicleCorpCd": "1",
    "running": true,
    "lat": 34.4975,
    "lon": 135.518,
    "route": "泉ヶ丘駅→スマ・エコタウン晴美台→高倉台左回り→泉ヶ丘駅",
    "stop": "三原台１丁",
    "passTime": "13:44",
    "vehicleType": "南海バス(車椅子・ベビーカー・ノンステップ)",
    "updateTime": "2026/07/21 13:45"
  },
  {
    "vehicleNum": "081001",
    "vehicleCd": "238",
    "vehicleCorpCd": "1",
    "running": true,
    "lat": 34.537389,
    "lon": 135.515778,
    "route": "北野田駅前→西口園→堺駅南口",
    "stop": "大野芝",
    "passTime": "13:45",
    "vehicleType": "南海バス(車椅子・ベビーカー・ノンステップ)",
    "updateTime": "2026/07/21 13:45"
  },
  {
    "vehicleNum": "081004",
    "vehicleCd": "271",
    "vehicleCorpCd": "1",
    "running": true,
    "lat": 34.500194,
    "lon": 135.499889,
    "route": "泉ヶ丘駅→宮山台中学校前→堺東駅前",
    "stop": "竹城台口",
    "passTime": "13:45",
    "vehicleType": "南海バス(車椅子・ベビーカー・ノンステップ)",
    "updateTime": "2026/07/21 13:45"
  },
  {
    "vehicleNum": "081007",
    "vehicleCd": "127",
    "vehicleCorpCd": "1",
    "running": true,
    "lat": 34.538194,
    "lon": 135.486889,
    "route": "堺東駅前→上野芝駅前→東山車庫前",
    "stop": "深井新町",
    "passTime": "13:44",
    "vehicleType": "南海バス(車椅子・ベビーカー・ノンステップ)",
    "updateTime": "2026/07/21 13:45"
  },
  {
    "vehicleNum": "081016",
    "vehicleCd": "239",
    "vehicleCorpCd": "1",
    "running": true,
    "lat": 34.498583,
    "lon": 135.554194,
    "route": "金剛駅前→帝塚山学院泉ヶ丘校前→泉ヶ丘駅前",
    "stop": "北村",
    "passTime": "13:44",
    "vehicleType": "南海バス(車椅子・ベビーカー・ノンステップ)",
    "updateTime": "2026/07/21 13:45"
  },
  {
    "vehicleNum": "081018",
    "vehicleCd": "263",
    "vehicleCorpCd": "1",
    "running": true,
    "lat": 34.509278,
    "lon": 135.513278,
    "route": "堺東駅前→もず駅前→深井駅→あみだ池",
    "stop": "田園東",
    "passTime": "13:44",
    "vehicleType": "南海バス(車椅子・ベビーカー・ノンステップ)",
    "updateTime": "2026/07/21 13:45"
  },
  {
    "vehicleNum": "081023",
    "vehicleCd": "264",
    "vehicleCorpCd": "1",
    "running": true,
    "lat": 34.546194,
    "lon": 135.473194,
    "route": "堺東駅前→堀上緑町１丁→堺東駅前",
    "stop": "津久野町",
    "passTime": "13:43",
    "vehicleType": "南海バス(車椅子・ベビーカー・ノンステップ)",
    "updateTime": "2026/07/21 13:45"
  },
  {
    "vehicleNum": "081035",
    "vehicleCd": "491",
    "vehicleCorpCd": "1",
    "running": true,
    "lat": 34.497583,
    "lon": 135.519583,
    "route": "泉ヶ丘駅→スマ・エコタウン晴美台→高倉台左回り→泉ヶ丘駅",
    "stop": "泉ヶ丘駅（南側）",
    "passTime": "13:43",
    "vehicleType": "南海バス(車椅子・ベビーカー・ノンステップ)",
    "updateTime": "2026/07/21 13:45"
  },
  {
    "vehicleNum": "090104",
    "vehicleCd": "53",
    "vehicleCorpCd": "2",
    "running": true,
    "lat": 34.456583,
    "lon": 135.397278,
    "route": "道の駅愛彩ランド→下松駅前",
    "stop": "桜ヶ丘",
    "passTime": "13:42",
    "vehicleType": "南海ウイングバス(車椅子・ベビーカー・ワンステップ)",
    "updateTime": "2026/07/21 13:45"
  },
  {
    "vehicleNum": "090144",
    "vehicleCd": "82",
    "vehicleCorpCd": "2",
    "running": true,
    "lat": 34.464,
    "lon": 135.377778,
    "route": "岸和田駅前→徳洲会病院→和泉中央駅",
    "stop": "沼町",
    "passTime": "13:42",
    "vehicleType": "南海ウイングバス(車椅子・ベビーカー・ワンステップ)",
    "updateTime": "2026/07/21 13:45"
  },
  {
    "vehicleNum": "090170",
    "vehicleCd": "117",
    "vehicleCorpCd": "2",
    "running": true,
    "lat": 34.417278,
    "lon": 135.440083,
    "route": "白原車庫→内畑→岸和田駅前",
    "stop": "沢峯",
    "passTime": "13:44",
    "vehicleType": "南海ウイングバス",
    "updateTime": "2026/07/21 13:45"
  },
  {
    "vehicleNum": "090176",
    "vehicleCd": "101",
    "vehicleCorpCd": "2",
    "running": true,
    "lat": 34.4045,
    "lon": 135.292278,
    "route": "イオンモール→ワシントンホテル→イオンモールりんくう泉南",
    "stop": "りんくう往来南３番",
    "passTime": "13:43",
    "vehicleType": "南海ウイングバス",
    "updateTime": "2026/07/21 13:45"
  },
  {
    "vehicleNum": "091146",
    "vehicleCd": "17",
    "vehicleCorpCd": "2",
    "running": true,
    "lat": 34.445778,
    "lon": 135.433583,
    "route": "和泉中央駅→包近→道の駅愛彩ランド",
    "stop": "包近",
    "passTime": "13:45",
    "vehicleType": "南海ウイングバス(車椅子・ベビーカー・ワンステップ)",
    "updateTime": "2026/07/21 13:45"
  },
  {
    "vehicleNum": "091243",
    "vehicleCd": "13",
    "vehicleCorpCd": "2",
    "running": true,
    "lat": 34.382889,
    "lon": 135.354278,
    "route": "泉佐野駅前→ダンバラ公園前→熊取駅前→大阪体育大学前→つばさが丘北口",
    "stop": "南小学校前",
    "passTime": "13:45",
    "vehicleType": "南海ウイングバス(車椅子・ワンステップ)",
    "updateTime": "2026/07/21 13:45"
  },
  {
    "vehicleNum": "091595",
    "vehicleCd": "199",
    "vehicleCorpCd": "1",
    "running": true,
    "lat": 34.437194,
    "lon": 135.231778,
    "route": "エアロプラザ→第２ターミナル(国内線・国際線)→エアロプラザ",
    "stop": "エアロプラザ",
    "passTime": "13:40",
    "vehicleType": "南海バス(車椅子・ノンステップ)",
    "updateTime": "2026/07/21 13:45"
  },
  {
    "vehicleNum": "091745",
    "vehicleCd": "103",
    "vehicleCorpCd": "2",
    "running": true,
    "lat": 34.460583,
    "lon": 135.415,
    "route": "岸和田駅前→内畑→牛滝温泉",
    "stop": "池尻",
    "passTime": "13:44",
    "vehicleType": "南海ウイングバス",
    "updateTime": "2026/07/21 13:45"
  },
  {
    "vehicleNum": "091750",
    "vehicleCd": "335",
    "vehicleCorpCd": "1",
    "running": true,
    "lat": 34.421194,
    "lon": 135.586778,
    "route": "美加の台駅前→美加の台口→美加の台駅前",
    "stop": "美加の台中",
    "passTime": "13:45",
    "vehicleType": "南海バス(車椅子・ベビーカー・ワンステップ)",
    "updateTime": "2026/07/21 13:45"
  },
  {
    "vehicleNum": "091784",
    "vehicleCd": "119",
    "vehicleCorpCd": "2",
    "running": true,
    "lat": 34.376278,
    "lon": 135.365694,
    "route": "熊取町　自然公園方面循環コース",
    "stop": "永楽ゆめの森公園前",
    "passTime": "13:44",
    "vehicleType": "熊取町コミュニティバス(ジャンプ君号)",
    "updateTime": "2026/07/21 13:45"
  },
  {
    "vehicleNum": "091785",
    "vehicleCd": "120",
    "vehicleCorpCd": "2",
    "running": true,
    "lat": 34.408083,
    "lon": 135.355278,
    "route": "熊取町　七山方面循環コース",
    "stop": "新野田口",
    "passTime": "13:42",
    "vehicleType": "熊取町コミュニティバス(メジーナちゃん号)",
    "updateTime": "2026/07/21 13:45"
  },
  {
    "vehicleNum": "091895",
    "vehicleCd": "4",
    "vehicleCorpCd": "2",
    "running": true,
    "lat": 34.378972,
    "lon": 135.259583,
    "route": "泉南市コミュニティバス 南Ａ回り",
    "stop": "泉南りんくう公園",
    "passTime": "13:45",
    "vehicleType": "泉南市コミュニティバス(ピンク)",
    "updateTime": "2026/07/21 13:45"
  },
  {
    "vehicleNum": "091893",
    "vehicleCd": "84",
    "vehicleCorpCd": "2",
    "running": true,
    "lat": 34.361889,
    "lon": 135.291278,
    "route": "泉南市コミュニティバス 砂川回り",
    "stop": "砂川台団地北",
    "passTime": "13:44",
    "vehicleType": "岸和田市コミュニティバス(ローズバス)",
    "updateTime": "2026/07/21 13:45"
  },
  {
    "vehicleNum": "091894",
    "vehicleCd": "3",
    "vehicleCorpCd": "2",
    "running": true,
    "lat": 34.371778,
    "lon": 135.265972,
    "route": "泉南市コミュニティバス 山回り",
    "stop": "鳴滝",
    "passTime": "13:42",
    "vehicleType": "泉南市コミュニティバス(紫)",
    "updateTime": "2026/07/21 13:45"
  },
  {
    "vehicleNum": "092045",
    "vehicleCd": "463",
    "vehicleCorpCd": "1",
    "running": true,
    "lat": 34.424,
    "lon": 135.577278,
    "route": "ﾓｯｸﾙ 美加～木戸東町～美加",
    "stop": "美加の台駅前",
    "passTime": "13:44",
    "vehicleType": "南海バス(車椅子・ベビーカー・ノンステップ)",
    "updateTime": "2026/07/21 13:45"
  },
  {
    "vehicleNum": "092141",
    "vehicleCd": "527",
    "vehicleCorpCd": "1",
    "running": true,
    "lat": 34.636583,
    "lon": 135.414278,
    "route": "堺東駅前→ＡＴＣ→海遊館→堺東駅前",
    "stop": "ATC",
    "passTime": "13:36",
    "vehicleType": "南海バス",
    "updateTime": "2026/07/21 13:45"
  },
  {
    "vehicleNum": "092153",
    "vehicleCd": "529",
    "vehicleCorpCd": "1",
    "running": true,
    "lat": 34.438,
    "lon": 135.232694,
    "route": "エアロプラザ→第２ターミナル(国内線・国際線)→エアロプラザ",
    "stop": "第2ターミナル国内線",
    "passTime": "13:43",
    "vehicleType": "南海バス",
    "updateTime": "2026/07/21 13:45"
  },
  {
    "vehicleNum": "092205",
    "vehicleCd": "25",
    "vehicleCorpCd": "1",
    "running": true,
    "lat": 34.406778,
    "lon": 135.661278,
    "route": "金剛山ﾛｰﾌﾟｳｪｲ前→日東町東口→河内長野駅前",
    "stop": "金剛山（伏見峠口）",
    "passTime": "13:44",
    "vehicleType": "南海バス(車椅子・ベビーカー・ノンステップ)",
    "updateTime": "2026/07/21 13:45"
  },
  {
    "vehicleNum": "092233",
    "vehicleCd": "533",
    "vehicleCorpCd": "1",
    "running": true,
    "lat": 34.5325,
    "lon": 135.46,
    "route": "堺東駅前→鳳駅前→光明池駅",
    "stop": "鳳駅前",
    "passTime": "13:44",
    "vehicleType": "南海バス(車椅子・ベビーカー・ノンステップ)",
    "updateTime": "2026/07/21 13:45"
  },
  {
    "vehicleNum": "092345",
    "vehicleCd": "160",
    "vehicleCorpCd": "1",
    "running": true,
    "lat": 34.425083,
    "lon": 135.230583,
    "route": "空港駅→ＦｅｄＥｘ→給油地区",
    "stop": "JAL輸出ビル前",
    "passTime": "13:45",
    "vehicleType": "南海バス",
    "updateTime": "2026/07/21 13:45"
  },
  {
    "vehicleNum": "092454",
    "vehicleCd": "125",
    "vehicleCorpCd": "2",
    "running": true,
    "lat": 34.381278,
    "lon": 135.266194,
    "route": "泉南市コミュニティバス 岡田Ｂ回り",
    "stop": "イオンモールりんくう泉南",
    "passTime": "13:44",
    "vehicleType": "泉南市コミュニティバス(橙)",
    "updateTime": "2026/07/21 13:45"
  },
  {
    "vehicleNum": "092467",
    "vehicleCd": "50",
    "vehicleCorpCd": "1",
    "running": true,
    "lat": 34.45,
    "lon": 135.558,
    "route": "旭→天野山→長野",
    "stop": "上原口",
    "passTime": "13:42",
    "vehicleType": "南海バス(車椅子・ベビーカー・ノンステップ)",
    "updateTime": "2026/07/21 13:45"
  },
  {
    "vehicleNum": "092468",
    "vehicleCd": "51",
    "vehicleCorpCd": "1",
    "running": true,
    "lat": 34.426694,
    "lon": 135.570389,
    "route": "三日市町駅前→南青葉台→三日市町駅前",
    "stop": "北青葉台",
    "passTime": "13:45",
    "vehicleType": "南海バス(車椅子・ベビーカー・ノンステップ)",
    "updateTime": "2026/07/21 13:45"
  },
  {
    "vehicleNum": "092470",
    "vehicleCd": "105",
    "vehicleCorpCd": "1",
    "running": true,
    "lat": 34.433778,
    "lon": 135.566583,
    "route": "南ヶ丘→南花台４丁目→三日市町駅前",
    "stop": "南花台１丁目北",
    "passTime": "13:44",
    "vehicleType": "南海バス(車椅子・ベビーカー・ノンステップ)",
    "updateTime": "2026/07/21 13:45"
  },
  {
    "vehicleNum": "092498",
    "vehicleCd": "8",
    "vehicleCorpCd": "1",
    "running": true,
    "lat": 34.481583,
    "lon": 135.467278,
    "route": "堺東駅前→鳳駅前→光明池駅",
    "stop": "檜尾山",
    "passTime": "13:44",
    "vehicleType": "南海バス(車椅子・ベビーカー・ノンステップ)",
    "updateTime": "2026/07/21 13:45"
  },
  {
    "vehicleNum": "092561",
    "vehicleCd": "74",
    "vehicleCorpCd": "1",
    "running": true,
    "lat": 34.494778,
    "lon": 135.578778,
    "route": "PL病院→金剛駅前（東側）→津々山台2丁目→PL病院",
    "stop": "津々山台２丁目東",
    "passTime": "13:45",
    "vehicleType": "南海バス(車椅子・ベビーカー・ノンステップ)",
    "updateTime": "2026/07/21 13:45"
  },
  {
    "vehicleNum": "092569",
    "vehicleCd": "266",
    "vehicleCorpCd": "1",
    "running": true,
    "lat": 34.465583,
    "lon": 135.462694,
    "route": "泉大津駅前→和泉府中駅前→和泉中央駅→光明池駅",
    "stop": "和泉中央駅",
    "passTime": "13:40",
    "vehicleType": "南海バス(車椅子・ベビーカー・ノンステップ)",
    "updateTime": "2026/07/21 13:45"
  },
  {
    "vehicleNum": "092534",
    "vehicleCd": "265",
    "vehicleCorpCd": "1",
    "running": true,
    "lat": 34.484583,
    "lon": 135.424889,
    "route": "和泉中央駅→医療センター玄関口→和泉府中駅前",
    "stop": "府中町南",
    "passTime": "13:42",
    "vehicleType": "南海バス(車椅子・ベビーカー・ノンステップ)",
    "updateTime": "2026/07/21 13:45"
  },
  {
    "vehicleNum": "092570",
    "vehicleCd": "577",
    "vehicleCorpCd": "1",
    "running": true,
    "lat": 34.499778,
    "lon": 135.410083,
    "route": "和泉中央駅→寺田→泉大津駅前",
    "stop": "旭町",
    "passTime": "13:45",
    "vehicleType": "南海バス(車椅子・ベビーカー・ノンステップ)",
    "updateTime": "2026/07/21 13:45"
  },
  {
    "vehicleNum": "092577",
    "vehicleCd": "578",
    "vehicleCorpCd": "1",
    "running": true,
    "lat": 34.4335,
    "lon": 135.5825,
    "route": "三日市町駅前→清見台回り→三日市町駅前",
    "stop": "清見台３丁目",
    "passTime": "13:44",
    "vehicleType": "南海バス(車椅子・ベビーカー・ノンステップ)",
    "updateTime": "2026/07/21 13:45"
  },
  {
    "vehicleNum": "092572",
    "vehicleCd": "313",
    "vehicleCorpCd": "1",
    "running": true,
    "lat": 34.505083,
    "lon": 135.453389,
    "route": "北信太駅筋→鶴山台団地→北信太駅筋",
    "stop": "志保池公園前",
    "passTime": "13:45",
    "vehicleType": "南海バス(車椅子・ベビーカー・ノンステップ)",
    "updateTime": "2026/07/21 13:45"
  },
  {
    "vehicleNum": "092580",
    "vehicleCd": "377",
    "vehicleCorpCd": "1",
    "running": true,
    "lat": 34.458583,
    "lon": 135.447583,
    "route": "和泉中央駅→寺田→泉大津駅前",
    "stop": "唐国",
    "passTime": "13:45",
    "vehicleType": "南海バス(車椅子・ベビーカー・ノンステップ)",
    "updateTime": "2026/07/21 13:45"
  },
  {
    "vehicleNum": "092581",
    "vehicleCd": "375",
    "vehicleCorpCd": "1",
    "running": true,
    "lat": 34.533278,
    "lon": 135.463083,
    "route": "栂・美木多駅→鳳駅前→堺東駅前",
    "stop": "鳳駅前",
    "passTime": "13:38",
    "vehicleType": "南海バス(車椅子・ベビーカー・ノンステップ)",
    "updateTime": "2026/07/21 13:45"
  },
  {
    "vehicleNum": "092587",
    "vehicleCd": "124",
    "vehicleCorpCd": "1",
    "running": true,
    "lat": 34.423583,
    "lon": 135.5385,
    "route": "河内長野駅前→奥河内くろまろの郷→滝畑ダム",
    "stop": "日野コミュニティーセンター",
    "passTime": "13:44",
    "vehicleType": "南海バス(車椅子・ベビーカー・ノンステップ)",
    "updateTime": "2026/07/21 13:45"
  },
  {
    "vehicleNum": "092647",
    "vehicleCd": "587",
    "vehicleCorpCd": "1",
    "running": true,
    "lat": 34.453778,
    "lon": 135.566778,
    "route": "河内長野市役所前→河内長野駅前",
    "stop": "ラブリーホール前",
    "passTime": "13:45",
    "vehicleType": "南海バス(車椅子・ベビーカー・ノンステップ)",
    "updateTime": "2026/07/21 13:45"
  },
  {
    "vehicleNum": "092623",
    "vehicleCd": "15",
    "vehicleCorpCd": "1",
    "running": true,
    "lat": 34.475,
    "lon": 135.475583,
    "route": "泉ヶ丘駅→光明池駅→赤坂台４丁→光明池駅→泉ヶ丘駅",
    "stop": "光明池駅",
    "passTime": "13:43",
    "vehicleType": "南海バス(車椅子・ベビーカー・ノンステップ)",
    "updateTime": "2026/07/21 13:45"
  },
  {
    "vehicleNum": "092653",
    "vehicleCd": "357",
    "vehicleCorpCd": "1",
    "running": true,
    "lat": 34.445389,
    "lon": 135.544194,
    "route": "緑ヶ丘北町→千代田駅前",
    "stop": "緑ヶ丘南町",
    "passTime": "13:45",
    "vehicleType": "南海バス(車椅子・ベビーカー・ノンステップ)",
    "updateTime": "2026/07/21 13:45"
  },
  {
    "vehicleNum": "092696",
    "vehicleCd": "589",
    "vehicleCorpCd": "1",
    "running": true,
    "lat": 34.549389,
    "lon": 135.464083,
    "route": "堺東駅前→鳳駅前→国分峠東",
    "stop": "神石市之町",
    "passTime": "13:44",
    "vehicleType": "南海バス(車椅子・ベビーカー・ノンステップ)",
    "updateTime": "2026/07/21 13:45"
  },
  {
    "vehicleNum": "092711",
    "vehicleCd": "355",
    "vehicleCorpCd": "1",
    "running": true,
    "lat": 34.561972,
    "lon": 135.474278,
    "route": "光明池駅→山田→堺東駅前",
    "stop": "旭ヶ丘北町",
    "passTime": "13:45",
    "vehicleType": "南海バス(車椅子・ベビーカー・ノンステップ)",
    "updateTime": "2026/07/21 13:45"
  },
  {
    "vehicleNum": "092757",
    "vehicleCd": "306",
    "vehicleCorpCd": "1",
    "running": true,
    "lat": 34.430194,
    "lon": 135.556778,
    "route": "三日市町駅前→南花台１丁目北→南ヶ丘",
    "stop": "南花台３丁目北",
    "passTime": "13:45",
    "vehicleType": "南海バス(車椅子・ベビーカー・ノンステップ)",
    "updateTime": "2026/07/21 13:45"
  },
  {
    "vehicleNum": "092758",
    "vehicleCd": "363",
    "vehicleCorpCd": "1",
    "running": true,
    "lat": 34.414389,
    "lon": 135.557278,
    "route": "三日市町駅前→南花台１丁目北→大矢船西町",
    "stop": "大矢船南町",
    "passTime": "13:42",
    "vehicleType": "南海バス(車椅子・ベビーカー・ノンステップ)",
    "updateTime": "2026/07/21 13:45"
  },
  {
    "vehicleNum": "092761",
    "vehicleCd": "23",
    "vehicleCorpCd": "1",
    "running": true,
    "lat": 34.452083,
    "lon": 135.567778,
    "route": "長野車庫→河内長野駅前",
    "stop": "錦町",
    "passTime": "13:45",
    "vehicleType": "南海バス(車椅子・ベビーカー・ノンステップ)",
    "updateTime": "2026/07/21 13:45"
  },
  {
    "vehicleNum": "092830",
    "vehicleCd": "367",
    "vehicleCorpCd": "1",
    "running": true,
    "lat": 34.473694,
    "lon": 135.474778,
    "route": "泉ヶ丘駅→光明池駅→城山台２丁→光明池駅→泉ヶ丘駅",
    "stop": "泉ヶ丘駅（北側）",
    "passTime": "13:39",
    "vehicleType": "南海バス(車椅子・ベビーカー・ノンステップ)",
    "updateTime": "2026/07/21 13:45"
  },
  {
    "vehicleNum": "092857",
    "vehicleCd": "516",
    "vehicleCorpCd": "1",
    "running": true,
    "lat": 34.4605,
    "lon": 135.454278,
    "route": "和泉中央駅→和泉青葉台→はつが野→和泉中央駅（右回り）",
    "stop": "万町弘法寺前",
    "passTime": "13:40",
    "vehicleType": "南海バス(車椅子・ベビーカー・ノンステップ)",
    "updateTime": "2026/07/21 13:45"
  },
  {
    "vehicleNum": "092856",
    "vehicleCd": "601",
    "vehicleCorpCd": "1",
    "running": true,
    "lat": 34.515889,
    "lon": 135.472889,
    "route": "堺東駅前→鳳駅前→栂・美木多駅",
    "stop": "福泉小学校前",
    "passTime": "13:43",
    "vehicleType": "南海バス(車椅子・ベビーカー・ノンステップ)",
    "updateTime": "2026/07/21 13:45"
  },
  {
    "vehicleNum": "081034",
    "vehicleCd": "120",
    "vehicleCorpCd": "1",
    "running": true,
    "lat": 34.488583,
    "lon": 135.495694,
    "route": "泉ヶ丘駅→庭代台右回り→泉ヶ丘駅",
    "stop": "泉ヶ丘駅（南側）",
    "passTime": "13:40",
    "vehicleType": "南海バス(車椅子・ベビーカー・ノンステップ)",
    "updateTime": "2026/07/21 13:45"
  },
  {
    "vehicleNum": "092873",
    "vehicleCd": "234",
    "vehicleCorpCd": "1",
    "running": true,
    "lat": 34.447778,
    "lon": 135.473694,
    "route": "和泉中央駅→はつが野→和泉青葉台→和泉中央駅（左回り）",
    "stop": "南池田小学校前",
    "passTime": "13:45",
    "vehicleType": "南海バス(車椅子・ベビーカー・ノンステップ)",
    "updateTime": "2026/07/21 13:45"
  },
  {
    "vehicleNum": "092900",
    "vehicleCd": "604",
    "vehicleCorpCd": "1",
    "running": true,
    "lat": 34.466083,
    "lon": 135.485,
    "route": "みずき台２丁目西→光明池駅",
    "stop": "城山台四丁",
    "passTime": "13:44",
    "vehicleType": "南海バス(車椅子・ベビーカー・ノンステップ)",
    "updateTime": "2026/07/21 13:45"
  },
  {
    "vehicleNum": "092913",
    "vehicleCd": "154",
    "vehicleCorpCd": "1",
    "running": true,
    "lat": 34.463389,
    "lon": 135.455694,
    "route": "和泉府中駅前→医療センター玄関口→和泉中央駅",
    "stop": "いぶき野三丁目",
    "passTime": "13:44",
    "vehicleType": "南海バス(車椅子・ベビーカー・ノンステップ)",
    "updateTime": "2026/07/21 13:45"
  },
  {
    "vehicleNum": "092901",
    "vehicleCd": "356",
    "vehicleCorpCd": "1",
    "running": true,
    "lat": 34.514583,
    "lon": 135.464889,
    "route": "光明池駅→山田→堺東駅前",
    "stop": "山田北",
    "passTime": "13:43",
    "vehicleType": "南海バス(車椅子・ベビーカー・ノンステップ)",
    "updateTime": "2026/07/21 13:45"
  },
  {
    "vehicleNum": "092914",
    "vehicleCd": "75",
    "vehicleCorpCd": "1",
    "running": true,
    "lat": 34.485194,
    "lon": 135.424889,
    "route": "泉大津駅前→和泉府中駅前→和泉中央駅",
    "stop": "泉大津急性期メディカルセンター前",
    "passTime": "13:42",
    "vehicleType": "南海バス(車椅子・ベビーカー・ノンステップ)",
    "updateTime": "2026/07/21 13:45"
  },
  {
    "vehicleNum": "092916",
    "vehicleCd": "235",
    "vehicleCorpCd": "1",
    "running": true,
    "lat": 34.485083,
    "lon": 135.424889,
    "route": "光明池駅→光明池車庫→和泉中央駅→泉大津駅前",
    "stop": "府中町南",
    "passTime": "13:43",
    "vehicleType": "南海バス(車椅子・ベビーカー・ノンステップ)",
    "updateTime": "2026/07/21 13:45"
  },
  {
    "vehicleNum": "092917",
    "vehicleCd": "40",
    "vehicleCorpCd": "1",
    "running": true,
    "lat": 34.412972,
    "lon": 135.532194,
    "route": "滝畑ダム→奥河内くろまろの郷→河内長野駅前",
    "stop": "サイクルセンター",
    "passTime": "13:45",
    "vehicleType": "南海バス(車椅子・ベビーカー・ノンステップ)",
    "updateTime": "2026/07/21 13:45"
  },
  {
    "vehicleNum": "092919",
    "vehicleCd": "230",
    "vehicleCorpCd": "1",
    "running": true,
    "lat": 34.442389,
    "lon": 135.549194,
    "route": "長野→天野山→旭",
    "stop": "水落",
    "passTime": "13:45",
    "vehicleType": "南海バス(車椅子・ベビーカー・ノンステップ)",
    "updateTime": "2026/07/21 13:45"
  },
  {
    "vehicleNum": "092918",
    "vehicleCd": "114",
    "vehicleCorpCd": "1",
    "running": true,
    "lat": 34.438583,
    "lon": 135.449889,
    "route": "和泉中央駅→テクノステージセンター前→グリーンポリス前→和泉中央駅",
    "stop": "大阪技術研前",
    "passTime": "13:41",
    "vehicleType": "南海バス(車椅子・ベビーカー・ノンステップ)",
    "updateTime": "2026/07/21 13:45"
  },
  {
    "vehicleNum": "092936",
    "vehicleCd": "322",
    "vehicleCorpCd": "1",
    "running": true,
    "lat": 34.422889,
    "lon": 135.2255,
    "route": "給油地区→空港駅",
    "stop": "ANA車輌整備工場前",
    "passTime": "13:45",
    "vehicleType": "南海バス(車椅子・ベビーカー・ノンステップ)",
    "updateTime": "2026/07/21 13:45"
  },
  {
    "vehicleNum": "092976",
    "vehicleCd": "138",
    "vehicleCorpCd": "1",
    "running": true,
    "lat": 34.473583,
    "lon": 135.430889,
    "route": "泉大津駅前→和泉府中駅前→和泉中央駅",
    "stop": "和気小学校前",
    "passTime": "13:44",
    "vehicleType": "南海バス(車椅子・ベビーカー・ノンステップ)",
    "updateTime": "2026/07/21 13:45"
  },
  {
    "vehicleNum": "092978",
    "vehicleCd": "325",
    "vehicleCorpCd": "1",
    "running": true,
    "lat": 34.484583,
    "lon": 135.483889,
    "route": "国分峠東→栂・美木多駅→堺東駅前",
    "stop": "桧尾",
    "passTime": "13:45",
    "vehicleType": "南海バス(車椅子・ベビーカー・ノンステップ)",
    "updateTime": "2026/07/21 13:46"
  },
  {
    "vehicleNum": "093032",
    "vehicleCd": "231",
    "vehicleCorpCd": "1",
    "running": true,
    "lat": 34.4345,
    "lon": 135.238583,
    "route": "エアロプラザ→第２ターミナル(国内線・国際線)→エアロプラザ",
    "stop": "エアロプラザ",
    "passTime": "13:44",
    "vehicleType": "南海バス",
    "updateTime": "2026/07/21 13:46"
  },
  {
    "vehicleNum": "093071",
    "vehicleCd": "274",
    "vehicleCorpCd": "1",
    "running": true,
    "lat": 34.460194,
    "lon": 135.4745,
    "route": "光明池駅→城山台５丁→光明池車庫→光明池駅",
    "stop": "光明池車庫",
    "passTime": "13:44",
    "vehicleType": "南海バス(車椅子・ベビーカー・ノンステップ)",
    "updateTime": "2026/07/21 13:46"
  }
]